{
  "abbr": "AR",
  "name": "Arkansas",
  "counties": [
    {
      "fips": "05001",
      "name": "Arkansas County",
      "facilities": [
        {
          "EPAFacilityID": "100000014003",
          "name": "Stuttgart, AR",
          "city": "Stuttgart",
          "address": "502 North Grand Avenue",
          "lat_fac": 34.50006,
          "lon_fac": -91.51667,
          "names_prev": [
            "Stratton Seed Company",
            "Stratton Seeds Company"
          ],
          "sub_last": {
            "id": 1000077908,
            "date": "2019-06-03",
            "date_dereg": "2019-10-01",
            "lat_sub": "34.505500",
            "lon_sub": "-091.549496",
            "lat_frs": 34.50006,
            "lon_frs": -91.51667
          }
        }
      ]
    },
    {
      "fips": "05003",
      "name": "Ashley County",
      "facilities": [
        {
          "EPAFacilityID": "100000101409",
          "name": "Georgia-Pacific Chemicals LLC -  Crossett, AR",
          "city": "Crossett",
          "address": "124 Paper Mill Road",
          "lat_fac": 33.1613,
          "lon_fac": -91.963,
          "names_prev": [
            "Georgia-Pacific Resins, Inc., Crossett, AR",
            "Georgia-Pacific Resins, Inc. Crossett, AR Plant"
          ],
          "sub_last": {
            "id": 1000091723,
            "date": "2021-09-15",
            "date_dereg": null,
            "lat_sub": "33.138368",
            "lon_sub": "-091.966885",
            "lat_frs": 33.1613,
            "lon_frs": -91.963
          }
        },
        {
          "EPAFacilityID": "100000054424",
          "name": "Georgia-Pacific Consumer Operations LLC",
          "city": "Crossett",
          "address": "100 Mill Supply Road",
          "lat_fac": 33.14167,
          "lon_fac": -91.97,
          "names_prev": [
            "Georgia-Pacific LLC - Crossett Paper Operations",
            "Georgia-Pacific Crossett Paper Operations"
          ],
          "sub_last": {
            "id": 1000056539,
            "date": "2018-02-23",
            "date_dereg": "2019-10-24",
            "lat_sub": "33.141976",
            "lon_sub": "-091.969269",
            "lat_frs": 33.14167,
            "lon_frs": -91.97
          }
        }
      ]
    },
    {
      "fips": "05005",
      "name": "Baxter County",
      "facilities": [
        {
          "EPAFacilityID": "100000234285",
          "name": "Baxter Healthcare",
          "city": "Mountain Home",
          "address": "1900 Hwy 201 N",
          "lat_fac": null,
          "lon_fac": null,
          "names_prev": [],
          "sub_last": {
            "id": 1000061399,
            "date": "2021-07-19",
            "date_dereg": null,
            "lat_sub": "36.358947",
            "lon_sub": "-92.388427",
            "lat_frs": null,
            "lon_frs": null
          }
        },
        {
          "EPAFacilityID": "100000075946",
          "name": "Mountain Home Wastewater Treatment Plant",
          "city": "Mountain Home",
          "address": "537 Hicks Road",
          "lat_fac": 36.30056,
          "lon_fac": -92.38139,
          "names_prev": [
            "Mountain Home Waste Water Treatment Plant"
          ],
          "sub_last": {
            "id": 1000096106,
            "date": "2021-09-16",
            "date_dereg": null,
            "lat_sub": "36.300556",
            "lon_sub": "-092.381389",
            "lat_frs": 36.30056,
            "lon_frs": -92.38139
          }
        },
        {
          "EPAFacilityID": "100000075795",
          "name": "Robert E. Hurst Water Treatment Plant",
          "city": "Mountain Home",
          "address": "994 Water Plant Road",
          "lat_fac": 36.334,
          "lon_fac": -92.3819,
          "names_prev": [],
          "sub_last": {
            "id": 1000096103,
            "date": "2021-09-16",
            "date_dereg": null,
            "lat_sub": "36.391667",
            "lon_sub": "-092.329167",
            "lat_frs": 36.334,
            "lon_frs": -92.3819
          }
        }
      ]
    },
    {
      "fips": "05007",
      "name": "Benton County",
      "facilities": [
        {
          "EPAFacilityID": "100000032779",
          "name": "Kraft Foods Global, Inc.",
          "city": "Bentonville",
          "address": "507 S.E. \"E\" Street",
          "lat_fac": 36.36724,
          "lon_fac": -94.20293,
          "names_prev": [
            "Kraft Foods Inc."
          ],
          "sub_last": {
            "id": 1000002878,
            "date": "2009-06-16",
            "date_dereg": "2014-04-08",
            "lat_sub": "36.369444",
            "lon_sub": "-094.196111",
            "lat_frs": 36.36724,
            "lon_frs": -94.20293
          }
        },
        {
          "EPAFacilityID": "100000240483",
          "name": "United Industries Inc",
          "city": "Bentonville",
          "address": "1900 E Central Ave",
          "lat_fac": null,
          "lon_fac": null,
          "names_prev": [],
          "sub_last": {
            "id": 1000074400,
            "date": "2018-12-20",
            "date_dereg": null,
            "lat_sub": "36.368269",
            "lon_sub": "-94.188813",
            "lat_frs": null,
            "lon_frs": null
          }
        },
        {
          "EPAFacilityID": "100000030316",
          "name": "Simmons Decatur Processing North",
          "city": "Decatur",
          "address": "186 Roller Ave.",
          "lat_fac": 36.33611,
          "lon_fac": -94.46222,
          "names_prev": [
            "Peterson farms, Inc North Plant",
            "Peterson Farms, Inc. - North Plant"
          ],
          "sub_last": {
            "id": 1000063002,
            "date": "2019-03-11",
            "date_dereg": "2020-02-20",
            "lat_sub": "36.336226",
            "lon_sub": "-94.461889",
            "lat_frs": 36.33611,
            "lon_frs": -94.46222
          }
        },
        {
          "EPAFacilityID": "100000035776",
          "name": "Simmons Decatur Processing South",
          "city": "Decatur",
          "address": "185 Roller Ave.",
          "lat_fac": 36.33611,
          "lon_fac": -94.46222,
          "names_prev": [
            "Peterson farms, Inc South Plant",
            "Peterson Farms, Inc. - South Processing Plant"
          ],
          "sub_last": {
            "id": 1000063048,
            "date": "2019-03-11",
            "date_dereg": "2020-02-20",
            "lat_sub": "36.335353",
            "lon_sub": "-94.461741",
            "lat_frs": 36.33611,
            "lon_frs": -94.46222
          }
        },
        {
          "EPAFacilityID": "100000242588",
          "name": "Benton County Processing",
          "city": "Gentry",
          "address": "9806 Hwy 59",
          "lat_fac": null,
          "lon_fac": null,
          "names_prev": [],
          "sub_last": {
            "id": 1000081650,
            "date": "2020-04-08",
            "date_dereg": null,
            "lat_sub": "36.296964",
            "lon_sub": "-94.441344",
            "lat_frs": null,
            "lon_frs": null
          }
        },
        {
          "EPAFacilityID": "100000141839",
          "name": "Americold - Lowell",
          "city": "Lowell",
          "address": "515 N Bloomington Street",
          "lat_fac": 36.26181,
          "lon_fac": -94.13661,
          "names_prev": [
            "Cloverleaf Cold Storage Co. LLC",
            "Zero Mountain, Inc. Lowell",
            "Zero Mountain, Inc."
          ],
          "sub_last": {
            "id": 1000089344,
            "date": "2020-10-13",
            "date_dereg": null,
            "lat_sub": "36.262778",
            "lon_sub": "-094.135000",
            "lat_frs": 36.26181,
            "lon_frs": -94.13661
          }
        },
        {
          "EPAFacilityID": "100000124386",
          "name": "Beaver Water District Water Treatment Facility",
          "city": "Lowell",
          "address": "101 N. Primrose Road \u2022 P.O. Box 400",
          "lat_fac": 36.25417,
          "lon_fac": -94.1,
          "names_prev": [
            "Beaver Water District"
          ],
          "sub_last": {
            "id": 1000066388,
            "date": "2019-07-11",
            "date_dereg": null,
            "lat_sub": "36.253333",
            "lon_sub": "-094.105556",
            "lat_frs": 36.25417,
            "lon_frs": -94.1
          }
        },
        {
          "EPAFacilityID": "100000199616",
          "name": "Don's Cold Storage Facility",
          "city": "Rogers",
          "address": "801 West Easy Street",
          "lat_fac": null,
          "lon_fac": null,
          "names_prev": [],
          "sub_last": {
            "id": 1000085964,
            "date": "2020-04-10",
            "date_dereg": null,
            "lat_sub": "36.349998",
            "lon_sub": "-094.126976",
            "lat_frs": null,
            "lon_frs": null
          }
        },
        {
          "EPAFacilityID": "100000052284",
          "name": "Petit Jean Poultry",
          "city": "Rogers",
          "address": "2200 Townwest Drive",
          "lat_fac": 36.35146,
          "lon_fac": -94.14541,
          "names_prev": [],
          "sub_last": {
            "id": 4223,
            "date": "1999-06-24",
            "date_dereg": "2011-08-09",
            "lat_sub": "36.352778",
            "lon_sub": "-94.149722",
            "lat_frs": 36.35146,
            "lon_frs": -94.14541
          }
        },
        {
          "EPAFacilityID": "100000235051",
          "name": "Rogers Pollution Control Facility",
          "city": "Rogers",
          "address": "4300 Rainbow Rd",
          "lat_fac": null,
          "lon_fac": null,
          "names_prev": [],
          "sub_last": {
            "id": 1000062877,
            "date": "2017-04-10",
            "date_dereg": null,
            "lat_sub": "36.299739",
            "lon_sub": "-94.214216",
            "lat_frs": null,
            "lon_frs": null
          }
        },
        {
          "EPAFacilityID": "100000140803",
          "name": "Swift Chemical Co., Inc.",
          "city": "Rogers",
          "address": "2001 S. First Street",
          "lat_fac": 36.31092,
          "lon_fac": -94.11744,
          "names_prev": [],
          "sub_last": {
            "id": 13417,
            "date": "1999-07-19",
            "date_dereg": "2006-04-17",
            "lat_sub": "36.308472",
            "lon_sub": "-94.114583",
            "lat_frs": 36.31092,
            "lon_frs": -94.11744
          }
        },
        {
          "EPAFacilityID": "100000052444",
          "name": "TYSON FOODS, INC. - Tyson of Rogers",
          "city": "ROGERS",
          "address": "212 EAST ELM",
          "lat_fac": 36.33178,
          "lon_fac": -94.11508,
          "names_prev": [
            "TYSON FOODS, INC. TOR",
            "TYSON FOODS, INC. ROGERS, AR. (FP)"
          ],
          "sub_last": {
            "id": 1000078954,
            "date": "2021-11-05",
            "date_dereg": null,
            "lat_sub": "36.332164",
            "lon_sub": "-94.114842",
            "lat_frs": 36.33178,
            "lon_frs": -94.11508
          }
        },
        {
          "EPAFacilityID": "100000171164",
          "name": "TYSON POULTRY, INC. CHICK-N-QUICK",
          "city": "ROGERS",
          "address": "400 WEST OLRICH ST. \u2022 PO BOX 900",
          "lat_fac": 36.31868,
          "lon_fac": -94.12192,
          "names_prev": [
            "TYSON FOODS, INC. CHICK-N-QUIK"
          ],
          "sub_last": {
            "id": 1000079551,
            "date": "2021-07-02",
            "date_dereg": null,
            "lat_sub": "36.318333",
            "lon_sub": "-094.121111",
            "lat_frs": 36.31868,
            "lon_frs": -94.12192
          }
        },
        {
          "EPAFacilityID": "100000052079",
          "name": "TYSON POULTRY, INC. TYSON DISTRIBUTION CENTER",
          "city": "ROGERS",
          "address": "402 WEST OLRICH ST. \u2022 PO BOX 900",
          "lat_fac": 36.31868,
          "lon_fac": -94.12192,
          "names_prev": [
            "TYSON FOODS, INC. ROGERS, AR. (TDC)",
            "TYSON FOODS, INC. ROGERS, AR. (DISTRIBUTION)"
          ],
          "sub_last": {
            "id": 1000076748,
            "date": "2019-05-17",
            "date_dereg": null,
            "lat_sub": "36.316914",
            "lon_sub": "-94.121943",
            "lat_frs": 36.31868,
            "lon_frs": -94.12192
          }
        },
        {
          "EPAFacilityID": "100000179727",
          "name": "Water Treatment Plant",
          "city": "Rogers",
          "address": "15531 Woods Lodge Road",
          "lat_fac": 36.39874,
          "lon_fac": -94.03461,
          "names_prev": [
            "Benton/Washington Regional Public Water Authority"
          ],
          "sub_last": {
            "id": 1000066024,
            "date": "2017-09-27",
            "date_dereg": null,
            "lat_sub": "36.398942",
            "lon_sub": "-094.035069",
            "lat_frs": 36.39874,
            "lon_frs": -94.03461
          }
        },
        {
          "EPAFacilityID": "100000030806",
          "name": "Daniels Water Treatment Plant",
          "city": "Siloam Springs",
          "address": "2600 S. Carl Street",
          "lat_fac": 36.16433,
          "lon_fac": -94.55063,
          "names_prev": [
            "Siloam Springs Water Treatment Plant"
          ],
          "sub_last": {
            "id": 1000074320,
            "date": "2019-02-11",
            "date_dereg": "2022-01-12",
            "lat_sub": "36.162776",
            "lon_sub": "-094.553055",
            "lat_frs": 36.16433,
            "lon_frs": -94.55063
          }
        },
        {
          "EPAFacilityID": "100000235088",
          "name": "Simmons Feed Ingredients Inc. - Siloam Springs",
          "city": "Siloam Springs",
          "address": "1113 E Ashley Rd",
          "lat_fac": null,
          "lon_fac": null,
          "names_prev": [
            "Simmons Feed Ingredients"
          ],
          "sub_last": {
            "id": 1000063959,
            "date": "2019-04-02",
            "date_dereg": null,
            "lat_sub": "36.186669",
            "lon_sub": "-94.532105",
            "lat_frs": null,
            "lon_frs": null
          }
        },
        {
          "EPAFacilityID": "100000012023",
          "name": "Simmons Foods, SSFP",
          "city": "Siloam Springs",
          "address": "1001 East Main",
          "lat_fac": 36.18467,
          "lon_fac": -94.531,
          "names_prev": [
            "Simmons Foods - Plant 2"
          ],
          "sub_last": {
            "id": 1000067861,
            "date": "2019-03-11",
            "date_dereg": null,
            "lat_sub": "36.183611",
            "lon_sub": "-094.540556",
            "lat_frs": 36.18467,
            "lon_frs": -94.531
          }
        },
        {
          "EPAFacilityID": "100000019464",
          "name": "Simmons Foods, SSP1",
          "city": "Siloam Springs",
          "address": "316 N. Hico",
          "lat_fac": 36.18717,
          "lon_fac": -94.533,
          "names_prev": [
            "Simmons Foods - Plant 1"
          ],
          "sub_last": {
            "id": 1000088324,
            "date": "2020-08-07",
            "date_dereg": null,
            "lat_sub": "36.187500",
            "lon_sub": "-094.533889",
            "lat_frs": 36.18717,
            "lon_frs": -94.533
          }
        },
        {
          "EPAFacilityID": "100000036052",
          "name": "Water Pollution Control Facility",
          "city": "Siloam Springs",
          "address": "975 Anderson Avenue",
          "lat_fac": 36.194,
          "lon_fac": -94.564,
          "names_prev": [
            "Siloam Springs Pollution Control Plant"
          ],
          "sub_last": {
            "id": 44499,
            "date": "2005-12-15",
            "date_dereg": "2008-08-11",
            "lat_sub": "36.193972",
            "lon_sub": "-094.564028",
            "lat_frs": 36.194,
            "lon_frs": -94.564
          }
        }
      ]
    },
    {
      "fips": "05009",
      "name": "Boone County",
      "facilities": [
        {
          "EPAFacilityID": "100000127944",
          "name": "Harrison Waste Water Treatment Plant",
          "city": "Harrison",
          "address": "1508 Silver Valley Road",
          "lat_fac": 36.23667,
          "lon_fac": -93.07639,
          "names_prev": [
            "Waste Water Treatment Plant"
          ],
          "sub_last": {
            "id": 1000000093,
            "date": "2009-04-01",
            "date_dereg": "2009-09-02",
            "lat_sub": "36.237500",
            "lon_sub": "-093.077222",
            "lat_frs": 36.23667,
            "lon_frs": -93.07639
          }
        }
      ]
    },
    {
      "fips": "05013",
      "name": "Calhoun County",
      "facilities": [
        {
          "EPAFacilityID": "100000191133",
          "name": "Spectra Technologies, LLC",
          "city": "East Camden",
          "address": "Highland Industrial Park, 11AT Area \u2022 Highway 274",
          "lat_fac": null,
          "lon_fac": null,
          "names_prev": [],
          "sub_last": {
            "id": 42413,
            "date": "2005-03-28",
            "date_dereg": "2007-09-07",
            "lat_sub": "33.617700",
            "lon_sub": "-092.611483",
            "lat_frs": null,
            "lon_frs": null
          }
        }
      ]
    },
    {
      "fips": "05015",
      "name": "Carroll County",
      "facilities": [
        {
          "EPAFacilityID": "100000147717",
          "name": "Berryville, City of-WWTP",
          "city": "Berryville",
          "address": "1000 West Cedarvale Road",
          "lat_fac": 36.35444,
          "lon_fac": -93.57389,
          "names_prev": [],
          "sub_last": {
            "id": 13981,
            "date": "1999-07-22",
            "date_dereg": "2000-02-08",
            "lat_sub": "36.354444",
            "lon_sub": "-93.573889",
            "lat_frs": 36.35444,
            "lon_frs": -93.57389
          }
        },
        {
          "EPAFacilityID": "100000051524",
          "name": "TYSON FOODS, INC. BERRYVILLE, AR.",
          "city": "BERRYVILLE",
          "address": "110 WEST FREEMAN AVE.",
          "lat_fac": 36.37074,
          "lon_fac": -93.57065,
          "names_prev": [],
          "sub_last": {
            "id": 1000070064,
            "date": "2018-07-03",
            "date_dereg": null,
            "lat_sub": "36.370833",
            "lon_sub": "-093.570556",
            "lat_frs": 36.37074,
            "lon_frs": -93.57065
          }
        },
        {
          "EPAFacilityID": "100000041368",
          "name": "Carroll-Boone Freeman Raney Water Treatment Plant",
          "city": "Eureka Springs",
          "address": "11510 HWY 187",
          "lat_fac": 36.40306,
          "lon_fac": -93.8309,
          "names_prev": [
            "Carroll Boone Freeman Raney Water Treatment Plant"
          ],
          "sub_last": {
            "id": 1000077848,
            "date": "2019-05-02",
            "date_dereg": null,
            "lat_sub": "36.411389",
            "lon_sub": "-093.837500",
            "lat_frs": 36.40306,
            "lon_frs": -93.8309
          }
        },
        {
          "EPAFacilityID": "100000052499",
          "name": "TYSON FOODS, INC. GREEN FOREST, AR.",
          "city": "GREEN FOREST",
          "address": "601 TYSON DR.",
          "lat_fac": 36.33197,
          "lon_fac": -93.44353,
          "names_prev": [],
          "sub_last": {
            "id": 1000066544,
            "date": "2017-10-27",
            "date_dereg": null,
            "lat_sub": "36.330556",
            "lon_sub": "-093.429167",
            "lat_frs": 36.33197,
            "lon_frs": -93.44353
          }
        }
      ]
    },
    {
      "fips": "05019",
      "name": "Clark County",
      "facilities": [
        {
          "EPAFacilityID": "100000028668",
          "name": "Hitco Carbon Composites, Inc.",
          "city": "Arkadelphia",
          "address": "201 Technology Drive",
          "lat_fac": 34.047,
          "lon_fac": -93.0889,
          "names_prev": [
            "SGL Technics, Inc.",
            "SGL Technic, Inc."
          ],
          "sub_last": {
            "id": 47874,
            "date": "2007-03-23",
            "date_dereg": "2007-05-24",
            "lat_sub": "34.048889",
            "lon_sub": "-093.094167",
            "lat_frs": 34.047,
            "lon_frs": -93.0889
          }
        },
        {
          "EPAFacilityID": "100000058947",
          "name": "Petit Jean Poultry Arkadelphia plant",
          "city": "Arkadelphia",
          "address": "125 Technology Drive",
          "lat_fac": 34.047,
          "lon_fac": -93.0889,
          "names_prev": [
            "Petit Jean Poultry"
          ],
          "sub_last": {
            "id": 33974,
            "date": "2004-07-23",
            "date_dereg": "2011-04-04",
            "lat_sub": "34.049722",
            "lon_sub": "-093.096667",
            "lat_frs": 34.047,
            "lon_frs": -93.0889
          }
        }
      ]
    },
    {
      "fips": "05023",
      "name": "Cleburne County",
      "facilities": [
        {
          "EPAFacilityID": "100000139192",
          "name": "Community Water System",
          "city": "Greers Ferry",
          "address": "299 Lakeshore Dr.",
          "lat_fac": 35.57198,
          "lon_fac": -92.2018,
          "names_prev": [],
          "sub_last": {
            "id": 1000070289,
            "date": "2018-06-20",
            "date_dereg": null,
            "lat_sub": "35.594139",
            "lon_sub": "-092.167361",
            "lat_frs": 35.57198,
            "lon_frs": -92.2018
          }
        }
      ]
    },
    {
      "fips": "05027",
      "name": "Columbia County",
      "facilities": [
        {
          "EPAFacilityID": "100000111425",
          "name": "Albemarle Corporation South Plant",
          "city": "Magnolia",
          "address": "2270 Highway 79 South",
          "lat_fac": 33.17478,
          "lon_fac": -93.21575,
          "names_prev": [],
          "sub_last": {
            "id": 1000068880,
            "date": "2018-03-28",
            "date_dereg": null,
            "lat_sub": "33.174778",
            "lon_sub": "-093.215750",
            "lat_frs": 33.17478,
            "lon_frs": -93.21575
          }
        },
        {
          "EPAFacilityID": "100000101347",
          "name": "Albemarle Corporation West Plant",
          "city": "Magnolia",
          "address": "1550 Highway 371 West",
          "lat_fac": 33.26306,
          "lon_fac": -93.3155,
          "names_prev": [],
          "sub_last": {
            "id": 1000068881,
            "date": "2018-03-28",
            "date_dereg": null,
            "lat_sub": "33.263056",
            "lon_sub": "-093.315500",
            "lat_frs": 33.26306,
            "lon_frs": -93.3155
          }
        },
        {
          "EPAFacilityID": "100000215956",
          "name": "Dorcheat Gas Plant",
          "city": "Magnolia",
          "address": "488 County Road 204",
          "lat_fac": null,
          "lon_fac": null,
          "names_prev": [],
          "sub_last": {
            "id": 1000067578,
            "date": "2018-01-15",
            "date_dereg": null,
            "lat_sub": "33.188113",
            "lon_sub": "-93.332437",
            "lat_frs": null,
            "lon_frs": null
          }
        },
        {
          "EPAFacilityID": "100000072681",
          "name": "Grayson Field Gas Plant",
          "city": "Magnolia",
          "address": "411 Hwy 371 North",
          "lat_fac": 33.26995,
          "lon_fac": -93.29081,
          "names_prev": [],
          "sub_last": {
            "id": 1000043939,
            "date": "2014-06-13",
            "date_dereg": "2016-11-01",
            "lat_sub": "33.3069445",
            "lon_sub": "-093.258889",
            "lat_frs": 33.26995,
            "lon_frs": -93.29081
          }
        },
        {
          "EPAFacilityID": "100000086033",
          "name": "Magnolia Wastewater Treatment Plant",
          "city": "Magnolia",
          "address": "72 Columbia 300",
          "lat_fac": 33.26583,
          "lon_fac": -93.27278,
          "names_prev": [
            "Magnolia Waste Water System"
          ],
          "sub_last": {
            "id": 1000077653,
            "date": "2019-05-07",
            "date_dereg": null,
            "lat_sub": "33.266389",
            "lon_sub": "-093.265000",
            "lat_frs": 33.26583,
            "lon_frs": -93.27278
          }
        },
        {
          "EPAFacilityID": "100000090144",
          "name": "Sterling Lacy Water Purification Plant",
          "city": "Magnolia",
          "address": "1300 West Greene",
          "lat_fac": 33.28322,
          "lon_fac": -93.25652,
          "names_prev": [
            "Magnolia Municipal Water System"
          ],
          "sub_last": {
            "id": 1000078421,
            "date": "2019-09-27",
            "date_dereg": null,
            "lat_sub": "33.283696",
            "lon_sub": "-093.257790",
            "lat_frs": 33.28322,
            "lon_frs": -93.25652
          }
        },
        {
          "EPAFacilityID": "100000109278",
          "name": "Quantum Resources Management, Walker Creek Gas Pl",
          "city": "Taylor",
          "address": "12261 Hwy 371",
          "lat_fac": 33.08785,
          "lon_fac": -93.46196,
          "names_prev": [
            "Walker Creek Gas Plant"
          ],
          "sub_last": {
            "id": 49243,
            "date": "2007-08-16",
            "date_dereg": "2008-06-20",
            "lat_sub": "33.077972",
            "lon_sub": "-093.460583",
            "lat_frs": 33.08785,
            "lon_frs": -93.46196
          }
        }
      ]
    },
    {
      "fips": "05029",
      "name": "Conway County",
      "facilities": [
        {
          "EPAFacilityID": "100000189119",
          "name": "Morrilton Packing Company, Inc.",
          "city": "Morrilton",
          "address": "51 Blue Diamond Drive",
          "lat_fac": null,
          "lon_fac": null,
          "names_prev": [],
          "sub_last": {
            "id": 1000046420,
            "date": "2014-09-09",
            "date_dereg": "2017-10-27",
            "lat_sub": "35.170278",
            "lon_sub": "-092.712222",
            "lat_frs": null,
            "lon_frs": null
          }
        },
        {
          "EPAFacilityID": "100000012194",
          "name": "Conway County Regional Water Distribution District",
          "city": "Plumerville",
          "address": "#30 H20 Drive",
          "lat_fac": 35.1688,
          "lon_fac": -92.7579,
          "names_prev": [],
          "sub_last": {
            "id": 1000090345,
            "date": "2020-10-13",
            "date_dereg": null,
            "lat_sub": "35.178889",
            "lon_sub": "-092.647222",
            "lat_frs": 35.1688,
            "lon_frs": -92.7579
          }
        }
      ]
    },
    {
      "fips": "05031",
      "name": "Craighead County",
      "facilities": [
        {
          "EPAFacilityID": "100000119212",
          "name": "Butterball, LLC",
          "city": "Jonesboro",
          "address": "9401 East Highland Drive",
          "lat_fac": 35.82203,
          "lon_fac": -90.55901,
          "names_prev": [
            "ConAgra Foods",
            "Armour Swift-Eckrich Deli Foodservice"
          ],
          "sub_last": {
            "id": 1000067525,
            "date": "2018-03-14",
            "date_dereg": null,
            "lat_sub": "35.820530",
            "lon_sub": "-90.561917",
            "lat_frs": 35.82203,
            "lon_frs": -90.55901
          }
        },
        {
          "EPAFacilityID": "100000215073",
          "name": "CWL - Commerce Pumping Station",
          "city": "Jonesboro",
          "address": "1900 Commerce Drive",
          "lat_fac": null,
          "lon_fac": null,
          "names_prev": [],
          "sub_last": {
            "id": 1000099492,
            "date": "2022-02-08",
            "date_dereg": null,
            "lat_sub": "35.8220586",
            "lon_sub": "-90.624418",
            "lat_frs": null,
            "lon_frs": null
          }
        },
        {
          "EPAFacilityID": "100000071496",
          "name": "CWL - Medallion Pumping Station",
          "city": "Jonesboro",
          "address": "1220 Medallion Circle",
          "lat_fac": 35.8025,
          "lon_fac": -90.69445,
          "names_prev": [],
          "sub_last": {
            "id": 1000099364,
            "date": "2022-02-08",
            "date_dereg": null,
            "lat_sub": "35.802626",
            "lon_sub": "-090.691121",
            "lat_frs": 35.8025,
            "lon_frs": -90.69445
          }
        },
        {
          "EPAFacilityID": "100000099608",
          "name": "CWL-Airport Pumping Station",
          "city": "Jonesboro",
          "address": "1612 Irby Street",
          "lat_fac": 35.82394,
          "lon_fac": -90.65439,
          "names_prev": [
            "CWL - Airport Pumping Station"
          ],
          "sub_last": {
            "id": 1000099490,
            "date": "2022-02-09",
            "date_dereg": null,
            "lat_sub": "35.824404",
            "lon_sub": "-090.654844",
            "lat_frs": 35.82394,
            "lon_frs": -90.65439
          }
        },
        {
          "EPAFacilityID": "100000072903",
          "name": "CWL-East Side Wastewater Treatment Facility",
          "city": "Jonesboro",
          "address": "5205 Ingels Road",
          "lat_fac": 35.79083,
          "lon_fac": -90.62667,
          "names_prev": [
            "CWL - East Side Wastewater Treatment Plant"
          ],
          "sub_last": {
            "id": 1000061964,
            "date": "2017-02-09",
            "date_dereg": "2020-08-07",
            "lat_sub": "35.790355",
            "lon_sub": "-090.632061",
            "lat_frs": 35.79083,
            "lon_frs": -90.62667
          }
        },
        {
          "EPAFacilityID": "100000071637",
          "name": "CWL-Race Street Pumping Station",
          "city": "Jonesboro",
          "address": "2700 Middlefield Drive",
          "lat_fac": 35.814,
          "lon_fac": -90.66588,
          "names_prev": [
            "CWL - RACE STREET PUMPING STATION"
          ],
          "sub_last": {
            "id": 1000099485,
            "date": "2022-02-09",
            "date_dereg": null,
            "lat_sub": "35.812586",
            "lon_sub": "-090.664106",
            "lat_frs": 35.814,
            "lon_frs": -90.66588
          }
        },
        {
          "EPAFacilityID": "100000072967",
          "name": "CWL-West Side Wastewater Treatment Plant",
          "city": "Jonesboro",
          "address": "1605 Willett Road",
          "lat_fac": 35.85611,
          "lon_fac": -90.74861,
          "names_prev": [
            "CWL - West Side Wastewater Treatment Plant"
          ],
          "sub_last": {
            "id": 1000061965,
            "date": "2017-02-09",
            "date_dereg": "2019-10-21",
            "lat_sub": "35.859444",
            "lon_sub": "-090.732584",
            "lat_frs": 35.85611,
            "lon_frs": -90.74861
          }
        },
        {
          "EPAFacilityID": "100000181536",
          "name": "Nestle Prepared Foods Company",
          "city": "Jonesboro",
          "address": "2407 Great Dane Drive",
          "lat_fac": null,
          "lon_fac": null,
          "names_prev": [
            "Millard Refrigerated Services"
          ],
          "sub_last": {
            "id": 1000094742,
            "date": "2021-08-05",
            "date_dereg": null,
            "lat_sub": "35.819569",
            "lon_sub": "-090.576883",
            "lat_frs": null,
            "lon_frs": null
          }
        },
        {
          "EPAFacilityID": "100000181082",
          "name": "Nestle Prepared Foods Company - Jonesboro, AR",
          "city": "Jonesboro",
          "address": "One Nestle Way",
          "lat_fac": 35.82028,
          "lon_fac": -90.57861,
          "names_prev": [
            "Nestle USA - Prepared Foods Division, Inc."
          ],
          "sub_last": {
            "id": 1000080174,
            "date": "2022-01-20",
            "date_dereg": null,
            "lat_sub": "35.821389",
            "lon_sub": "-090.583889",
            "lat_frs": 35.82028,
            "lon_frs": -90.57861
          }
        }
      ]
    },
    {
      "fips": "05033",
      "name": "Crawford County",
      "facilities": [
        {
          "EPAFacilityID": "100000120665",
          "name": "Lake Fort Smith Water Treatment Plant",
          "city": "Mountainburg",
          "address": "2100 Lake Fort Smith Road",
          "lat_fac": 35.64926,
          "lon_fac": -94.15193,
          "names_prev": [
            "Mountainburg Water Treatment Plant",
            "Mountianburg Water Treatment Facility"
          ],
          "sub_last": {
            "id": 1000066657,
            "date": "2022-02-25",
            "date_dereg": null,
            "lat_sub": "35.649076",
            "lon_sub": "-094.153753",
            "lat_frs": 35.64926,
            "lon_frs": -94.15193
          }
        },
        {
          "EPAFacilityID": "100000031182",
          "name": "City of Van Buren Main Plant",
          "city": "Van Buren",
          "address": "1401 Port Road",
          "lat_fac": 35.42444,
          "lon_fac": -94.33444,
          "names_prev": [],
          "sub_last": {
            "id": 43032,
            "date": "2005-06-08",
            "date_dereg": "2009-05-20",
            "lat_sub": "35.424444",
            "lon_sub": "-094.334444",
            "lat_frs": 35.42444,
            "lon_frs": -94.33444
          }
        },
        {
          "EPAFacilityID": "100000174385",
          "name": "Kaylor Ammonia",
          "city": "Van Buren",
          "address": "2508 Oak Grove Road",
          "lat_fac": 35.39924,
          "lon_fac": -94.29488,
          "names_prev": [],
          "sub_last": {
            "id": 50160,
            "date": "2007-11-28",
            "date_dereg": "2008-04-01",
            "lat_sub": "35.235204",
            "lon_sub": "-094.297300",
            "lat_frs": 35.39924,
            "lon_frs": -94.29488
          }
        },
        {
          "EPAFacilityID": "100000120442",
          "name": "Lee Creek Water Treatment Facility",
          "city": "Van Buren",
          "address": "2425 Pine Hollow Road",
          "lat_fac": 35.4935,
          "lon_fac": -94.39362,
          "names_prev": [],
          "sub_last": {
            "id": 1000066659,
            "date": "2022-01-12",
            "date_dereg": null,
            "lat_sub": "35.486653",
            "lon_sub": "-094.388674",
            "lat_frs": 35.4935,
            "lon_frs": -94.39362
          }
        },
        {
          "EPAFacilityID": "100000012247",
          "name": "Simmons Foods, VB Cook & DC",
          "city": "Van Buren",
          "address": "2101 Twin Circle Drive",
          "lat_fac": 35.42767,
          "lon_fac": -94.3365,
          "names_prev": [
            "Simmons Foods, VB Cook",
            "Simmons Foods"
          ],
          "sub_last": {
            "id": 1000067722,
            "date": "2019-03-11",
            "date_dereg": null,
            "lat_sub": "35.427778",
            "lon_sub": "-094.336944",
            "lat_frs": 35.42767,
            "lon_frs": -94.3365
          }
        },
        {
          "EPAFacilityID": "100000011943",
          "name": "Simmons Foods, VB Main",
          "city": "Van Buren",
          "address": "5 Main Street",
          "lat_fac": 35.4345,
          "lon_fac": -94.35567,
          "names_prev": [
            "Simmons Foods"
          ],
          "sub_last": {
            "id": 1000067723,
            "date": "2019-09-12",
            "date_dereg": null,
            "lat_sub": "35.433056",
            "lon_sub": "-094.357500",
            "lat_frs": 35.4345,
            "lon_frs": -94.35567
          }
        },
        {
          "EPAFacilityID": "100000051418",
          "name": "TYSON FOODS, INC. VAN BUREN, AR.",
          "city": "VAN BUREN",
          "address": "802 SOUTH 28TH. ST.",
          "lat_fac": 35.42708,
          "lon_fac": -94.32956,
          "names_prev": [],
          "sub_last": {
            "id": 1000076382,
            "date": "2021-08-25",
            "date_dereg": null,
            "lat_sub": "35.424859",
            "lon_sub": "-094.329573",
            "lat_frs": 35.42708,
            "lon_frs": -94.32956
          }
        }
      ]
    },
    {
      "fips": "05035",
      "name": "Crittenden County",
      "facilities": [
        {
          "EPAFacilityID": "100000033171",
          "name": "ALLIED UNIVERSAL CORPORATION",
          "city": "W. MEMPHIS",
          "address": "2100 PORT ROAD",
          "lat_fac": 35.12586,
          "lon_fac": -90.18903,
          "names_prev": [],
          "sub_last": {
            "id": 1000019938,
            "date": "2011-02-07",
            "date_dereg": "2012-01-09",
            "lat_sub": "35.109228",
            "lon_sub": "-090.192250",
            "lat_frs": 35.12586,
            "lon_frs": -90.18903
          }
        },
        {
          "EPAFacilityID": "100000159874",
          "name": "Americold West Memphis Plant # 75139",
          "city": "West Memphis",
          "address": "1651 S Airport Rd",
          "lat_fac": 35.12436,
          "lon_fac": -90.22839,
          "names_prev": [
            "AmeriCold Logistics Plant # 75139"
          ],
          "sub_last": {
            "id": 1000078366,
            "date": "2019-05-13",
            "date_dereg": null,
            "lat_sub": "35.124431",
            "lon_sub": "-090.230819",
            "lat_frs": 35.12436,
            "lon_frs": -90.22839
          }
        },
        {
          "EPAFacilityID": "100000127178",
          "name": "BASF Corporation",
          "city": "West Memphis",
          "address": "100 Bridgeport Rd",
          "lat_fac": 35.13056,
          "lon_fac": -90.10694,
          "names_prev": [
            "Ciba Specialty Chemicals",
            "Ciba Specialty Chemicals Water Treatments, Inc."
          ],
          "sub_last": {
            "id": 1000060762,
            "date": "2020-03-12",
            "date_dereg": "2022-01-26",
            "lat_sub": "35.130556",
            "lon_sub": "-090.106944",
            "lat_frs": 35.13056,
            "lon_frs": -90.10694
          }
        },
        {
          "EPAFacilityID": "100000102328",
          "name": "Diaz Intermediates Corporation",
          "city": "West Memphis",
          "address": "301 Wyanoke Road",
          "lat_fac": 35.12434,
          "lon_fac": -90.19293,
          "names_prev": [],
          "sub_last": {
            "id": 28993,
            "date": "2003-09-30",
            "date_dereg": null,
            "lat_sub": "35.107222",
            "lon_sub": "-90.1925",
            "lat_frs": 35.12434,
            "lon_frs": -90.19293
          }
        },
        {
          "EPAFacilityID": "100000059508",
          "name": "TETRA Technologies - West Memphis Plant",
          "city": "West Memphis",
          "address": "2201 Port Road",
          "lat_fac": 35.11428,
          "lon_fac": -90.18934,
          "names_prev": [
            "Tetra Technologies - West Memphis Facility",
            "Tetra Chemicals - West Memphis Facility"
          ],
          "sub_last": {
            "id": 1000067599,
            "date": "2021-03-22",
            "date_dereg": null,
            "lat_sub": "35.107778",
            "lon_sub": "-090.190278",
            "lat_frs": 35.11428,
            "lon_frs": -90.18934
          }
        },
        {
          "EPAFacilityID": "100000176196",
          "name": "West Memphis LPG Terminal",
          "city": "West Memphis",
          "address": "1241 South 8th Street",
          "lat_fac": 35.12928,
          "lon_fac": -90.17348,
          "names_prev": [
            "SemStream L.P. - West Memphis",
            "Texon L.P. Propane Terminal"
          ],
          "sub_last": {
            "id": 1000072343,
            "date": "2018-08-24",
            "date_dereg": null,
            "lat_sub": "35.131870",
            "lon_sub": "-90.174680",
            "lat_frs": 35.12928,
            "lon_frs": -90.17348
          }
        }
      ]
    },
    {
      "fips": "05037",
      "name": "Cross County",
      "facilities": [
        {
          "EPAFacilityID": "100000172555",
          "name": "WYNNE WATER UTILITIES",
          "city": "Wynne",
          "address": "545 Bowden Road",
          "lat_fac": 35.14336,
          "lon_fac": -91.04267,
          "names_prev": [],
          "sub_last": {
            "id": 20454,
            "date": "2000-10-17",
            "date_dereg": "2004-06-21",
            "lat_sub": "35.143361",
            "lon_sub": "-91.042667",
            "lat_frs": 35.14336,
            "lon_frs": -91.04267
          }
        }
      ]
    },
    {
      "fips": "05041",
      "name": "Desha County",
      "facilities": [
        {
          "EPAFacilityID": "100000107895",
          "name": "Clearwater Paper Corporation - Cypress Bend Mill",
          "city": "Arkansas City",
          "address": "5082 Highway 4 North",
          "lat_fac": 33.70278,
          "lon_fac": -91.23611,
          "names_prev": [
            "Potlatch Forest Products Corporation",
            "Potlatch Corporation, Arkansas Pulp and Paperboard"
          ],
          "sub_last": {
            "id": 1000093069,
            "date": "2021-07-27",
            "date_dereg": null,
            "lat_sub": "33.706440",
            "lon_sub": "-091.237850",
            "lat_frs": 33.70278,
            "lon_frs": -91.23611
          }
        }
      ]
    },
    {
      "fips": "05045",
      "name": "Faulkner County",
      "facilities": [
        {
          "EPAFacilityID": "100000076124",
          "name": "Roger Q. Mills Water Treatment Plant",
          "city": "Conway",
          "address": "5108 Highway 319",
          "lat_fac": 35.0778,
          "lon_fac": -92.425,
          "names_prev": [
            "Gleason Water Treatment Plant",
            "Conway Water Treatment Plant"
          ],
          "sub_last": {
            "id": 1000084962,
            "date": "2020-02-17",
            "date_dereg": null,
            "lat_sub": "35.111389",
            "lon_sub": "-092.521385",
            "lat_frs": 35.0778,
            "lon_frs": -92.425
          }
        },
        {
          "EPAFacilityID": "100000076179",
          "name": "Stone Dam Creek Wastewater Treatment Plant",
          "city": "Conway",
          "address": "900 Stanley Russ Road",
          "lat_fac": 35.05278,
          "lon_fac": -92.43667,
          "names_prev": [],
          "sub_last": {
            "id": 1000014007,
            "date": "2010-05-18",
            "date_dereg": "2014-10-07",
            "lat_sub": "35.052776",
            "lon_sub": "-092.436386",
            "lat_frs": 35.05278,
            "lon_frs": -92.43667
          }
        },
        {
          "EPAFacilityID": "100000057305",
          "name": "Tokusen USA, Inc.",
          "city": "Conway",
          "address": "1500 Amity Road \u2022 P.O. Box 1150",
          "lat_fac": 35.05507,
          "lon_fac": -92.41407,
          "names_prev": [],
          "sub_last": {
            "id": 4665,
            "date": "1999-06-24",
            "date_dereg": "2005-07-13",
            "lat_sub": "35.058333",
            "lon_sub": "-92.415833",
            "lat_frs": 35.05507,
            "lon_frs": -92.41407
          }
        },
        {
          "EPAFacilityID": "100000076044",
          "name": "Tucker Creek Wastewater Treatment Plant",
          "city": "Conway",
          "address": "1001 Sherwood Lane",
          "lat_fac": 35.06556,
          "lon_fac": -92.49889,
          "names_prev": [],
          "sub_last": {
            "id": 1000084963,
            "date": "2020-02-17",
            "date_dereg": null,
            "lat_sub": "35.066665",
            "lon_sub": "-092.498886",
            "lat_frs": 35.06556,
            "lon_frs": -92.49889
          }
        }
      ]
    },
    {
      "fips": "05047",
      "name": "Franklin County",
      "facilities": [
        {
          "EPAFacilityID": "100000122672",
          "name": "Butterball, LLC",
          "city": "Ozark",
          "address": "307 Dodgen Place",
          "lat_fac": 35.4825,
          "lon_fac": -93.81778,
          "names_prev": [
            "Butterball",
            "ConAgra Foods",
            "Honeysuckle White"
          ],
          "sub_last": {
            "id": 1000080616,
            "date": "2021-09-21",
            "date_dereg": null,
            "lat_sub": "35.4846776",
            "lon_sub": "-093.817837",
            "lat_frs": 35.4825,
            "lon_frs": -93.81778
          }
        }
      ]
    },
    {
      "fips": "05051",
      "name": "Garland County",
      "facilities": [
        {
          "EPAFacilityID": "100000086195",
          "name": "Hot Springs Wastewater Treatment Plant",
          "city": "Hot Springs",
          "address": "320 Davidson",
          "lat_fac": 34.45218,
          "lon_fac": -93.01658,
          "names_prev": [],
          "sub_last": {
            "id": 1000054078,
            "date": "2015-11-30",
            "date_dereg": "2020-10-14",
            "lat_sub": "34.449485",
            "lon_sub": "-93.018622",
            "lat_frs": 34.45218,
            "lon_frs": -93.01658
          }
        },
        {
          "EPAFacilityID": "100000086337",
          "name": "Lakeside Water Treatment Plant",
          "city": "Hot Springs",
          "address": "300 Pineland Dr.",
          "lat_fac": 34.47839,
          "lon_fac": -93.04639,
          "names_prev": [],
          "sub_last": {
            "id": 1000054079,
            "date": "2015-11-30",
            "date_dereg": "2021-04-07",
            "lat_sub": "34.538392",
            "lon_sub": "-93.060067",
            "lat_frs": 34.47839,
            "lon_frs": -93.04639
          }
        },
        {
          "EPAFacilityID": "100000128168",
          "name": "TRG Hot Springs, LLC",
          "city": "Hot Springs",
          "address": "4400 Malvern Avenue",
          "lat_fac": 34.46327,
          "lon_fac": -92.94159,
          "names_prev": [
            "Arkansas Aluminum Alloys, Inc."
          ],
          "sub_last": {
            "id": 1000019358,
            "date": "2010-12-20",
            "date_dereg": "2015-11-16",
            "lat_sub": "34.461111",
            "lon_sub": "-092.939722",
            "lat_frs": 34.46327,
            "lon_frs": -92.94159
          }
        },
        {
          "EPAFacilityID": "100000043482",
          "name": "US Vanadium, LLC",
          "city": "Hot Springs",
          "address": "4285 Malvern Road",
          "lat_fac": 34.46389,
          "lon_fac": -92.94306,
          "names_prev": [
            "Evraz Stratcor, Inc.",
            "Stratcor, Inc.",
            "U. S. Vanadium Corporation",
            "U. S. Vanadium Corporaiton"
          ],
          "sub_last": {
            "id": 1000045409,
            "date": "2019-12-02",
            "date_dereg": null,
            "lat_sub": "34.463889",
            "lon_sub": "-092.947500",
            "lat_frs": 34.46389,
            "lon_frs": -92.94306
          }
        },
        {
          "EPAFacilityID": "100000113352",
          "name": "Ouachita Water Treatment Plant",
          "city": "Mountain Pine",
          "address": "860 Cozy Acres",
          "lat_fac": 34.54667,
          "lon_fac": -93.18278,
          "names_prev": [],
          "sub_last": {
            "id": 1000054080,
            "date": "2015-11-30",
            "date_dereg": "2021-04-07",
            "lat_sub": "34.549073",
            "lon_sub": "-93.183235",
            "lat_frs": 34.54667,
            "lon_frs": -93.18278
          }
        }
      ]
    },
    {
      "fips": "05055",
      "name": "Greene County",
      "facilities": [
        {
          "EPAFacilityID": "100000188584",
          "name": "Light LPG Terminal",
          "city": "Bono (Light)",
          "address": "507 Highway 228",
          "lat_fac": null,
          "lon_fac": null,
          "names_prev": [
            "SemStream L.P. Light, AR Terminal"
          ],
          "sub_last": {
            "id": 1000080526,
            "date": "2019-06-17",
            "date_dereg": null,
            "lat_sub": "36.063117",
            "lon_sub": "-090.752610",
            "lat_frs": null,
            "lon_frs": null
          }
        },
        {
          "EPAFacilityID": "100000078364",
          "name": "Wastewater Treatment Plant",
          "city": "Paragould",
          "address": "401 Grant Lane",
          "lat_fac": 36.03806,
          "lon_fac": -90.48972,
          "names_prev": [
            "Waste Water Treatment Plant"
          ],
          "sub_last": {
            "id": 1000042429,
            "date": "2014-05-21",
            "date_dereg": "2016-07-01",
            "lat_sub": "36.033056",
            "lon_sub": "-090.492778",
            "lat_frs": 36.03806,
            "lon_frs": -90.48972
          }
        },
        {
          "EPAFacilityID": "100000064529",
          "name": "Water Treatment Plant",
          "city": "Paragould",
          "address": "320 North 5th Avenue",
          "lat_fac": 36.05953,
          "lon_fac": -90.48147,
          "names_prev": [],
          "sub_last": {
            "id": 1000078211,
            "date": "2021-01-15",
            "date_dereg": null,
            "lat_sub": "36.059416",
            "lon_sub": "-90.480685",
            "lat_frs": 36.05953,
            "lon_frs": -90.48147
          }
        }
      ]
    },
    {
      "fips": "05057",
      "name": "Hempstead County",
      "facilities": [
        {
          "EPAFacilityID": "100000075731",
          "name": "Graves-Foster Water Treatment Plant",
          "city": "Fulton",
          "address": "4108 Highway 355 South",
          "lat_fac": 33.6198,
          "lon_fac": -93.81875,
          "names_prev": [],
          "sub_last": {
            "id": 38591,
            "date": "2004-08-24",
            "date_dereg": "2008-04-08",
            "lat_sub": "33.624074",
            "lon_sub": "-093.824590",
            "lat_frs": 33.6198,
            "lon_frs": -93.81875
          }
        },
        {
          "EPAFacilityID": "100000218542",
          "name": "Turk Power Plant",
          "city": "Fulton",
          "address": "3711 Highway 355 S",
          "lat_fac": null,
          "lon_fac": null,
          "names_prev": [],
          "sub_last": {
            "id": 1000092278,
            "date": "2021-03-08",
            "date_dereg": null,
            "lat_sub": "33.652587",
            "lon_sub": "-93.810368",
            "lat_frs": null,
            "lon_frs": null
          }
        },
        {
          "EPAFacilityID": "100000060088",
          "name": "Hexion Inc.",
          "city": "Hope",
          "address": "185 North Industrial Dr",
          "lat_fac": 33.73222,
          "lon_fac": -93.6325,
          "names_prev": [
            "Momentive Speciality Chemicals Inc.",
            "Hexion Specialty Chemicals, Inc. -Hope",
            "Borden Chemical, Inc. Hope",
            "Borden Chemical, Inc. Hope Plant"
          ],
          "sub_last": {
            "id": 1000071312,
            "date": "2018-07-19",
            "date_dereg": null,
            "lat_sub": "33.732222",
            "lon_sub": "-093.632500",
            "lat_frs": 33.73222,
            "lon_frs": -93.6325
          }
        },
        {
          "EPAFacilityID": "100000052998",
          "name": "Tyson Chicken Inc., HOPE, AR.",
          "city": "HOPE",
          "address": "275 COUNTY RD. 278 \u2022 PO BOX 230",
          "lat_fac": 33.74389,
          "lon_fac": -93.61722,
          "names_prev": [
            "Tyson Foods Inc., HOPE, AR.",
            "TYSON FOODS, INC. HOPE, AR."
          ],
          "sub_last": {
            "id": 1000078298,
            "date": "2019-04-30",
            "date_dereg": null,
            "lat_sub": "33.740227",
            "lon_sub": "-093.613098",
            "lat_frs": 33.74389,
            "lon_frs": -93.61722
          }
        }
      ]
    },
    {
      "fips": "05059",
      "name": "Hot Spring County",
      "facilities": [
        {
          "EPAFacilityID": "100000088745",
          "name": "Borden Chemical, Inc., Malvern Plant",
          "city": "Malvern",
          "address": "2088 Wine Dot Road",
          "lat_fac": 34.3833,
          "lon_fac": -92.727,
          "names_prev": [],
          "sub_last": {
            "id": 7054,
            "date": "1999-07-02",
            "date_dereg": "2002-02-27",
            "lat_sub": "34.388306",
            "lon_sub": "-92.734361",
            "lat_frs": 34.3833,
            "lon_frs": -92.727
          }
        },
        {
          "EPAFacilityID": "100000183393",
          "name": "Magnet Cove Generating Station",
          "city": "Malvern",
          "address": "410 Henderson Road",
          "lat_fac": 34.43,
          "lon_fac": -92.83194,
          "names_prev": [
            "Hot Spring Power Co, LLC",
            "Hot Spring Power"
          ],
          "sub_last": {
            "id": 1000072381,
            "date": "2018-10-25",
            "date_dereg": null,
            "lat_sub": "34.430000",
            "lon_sub": "-092.831944",
            "lat_frs": 34.43,
            "lon_frs": -92.83194
          }
        },
        {
          "EPAFacilityID": "100000193168",
          "name": "Malvern Wastewater Treatment Plant",
          "city": "Malvern",
          "address": "3672 Grigsby Ford Road",
          "lat_fac": null,
          "lon_fac": null,
          "names_prev": [],
          "sub_last": {
            "id": 43879,
            "date": "2005-09-30",
            "date_dereg": "2008-01-16",
            "lat_sub": "34.355556",
            "lon_sub": "-092.846667",
            "lat_frs": null,
            "lon_frs": null
          }
        },
        {
          "EPAFacilityID": "100000057341",
          "name": "Pactiv - Malvern",
          "city": "Malvern",
          "address": "1105 Industrial Lane \u2022 PO Box 668",
          "lat_fac": 34.37683,
          "lon_fac": -92.81763,
          "names_prev": [
            "Pactiv Corporation",
            "Tenneco Packaging Specialty and Consumer Products"
          ],
          "sub_last": {
            "id": 1000080674,
            "date": "2019-07-03",
            "date_dereg": null,
            "lat_sub": "34.377393",
            "lon_sub": "-092.820268",
            "lat_frs": 34.37683,
            "lon_frs": -92.81763
          }
        }
      ]
    },
    {
      "fips": "05061",
      "name": "Howard County",
      "facilities": [
        {
          "EPAFacilityID": "100000087586",
          "name": "Nashville Waste Water Treatment Plant",
          "city": "Nashville",
          "address": "743 Hwy 27 Bypass",
          "lat_fac": 33.91639,
          "lon_fac": -93.86056,
          "names_prev": [],
          "sub_last": {
            "id": 37933,
            "date": "2004-08-19",
            "date_dereg": "2009-05-12",
            "lat_sub": "33.573200",
            "lon_sub": "-093.503800",
            "lat_frs": 33.91639,
            "lon_frs": -93.86056
          }
        },
        {
          "EPAFacilityID": "100000087345",
          "name": "Nashville Water Treatment Plant",
          "city": "Nashville",
          "address": "300 Lake Nichols Street",
          "lat_fac": 33.9887,
          "lon_fac": -93.8735,
          "names_prev": [],
          "sub_last": {
            "id": 1000093724,
            "date": "2021-05-11",
            "date_dereg": null,
            "lat_sub": "33.958333",
            "lon_sub": "-93.844",
            "lat_frs": 33.9887,
            "lon_frs": -93.8735
          }
        },
        {
          "EPAFacilityID": "100000051695",
          "name": "TYSON POULTRY, INC. NASHVILLE, AR.",
          "city": "NASHVILLE",
          "address": "100 EAST CASSADY",
          "lat_fac": 33.92806,
          "lon_fac": -93.84417,
          "names_prev": [
            "TYSON FOODS, INC. NASHVILLE, AR."
          ],
          "sub_last": {
            "id": 1000076388,
            "date": "2019-04-23",
            "date_dereg": null,
            "lat_sub": "33.926996",
            "lon_sub": "-093.846634",
            "lat_frs": 33.92806,
            "lon_frs": -93.84417
          }
        }
      ]
    },
    {
      "fips": "05063",
      "name": "Independence County",
      "facilities": [
        {
          "EPAFacilityID": "100000173411",
          "name": "Batesville Cold Storage",
          "city": "Batesville",
          "address": "3054 East Main Street",
          "lat_fac": 35.80742,
          "lon_fac": -91.60695,
          "names_prev": [
            "Batesville Cold"
          ],
          "sub_last": {
            "id": 1000074850,
            "date": "2019-01-15",
            "date_dereg": null,
            "lat_sub": "35.806667",
            "lon_sub": "-091.608889",
            "lat_frs": 35.80742,
            "lon_frs": -91.60695
          }
        },
        {
          "EPAFacilityID": "100000124046",
          "name": "Batesville Water Treatment Plant",
          "city": "Batesville",
          "address": "1755 Chaney Drive",
          "lat_fac": 35.76288,
          "lon_fac": -91.63931,
          "names_prev": [
            "Batesville Water Treatmetn Plant"
          ],
          "sub_last": {
            "id": 1000075523,
            "date": "2019-01-23",
            "date_dereg": null,
            "lat_sub": "35.760833",
            "lon_sub": "-091.636111",
            "lat_frs": 35.76288,
            "lon_frs": -91.63931
          }
        },
        {
          "EPAFacilityID": "100000047558",
          "name": "FutureFuel Chemical Company",
          "city": "Batesville",
          "address": "2800 Gap Road \u2022 PO Box 2357",
          "lat_fac": 35.71917,
          "lon_fac": -91.52472,
          "names_prev": [
            "Eastman SE, Inc.",
            "Arkansas Eastman Division"
          ],
          "sub_last": {
            "id": 1000096962,
            "date": "2021-11-17",
            "date_dereg": null,
            "lat_sub": "35.722342",
            "lon_sub": "-091.524983",
            "lat_frs": 35.71917,
            "lon_frs": -91.52472
          }
        },
        {
          "EPAFacilityID": "100000200301",
          "name": "ozark Mountain Poultry",
          "city": "Batesville",
          "address": "PO Box 2196 \u2022 1420 S St. Louis Street",
          "lat_fac": null,
          "lon_fac": null,
          "names_prev": [
            "Pilgrim's Pride - Batesville Poultry Processing"
          ],
          "sub_last": {
            "id": 1000030901,
            "date": "2015-02-06",
            "date_dereg": "2016-04-22",
            "lat_sub": "35.764922",
            "lon_sub": "-091.642917",
            "lat_frs": null,
            "lon_frs": null
          }
        },
        {
          "EPAFacilityID": "100000095782",
          "name": "Ozark mountain Poultry2 - Batesville, AR",
          "city": "Batesville",
          "address": "1810 South St. Louis St.",
          "lat_fac": 35.791,
          "lon_fac": -91.6485,
          "names_prev": [
            "ConAgra Frozen Foods",
            "ConAgra  Frozen Foods"
          ],
          "sub_last": {
            "id": 1000080408,
            "date": "2019-06-20",
            "date_dereg": null,
            "lat_sub": "35.762376",
            "lon_sub": "-091.643609",
            "lat_frs": 35.791,
            "lon_frs": -91.6485
          }
        },
        {
          "EPAFacilityID": "100000060006",
          "name": "Peco Foods, Inc.",
          "city": "Batesville",
          "address": "625 South Allen Street",
          "lat_fac": 35.76454,
          "lon_fac": -91.6491,
          "names_prev": [
            "Townsends of Arkansas",
            "Townsends of Arkansas, Inc."
          ],
          "sub_last": {
            "id": 1000098347,
            "date": "2021-12-17",
            "date_dereg": null,
            "lat_sub": "35.764444",
            "lon_sub": "-091.648611",
            "lat_frs": 35.76454,
            "lon_frs": -91.6491
          }
        }
      ]
    },
    {
      "fips": "05069",
      "name": "Jefferson County",
      "facilities": [
        {
          "EPAFacilityID": "100000037783",
          "name": "Evergreen Packaging  - Pine Bluff Mill",
          "city": "Pine Bluff",
          "address": "5201 Fairfield Road",
          "lat_fac": 34.23333,
          "lon_fac": -91.9,
          "names_prev": [
            "Evergreen Packaging Inc. - Pine Bluff Mill",
            "International Paper - Pine Bluff Mill",
            "International Paper  Pine Bluff Mill"
          ],
          "sub_last": {
            "id": 1000075205,
            "date": "2019-07-01",
            "date_dereg": null,
            "lat_sub": "34.220000",
            "lon_sub": "-091.905000",
            "lat_frs": 34.23333,
            "lon_frs": -91.9
          }
        },
        {
          "EPAFacilityID": "100000054415",
          "name": "TYSON POULTRY INC. PINE BLUFF, AR. (FP-JP)",
          "city": "PINE BLUFF",
          "address": "5505 JEFFERSON PKWY. \u2022 PO BOX 7467",
          "lat_fac": 34.26064,
          "lon_fac": -92.07727,
          "names_prev": [
            "TYSON FOODS, INC. PINE BLUFF, AR. (FP-JP)"
          ],
          "sub_last": {
            "id": 1000078684,
            "date": "2020-09-18",
            "date_dereg": null,
            "lat_sub": "34.264209",
            "lon_sub": "-092.075733",
            "lat_frs": 34.26064,
            "lon_frs": -92.07727
          }
        }
      ]
    },
    {
      "fips": "05071",
      "name": "Johnson County",
      "facilities": [
        {
          "EPAFacilityID": "100000141143",
          "name": "Greenville Tube Company",
          "city": "Clarksville",
          "address": "501 South Montgomery Street",
          "lat_fac": 35.46944,
          "lon_fac": -93.46806,
          "names_prev": [
            "Greenville Tube Corporation",
            "Greenville Tube"
          ],
          "sub_last": {
            "id": 1000010121,
            "date": "2009-12-21",
            "date_dereg": "2014-06-26",
            "lat_sub": "35.462311",
            "lon_sub": "-93.472702",
            "lat_frs": 35.46944,
            "lon_frs": -93.46806
          }
        },
        {
          "EPAFacilityID": "100000038997",
          "name": "The Pictsweet Company - Clarksville, AR Plant",
          "city": "Clarksville",
          "address": "509 Taylor Road",
          "lat_fac": 35.451,
          "lon_fac": -93.45336,
          "names_prev": [
            "Bright Harvest Sweet Potato Company",
            "Bright Harvest Sweet Potato Company Co.,Inc."
          ],
          "sub_last": {
            "id": 1000065480,
            "date": "2020-02-11",
            "date_dereg": null,
            "lat_sub": "35.451420",
            "lon_sub": "-093.452900",
            "lat_frs": 35.451,
            "lon_frs": -93.45336
          }
        },
        {
          "EPAFacilityID": "100000054772",
          "name": "TYSON Poultry, INC CLARKSVILLE, AR.",
          "city": "CLARKSVILLE",
          "address": "301 EAST CHERRY ST.",
          "lat_fac": 35.44583,
          "lon_fac": -93.48333,
          "names_prev": [
            "TYSON FOODS, INC CLARKSVILLE, AR."
          ],
          "sub_last": {
            "id": 1000072626,
            "date": "2020-02-11",
            "date_dereg": null,
            "lat_sub": "35.473340",
            "lon_sub": "-093.456927",
            "lat_frs": 35.44583,
            "lon_frs": -93.48333
          }
        },
        {
          "EPAFacilityID": "100000122627",
          "name": "Wal-Mart Distribution Center #6082",
          "city": "Clarksville",
          "address": "3300 Sterling Hurley Hwy.",
          "lat_fac": 35.5238,
          "lon_fac": -93.4979,
          "names_prev": [],
          "sub_last": {
            "id": 1000081363,
            "date": "2019-08-13",
            "date_dereg": null,
            "lat_sub": "35.428831",
            "lon_sub": "-093.532908",
            "lat_frs": 35.5238,
            "lon_frs": -93.4979
          }
        }
      ]
    },
    {
      "fips": "05073",
      "name": "Lafayette County",
      "facilities": [
        {
          "EPAFacilityID": "100000163789",
          "name": "McKamie Gas Plant",
          "city": "Stamps",
          "address": "Lafayette County Road 36 \u2022 213 Lafayette 36",
          "lat_fac": 33.26125,
          "lon_fac": -93.53925,
          "names_prev": [],
          "sub_last": {
            "id": 1000048659,
            "date": "2015-03-18",
            "date_dereg": "2020-04-29",
            "lat_sub": "33.252730",
            "lon_sub": "-93.494175",
            "lat_frs": 33.26125,
            "lon_frs": -93.53925
          }
        },
        {
          "EPAFacilityID": "100000103611",
          "name": "Lake Erling Gas Processing Plant",
          "city": "Taylor",
          "address": "734 Lafayette 8",
          "lat_fac": 33.03333,
          "lon_fac": -93.6125,
          "names_prev": [],
          "sub_last": {
            "id": 10633,
            "date": "1999-07-08",
            "date_dereg": "2001-11-05",
            "lat_sub": "33.033333",
            "lon_sub": "-93.6125",
            "lat_frs": 33.03333,
            "lon_frs": -93.6125
          }
        }
      ]
    },
    {
      "fips": "05081",
      "name": "Little River County",
      "facilities": [
        {
          "EPAFacilityID": "100000059296",
          "name": "Domtar A.W. LLC Ashdown Mill",
          "city": "Ashdown",
          "address": "285 Highway 71 South",
          "lat_fac": 33.64639,
          "lon_fac": -94.1125,
          "names_prev": [
            "Domtar Industries Inc. Ashdown Mill",
            "Georgia-Pacific Ashdown Operations"
          ],
          "sub_last": {
            "id": 1000079506,
            "date": "2019-05-31",
            "date_dereg": null,
            "lat_sub": "33.640278",
            "lon_sub": "-094.113056",
            "lat_frs": 33.64639,
            "lon_frs": -94.1125
          }
        },
        {
          "EPAFacilityID": "100000064798",
          "name": "Texarkana Water Utility Millwood Water Plant",
          "city": "Ashdown",
          "address": "HWY 71 South",
          "lat_fac": 33.64167,
          "lon_fac": -94.09542,
          "names_prev": [],
          "sub_last": {
            "id": 1000047880,
            "date": "2015-03-23",
            "date_dereg": null,
            "lat_sub": "33.533673",
            "lon_sub": "-094.485875",
            "lat_frs": 33.64167,
            "lon_frs": -94.09542
          }
        },
        {
          "EPAFacilityID": "100000172813",
          "name": "Ash Grove Cement Company - Foreman, Arkansas",
          "city": "Foreman",
          "address": "4457 Highway 108",
          "lat_fac": 33.68639,
          "lon_fac": -94.42361,
          "names_prev": [],
          "sub_last": {
            "id": 44197,
            "date": "2005-11-09",
            "date_dereg": "2010-11-16",
            "lat_sub": "33.693600",
            "lon_sub": "-094.425100",
            "lat_frs": 33.68639,
            "lon_frs": -94.42361
          }
        }
      ]
    },
    {
      "fips": "05083",
      "name": "Logan County",
      "facilities": [
        {
          "EPAFacilityID": "100000056299",
          "name": "Cargill Meat Solutions Corporation",
          "city": "Booneville",
          "address": "212 Mario Del Pero Street",
          "lat_fac": 35.13875,
          "lon_fac": -93.9,
          "names_prev": [
            "Excel Corporation",
            "Excel Specialty Products"
          ],
          "sub_last": {
            "id": 47359,
            "date": "2007-01-05",
            "date_dereg": "2008-09-08",
            "lat_sub": "35.138800",
            "lon_sub": "-093.900000",
            "lat_frs": 35.13875,
            "lon_frs": -93.9
          }
        }
      ]
    },
    {
      "fips": "05087",
      "name": "Madison County",
      "facilities": [
        {
          "EPAFacilityID": "100000120987",
          "name": "Butterball - Huntsville",
          "city": "Huntsville",
          "address": "1294 N. College St.",
          "lat_fac": 36.0954,
          "lon_fac": -93.7372,
          "names_prev": [
            "Butterball, LLC",
            "ConAgra Foods",
            "Butterball Turkey Company"
          ],
          "sub_last": {
            "id": 1000072502,
            "date": "2018-09-12",
            "date_dereg": null,
            "lat_sub": "36.101760",
            "lon_sub": "-093.735439",
            "lat_frs": 36.0954,
            "lon_frs": -93.7372
          }
        },
        {
          "EPAFacilityID": "100000202014",
          "name": "Chlorine Repair Services",
          "city": "Marble",
          "address": "24138 Hwy. 412",
          "lat_fac": null,
          "lon_fac": null,
          "names_prev": [],
          "sub_last": {
            "id": 51200,
            "date": "2008-03-21",
            "date_dereg": "2009-08-18",
            "lat_sub": "36.139250",
            "lon_sub": "-093.584380",
            "lat_frs": null,
            "lon_frs": null
          }
        }
      ]
    },
    {
      "fips": "05089",
      "name": "Marion County",
      "facilities": [
        {
          "EPAFacilityID": "100000248305",
          "name": "Coastal Energy Corporation-Yellville Transload",
          "city": "Yellville",
          "address": "176 Development Drive",
          "lat_fac": null,
          "lon_fac": null,
          "names_prev": [],
          "sub_last": {
            "id": 1000099802,
            "date": "2022-02-14",
            "date_dereg": null,
            "lat_sub": "36.244789",
            "lon_sub": "-92.703010",
            "lat_frs": null,
            "lon_frs": null
          }
        }
      ]
    },
    {
      "fips": "05091",
      "name": "Miller County",
      "facilities": [
        {
          "EPAFacilityID": "100000159687",
          "name": "Americold, Texarkana, Plant #78451",
          "city": "Texarkana",
          "address": "3609 Genoa Rd.",
          "lat_fac": 33.41111,
          "lon_fac": -93.99167,
          "names_prev": [
            "* Americold Plant #78451",
            "AmeriCold Logistics Plant # 75151"
          ],
          "sub_last": {
            "id": 1000080751,
            "date": "2019-06-24",
            "date_dereg": null,
            "lat_sub": "33.413908",
            "lon_sub": "-093.997713",
            "lat_frs": 33.41111,
            "lon_frs": -93.99167
          }
        },
        {
          "EPAFacilityID": "100000177266",
          "name": "Dow Chemical",
          "city": "Texarkana",
          "address": "1 Jim Walter Drive",
          "lat_fac": 33.45,
          "lon_fac": -94.00833,
          "names_prev": [],
          "sub_last": {
            "id": 24640,
            "date": "2001-11-29",
            "date_dereg": "2011-08-31",
            "lat_sub": "33.45",
            "lon_sub": "-94.008333",
            "lat_frs": 33.45,
            "lon_frs": -94.00833
          }
        },
        {
          "EPAFacilityID": "100000064501",
          "name": "Texarkana Plant",
          "city": "Texarkana",
          "address": "Rt. 1 Box 2430",
          "lat_fac": 33.3617,
          "lon_fac": -94.0153,
          "names_prev": [],
          "sub_last": {
            "id": 20131,
            "date": "2000-02-02",
            "date_dereg": "2002-12-20",
            "lat_sub": "33.326389",
            "lon_sub": "-94.005556",
            "lat_frs": 33.3617,
            "lon_frs": -94.0153
          }
        }
      ]
    },
    {
      "fips": "05093",
      "name": "Mississippi County",
      "facilities": [
        {
          "EPAFacilityID": "100000220389",
          "name": "Blytheville Waterworks",
          "city": "Blytheville",
          "address": "200 West Rose St",
          "lat_fac": null,
          "lon_fac": null,
          "names_prev": [],
          "sub_last": {
            "id": 1000073227,
            "date": "2018-10-08",
            "date_dereg": "2019-08-27",
            "lat_sub": "35.922824",
            "lon_sub": "-089.904357",
            "lat_frs": null,
            "lon_frs": null
          }
        },
        {
          "EPAFacilityID": "100000101034",
          "name": "Kinder Morgan Operating LP \"C\"",
          "city": "Blytheville",
          "address": "6162 E State Highway 18",
          "lat_fac": 35.90917,
          "lon_fac": -89.76667,
          "names_prev": [
            "Terra Nitrogen LP, Blytheville Terminal",
            "Terra Nitrogen Limited Partnership, Blytheville P"
          ],
          "sub_last": {
            "id": 52854,
            "date": "2008-10-29",
            "date_dereg": "2011-03-03",
            "lat_sub": "35.909167",
            "lon_sub": "-089.766667",
            "lat_frs": 35.90917,
            "lon_frs": -89.76667
          }
        },
        {
          "EPAFacilityID": "100000224223",
          "name": "Actagro LLC",
          "city": "Osceola",
          "address": "1300 Richard Prewitt Dr",
          "lat_fac": null,
          "lon_fac": null,
          "names_prev": [],
          "sub_last": {
            "id": 1000092529,
            "date": "2021-03-05",
            "date_dereg": null,
            "lat_sub": "35.6900277",
            "lon_sub": "-89.9891944",
            "lat_frs": null,
            "lon_frs": null
          }
        },
        {
          "EPAFacilityID": "100000095602",
          "name": "Kagome Foods, Inc",
          "city": "Osceola",
          "address": "710 North Pearl Street",
          "lat_fac": 35.70847,
          "lon_fac": -89.96419,
          "names_prev": [
            "Creative Foods LLC",
            "Creative Foods, LLC"
          ],
          "sub_last": {
            "id": 1000080538,
            "date": "2019-06-17",
            "date_dereg": null,
            "lat_sub": "35.710036",
            "lon_sub": "-089.964589",
            "lat_frs": 35.70847,
            "lon_frs": -89.96419
          }
        },
        {
          "EPAFacilityID": "100000209874",
          "name": "Plum Point Energy Station",
          "city": "Osceola",
          "address": "2732 South County Road 623",
          "lat_fac": null,
          "lon_fac": null,
          "names_prev": [],
          "sub_last": {
            "id": 1000083242,
            "date": "2021-06-02",
            "date_dereg": null,
            "lat_sub": "35.663731",
            "lon_sub": "-89.946567",
            "lat_frs": null,
            "lon_frs": null
          }
        },
        {
          "EPAFacilityID": "100000111899",
          "name": "Viskase Corporation",
          "city": "Osceola",
          "address": "2221 East State Highway 198",
          "lat_fac": 35.65417,
          "lon_fac": -89.93889,
          "names_prev": [],
          "sub_last": {
            "id": 1000080056,
            "date": "2019-06-12",
            "date_dereg": null,
            "lat_sub": "35.652166",
            "lon_sub": "-089.939628",
            "lat_frs": 35.65417,
            "lon_frs": -89.93889
          }
        }
      ]
    },
    {
      "fips": "05103",
      "name": "Ouachita County",
      "facilities": [
        {
          "EPAFacilityID": "100000087906",
          "name": "Camden Waste Water Treatment Plant",
          "city": "Camden",
          "address": "101 Ouachita Road 197",
          "lat_fac": 33.56334,
          "lon_fac": -92.81543,
          "names_prev": [],
          "sub_last": {
            "id": 45524,
            "date": "2006-04-26",
            "date_dereg": "2007-11-30",
            "lat_sub": "33.563056",
            "lon_sub": "-092.820000",
            "lat_frs": 33.56334,
            "lon_frs": -92.81543
          }
        },
        {
          "EPAFacilityID": "100000186372",
          "name": "Camden, Arkansas Water Treatment Plant",
          "city": "Camden",
          "address": "101 Ouachita Road 197",
          "lat_fac": null,
          "lon_fac": null,
          "names_prev": [],
          "sub_last": {
            "id": 31753,
            "date": "2004-07-07",
            "date_dereg": "2010-04-26",
            "lat_sub": "33.591111",
            "lon_sub": "-092.830000",
            "lat_frs": null,
            "lon_frs": null
          }
        },
        {
          "EPAFacilityID": "100000086863",
          "name": "Water Treatment Plant",
          "city": "Camden",
          "address": "525 East Washington",
          "lat_fac": 33.5943,
          "lon_fac": -92.821,
          "names_prev": [
            "Camden Water Treatment Plant"
          ],
          "sub_last": {
            "id": 1000092222,
            "date": "2021-03-05",
            "date_dereg": null,
            "lat_sub": "33.589775",
            "lon_sub": "-92.823219",
            "lat_frs": 33.5943,
            "lon_frs": -92.821
          }
        },
        {
          "EPAFacilityID": "100000148789",
          "name": "Berry Petroleum Company",
          "city": "Stephens",
          "address": "658 Ouachita 137",
          "lat_fac": 33.41667,
          "lon_fac": -93.0575,
          "names_prev": [],
          "sub_last": {
            "id": 14110,
            "date": "1999-07-23",
            "date_dereg": "1999-12-20",
            "lat_sub": "33.417222",
            "lon_sub": "-93.0575",
            "lat_frs": 33.41667,
            "lon_frs": -93.0575
          }
        }
      ]
    },
    {
      "fips": "05107",
      "name": "Phillips County",
      "facilities": [
        {
          "EPAFacilityID": "100000027641",
          "name": "Cypress Chemical Company",
          "city": "Helena",
          "address": "1305 Hwy 20 South \u2022 P.O. Box 589",
          "lat_fac": 34.47361,
          "lon_fac": -90.60261,
          "names_prev": [],
          "sub_last": {
            "id": 32387,
            "date": "2004-07-13",
            "date_dereg": null,
            "lat_sub": "34.476667",
            "lon_sub": "-090.607500",
            "lat_frs": 34.47361,
            "lon_frs": -90.60261
          }
        },
        {
          "EPAFacilityID": "100000139888",
          "name": "Envirotech Chemical Services Inc.",
          "city": "Helena",
          "address": "49 Phillip's Road 311",
          "lat_fac": 34.52028,
          "lon_fac": -90.65278,
          "names_prev": [
            "Cedar Chemical Corporation"
          ],
          "sub_last": {
            "id": 1000039317,
            "date": "2014-03-18",
            "date_dereg": "2019-05-10",
            "lat_sub": "34.5200022",
            "lon_sub": "-90.653322",
            "lat_frs": 34.52028,
            "lon_frs": -90.65278
          }
        },
        {
          "EPAFacilityID": "100000229317",
          "name": "Envirotech Chemical Services Inc.",
          "city": "Helena",
          "address": "724 Phillips Road 411",
          "lat_fac": null,
          "lon_fac": null,
          "names_prev": [],
          "sub_last": {
            "id": 1000073162,
            "date": "2018-10-23",
            "date_dereg": null,
            "lat_sub": "34.41527",
            "lon_sub": "-90.6236",
            "lat_frs": null,
            "lon_frs": null
          }
        },
        {
          "EPAFacilityID": "100000075367",
          "name": "Planters Service & Sales, Inc.",
          "city": "Helena",
          "address": "1463 Highway 20 South",
          "lat_fac": 34.5074,
          "lon_fac": -90.6346,
          "names_prev": [],
          "sub_last": {
            "id": 5871,
            "date": "1999-06-30",
            "date_dereg": "2004-06-25",
            "lat_sub": "34.476667",
            "lon_sub": "-90.606667",
            "lat_frs": 34.5074,
            "lon_frs": -90.6346
          }
        }
      ]
    },
    {
      "fips": "05113",
      "name": "Polk County",
      "facilities": [
        {
          "EPAFacilityID": "100000225687",
          "name": "Tyson Foods, Inc. Grannis, AR",
          "city": "Grannis",
          "address": "8564 Hwy. 71 Sth",
          "lat_fac": null,
          "lon_fac": null,
          "names_prev": [],
          "sub_last": {
            "id": 1000078806,
            "date": "2019-05-09",
            "date_dereg": null,
            "lat_sub": "34.240198",
            "lon_sub": "-94.335945",
            "lat_frs": null,
            "lon_frs": null
          }
        },
        {
          "EPAFacilityID": "100000142455",
          "name": "Irons Fork Water Treatment Facility",
          "city": "Mena",
          "address": "536 Polk 184",
          "lat_fac": 34.62693,
          "lon_fac": -94.1402,
          "names_prev": [],
          "sub_last": {
            "id": 1000001695,
            "date": "2009-06-11",
            "date_dereg": "2014-05-19",
            "lat_sub": "34.642500",
            "lon_sub": "-094.131667",
            "lat_frs": 34.62693,
            "lon_frs": -94.1402
          }
        },
        {
          "EPAFacilityID": "100000142687",
          "name": "Mena Wastewater Treatment Facility",
          "city": "Mena",
          "address": "323 Polk County Road 53",
          "lat_fac": 34.56278,
          "lon_fac": -94.18667,
          "names_prev": [],
          "sub_last": {
            "id": 17512,
            "date": "1999-09-13",
            "date_dereg": "2004-10-19",
            "lat_sub": "34.562778",
            "lon_sub": "94.186667",
            "lat_frs": 34.56278,
            "lon_frs": -94.18667
          }
        }
      ]
    },
    {
      "fips": "05115",
      "name": "Pope County",
      "facilities": [
        {
          "EPAFacilityID": "100000075875",
          "name": "Atkins Water Treatment Plant",
          "city": "Pottsville",
          "address": "293 Galla Park Road",
          "lat_fac": 35.2357,
          "lon_fac": -93.0437,
          "names_prev": [],
          "sub_last": {
            "id": 1000011686,
            "date": "2019-06-26",
            "date_dereg": null,
            "lat_sub": "35.260833",
            "lon_sub": "-093.051389",
            "lat_frs": 35.2357,
            "lon_frs": -93.0437
          }
        },
        {
          "EPAFacilityID": "100000104317",
          "name": "Americold - Russellville 324",
          "city": "Russellville",
          "address": "500 State Road 324 South \u2022 P.O. Box 11300",
          "lat_fac": 35.2786,
          "lon_fac": -93.1388,
          "names_prev": [
            "Cloverleaf Cold Storage Co. LLC",
            "Zero Mountain, Inc. Russellville",
            "Zero Mountain, Inc."
          ],
          "sub_last": {
            "id": 1000088569,
            "date": "2020-07-07",
            "date_dereg": null,
            "lat_sub": "35.271808",
            "lon_sub": "-93.093491",
            "lat_frs": 35.2786,
            "lon_frs": -93.1388
          }
        },
        {
          "EPAFacilityID": "100000159838",
          "name": "Americold, Russellville Elmira -  Plant #78417",
          "city": "Russellville",
          "address": "300 South Elmira",
          "lat_fac": 35.275,
          "lon_fac": -93.10556,
          "names_prev": [
            "AmeriCold Logistics Plant #78417"
          ],
          "sub_last": {
            "id": 1000080678,
            "date": "2019-06-25",
            "date_dereg": null,
            "lat_sub": "35.274594",
            "lon_sub": "-93.106047",
            "lat_frs": 35.275,
            "lon_frs": -93.10556
          }
        },
        {
          "EPAFacilityID": "100000060104",
          "name": "Anitox  Russellville Plant",
          "city": "Russellville",
          "address": "6464 State Road 7",
          "lat_fac": 35.2896,
          "lon_fac": -93.1089,
          "names_prev": [
            "Anitox Corp., Russellville Plant"
          ],
          "sub_last": {
            "id": 1000031118,
            "date": "2012-10-15",
            "date_dereg": "2017-09-11",
            "lat_sub": "35.336389",
            "lon_sub": "-093.132500",
            "lat_frs": 35.2896,
            "lon_frs": -93.1089
          }
        },
        {
          "EPAFacilityID": "100000093392",
          "name": "ConAgra Brands, Inc. - Russellville, AR",
          "city": "Russellville",
          "address": "3100 East Main Street",
          "lat_fac": 35.27778,
          "lon_fac": -93.0937,
          "names_prev": [
            "ConAgra Foods - Russellville, AR",
            "ConAgra Foods Packaged Foods, LLC",
            "ConAgra Frozen Foods"
          ],
          "sub_last": {
            "id": 1000079583,
            "date": "2019-05-31",
            "date_dereg": null,
            "lat_sub": "35.275790",
            "lon_sub": "-093.092512",
            "lat_frs": 35.27778,
            "lon_frs": -93.0937
          }
        },
        {
          "EPAFacilityID": "100000150873",
          "name": "Russellville Pollution Control Works",
          "city": "Russellville",
          "address": "404 Jimmy Lile Road",
          "lat_fac": 35.24872,
          "lon_fac": -93.11631,
          "names_prev": [
            "Russellville Wastewater Treatment Plant"
          ],
          "sub_last": {
            "id": 1000084439,
            "date": "2020-01-07",
            "date_dereg": "2020-09-04",
            "lat_sub": "35.249167",
            "lon_sub": "-093.116111",
            "lat_frs": 35.24872,
            "lon_frs": -93.11631
          }
        },
        {
          "EPAFacilityID": "100000147888",
          "name": "Russellville Water Treatment Plant",
          "city": "Russellville",
          "address": "74 Water Works Loop",
          "lat_fac": 35.2786,
          "lon_fac": -93.1388,
          "names_prev": [],
          "sub_last": {
            "id": 42932,
            "date": "2005-05-24",
            "date_dereg": "2009-10-20",
            "lat_sub": "35.336111",
            "lon_sub": "-093.144722",
            "lat_frs": 35.2786,
            "lon_frs": -93.1388
          }
        },
        {
          "EPAFacilityID": "100000163609",
          "name": "TYSON FOODS, INC. RUSSELLVILLE DISTRIBUTION CENTER",
          "city": "RUSSELLVILLE",
          "address": "702 EAST MAIN",
          "lat_fac": 35.27832,
          "lon_fac": -93.12555,
          "names_prev": [
            "TYSON FOODS, INC. RUSSELVILLE DISTRIBUTION CENTER"
          ],
          "sub_last": {
            "id": 1000090325,
            "date": "2020-10-13",
            "date_dereg": null,
            "lat_sub": "35.277695",
            "lon_sub": "-93.123850",
            "lat_frs": 35.27832,
            "lon_frs": -93.12555
          }
        },
        {
          "EPAFacilityID": "100000051597",
          "name": "TYSON FOODS, INC. RUSSELLVILLE, AR. (TVDC)",
          "city": "RUSSELLVILLE",
          "address": "4820 EAST MAIN STREET",
          "lat_fac": 35.2751,
          "lon_fac": -93.081,
          "names_prev": [
            "TYSON FOODS, INC. RUSSELVILLE, AR. (TVDC)"
          ],
          "sub_last": {
            "id": 1000077253,
            "date": "2019-03-29",
            "date_dereg": null,
            "lat_sub": "35.260443",
            "lon_sub": "-93.067572",
            "lat_frs": 35.2751,
            "lon_frs": -93.081
          }
        },
        {
          "EPAFacilityID": "100000159712",
          "name": "Tyson Foods, Inc. TVDC West",
          "city": "Russellville",
          "address": "203 Industrial Blvd",
          "lat_fac": 35.2625,
          "lon_fac": -93.07,
          "names_prev": [
            "Americold, Russelleville Valley - Plant #  78424",
            "Russelleville Valley Plant #  78424",
            "AmeriCold Logistics Plant #  78324"
          ],
          "sub_last": {
            "id": 1000086163,
            "date": "2020-03-25",
            "date_dereg": null,
            "lat_sub": "35.260550",
            "lon_sub": "-093.069140",
            "lat_frs": 35.2625,
            "lon_frs": -93.07
          }
        },
        {
          "EPAFacilityID": "100000054585",
          "name": "TYSON POULTRY, INC. RUSSELLVILLE, AR. (TYLER RD.)",
          "city": "RUSSELLVILLE",
          "address": "620 TYLER RD.",
          "lat_fac": 35.27775,
          "lon_fac": -93.07731,
          "names_prev": [
            "TYSON FOODS, INC. RUSSELLVILLE, AR. (TYLER RD.)"
          ],
          "sub_last": {
            "id": 1000030818,
            "date": "2017-11-29",
            "date_dereg": null,
            "lat_sub": "35.269407",
            "lon_sub": "-093.087038",
            "lat_frs": 35.27775,
            "lon_frs": -93.07731
          }
        }
      ]
    },
    {
      "fips": "05119",
      "name": "Pulaski County",
      "facilities": [
        {
          "EPAFacilityID": "100000084099",
          "name": "DPC INDUSTRIES, INC.",
          "city": "JACKSONVILLE",
          "address": "197 SOUTH REDMOND ROAD",
          "lat_fac": 34.8654,
          "lon_fac": -92.14004,
          "names_prev": [],
          "sub_last": {
            "id": 1000064038,
            "date": "2017-06-12",
            "date_dereg": null,
            "lat_sub": "34.86305",
            "lon_sub": "-92.13333",
            "lat_frs": 34.8654,
            "lon_frs": -92.14004
          }
        },
        {
          "EPAFacilityID": "100000049182",
          "name": "Univar USA Inc--Little Rock, AR",
          "city": "Jacksonville",
          "address": "1925 Redmond Road",
          "lat_fac": 34.88366,
          "lon_fac": -92.13796,
          "names_prev": [
            "VAN WATERS AND ROGERS INC"
          ],
          "sub_last": {
            "id": 27769,
            "date": "2003-03-25",
            "date_dereg": "2004-06-28",
            "lat_sub": "34.883639",
            "lon_sub": "92.137944",
            "lat_frs": 34.88366,
            "lon_frs": -92.13796
          }
        },
        {
          "EPAFacilityID": "100000105511",
          "name": "Adams Field Wastewater Treatment Plant",
          "city": "Little Rock",
          "address": "1001 Temple Street",
          "lat_fac": 34.73431,
          "lon_fac": -92.21397,
          "names_prev": [],
          "sub_last": {
            "id": 47669,
            "date": "2007-02-22",
            "date_dereg": "2008-06-09",
            "lat_sub": "34.735278",
            "lon_sub": "-092.216111",
            "lat_frs": 34.73431,
            "lon_frs": -92.21397
          }
        },
        {
          "EPAFacilityID": "100000040001",
          "name": "Affiliated Foods",
          "city": "Little Rock",
          "address": "12103 I-30",
          "lat_fac": 34.65147,
          "lon_fac": -92.41308,
          "names_prev": [],
          "sub_last": {
            "id": 3233,
            "date": "1999-06-18",
            "date_dereg": "2005-11-03",
            "lat_sub": "34.651472",
            "lon_sub": "-92.413083",
            "lat_frs": 34.65147,
            "lon_frs": -92.41308
          }
        },
        {
          "EPAFacilityID": "100000084678",
          "name": "Coleman Dairy",
          "city": "Little Rock",
          "address": "5801 Asher",
          "lat_fac": 34.7176,
          "lon_fac": -92.33894,
          "names_prev": [],
          "sub_last": {
            "id": 6315,
            "date": "1999-07-02",
            "date_dereg": "2005-12-15",
            "lat_sub": "34.716694",
            "lon_sub": "-92.338556",
            "lat_frs": 34.7176,
            "lon_frs": -92.33894
          }
        },
        {
          "EPAFacilityID": "100000126259",
          "name": "Fabriclean Supply of Arkansas Limited",
          "city": "Little Rock",
          "address": "6600 Allied Way",
          "lat_fac": 34.68843,
          "lon_fac": -92.299,
          "names_prev": [
            "Capitol Chemical & Supply, Inc."
          ],
          "sub_last": {
            "id": 1000089364,
            "date": "2020-08-14",
            "date_dereg": null,
            "lat_sub": "34.687778",
            "lon_sub": "-092.299722",
            "lat_frs": 34.68843,
            "lon_frs": -92.299
          }
        },
        {
          "EPAFacilityID": "100000109839",
          "name": "Fourche Creek Wastewater Treatment Plant",
          "city": "Little Rock",
          "address": "9500 Birdwood Drive",
          "lat_fac": 34.69917,
          "lon_fac": -92.15,
          "names_prev": [],
          "sub_last": {
            "id": 1000065641,
            "date": "2017-09-22",
            "date_dereg": null,
            "lat_sub": "34.698889",
            "lon_sub": "-092.167778",
            "lat_frs": 34.69917,
            "lon_frs": -92.15
          }
        },
        {
          "EPAFacilityID": "100000036873",
          "name": "Harcros Chemicals Inc. - Little Rock",
          "city": "Little Rock",
          "address": "3100 West 65th St.",
          "lat_fac": 34.68921,
          "lon_fac": -92.31285,
          "names_prev": [
            "Harcros Chemicals Inc. -- Little Rock"
          ],
          "sub_last": {
            "id": 1000068890,
            "date": "2018-04-13",
            "date_dereg": null,
            "lat_sub": "34.6903",
            "lon_sub": "-092.31258",
            "lat_frs": 34.68921,
            "lon_frs": -92.31285
          }
        },
        {
          "EPAFacilityID": "100000063441",
          "name": "J.M. Products, Inc.",
          "city": "Little Rock",
          "address": "3117 Joshua Street",
          "lat_fac": 34.72392,
          "lon_fac": -92.32218,
          "names_prev": [],
          "sub_last": {
            "id": 53073,
            "date": "2008-12-02",
            "date_dereg": null,
            "lat_sub": "34.723136",
            "lon_sub": "-092.321924",
            "lat_frs": 34.72392,
            "lon_frs": -92.32218
          }
        },
        {
          "EPAFacilityID": "100000086532",
          "name": "Jack H. Wilson Water Treatment Plant",
          "city": "Little Rock",
          "address": "338 Pleasant Valley Drive",
          "lat_fac": 34.78306,
          "lon_fac": -92.39361,
          "names_prev": [],
          "sub_last": {
            "id": 49659,
            "date": "2009-11-23",
            "date_dereg": "2012-04-03",
            "lat_sub": "34.781111",
            "lon_sub": "-092.391667",
            "lat_frs": 34.78306,
            "lon_frs": -92.39361
          }
        },
        {
          "EPAFacilityID": "100000121209",
          "name": "North Little Rock - North",
          "city": "Little Rock",
          "address": "3222 Central Airport Road",
          "lat_fac": 34.78708,
          "lon_fac": -92.17646,
          "names_prev": [
            "North Little Rock North"
          ],
          "sub_last": {
            "id": 1000080357,
            "date": "2019-06-13",
            "date_dereg": null,
            "lat_sub": "34.781927",
            "lon_sub": "-092.175394",
            "lat_frs": 34.78708,
            "lon_frs": -92.17646
          }
        },
        {
          "EPAFacilityID": "100000039781",
          "name": "Odom's Tennessee Pride - Little Rock, AR",
          "city": "Little Rock",
          "address": "4701 Asher Avenue",
          "lat_fac": 34.72245,
          "lon_fac": -92.32694,
          "names_prev": [
            "Odom's Tennessee Pride Country Sausage, Inc."
          ],
          "sub_last": {
            "id": 1000020396,
            "date": "2012-11-05",
            "date_dereg": "2013-05-07",
            "lat_sub": "34.720857",
            "lon_sub": "-092.323823",
            "lat_frs": 34.72245,
            "lon_frs": -92.32694
          }
        },
        {
          "EPAFacilityID": "100000086621",
          "name": "Ozark Water Treatment Plant",
          "city": "Little Rock",
          "address": "3000 Ozark Point",
          "lat_fac": 34.75579,
          "lon_fac": -92.30533,
          "names_prev": [],
          "sub_last": {
            "id": 49647,
            "date": "2009-11-23",
            "date_dereg": "2012-04-03",
            "lat_sub": "34.756667",
            "lon_sub": "-092.310278",
            "lat_frs": 34.75579,
            "lon_frs": -92.30533
          }
        },
        {
          "EPAFacilityID": "100000234258",
          "name": "Performance Foodservice Little Rock",
          "city": "Little Rock",
          "address": "4901 Asher Avenue",
          "lat_fac": null,
          "lon_fac": null,
          "names_prev": [],
          "sub_last": {
            "id": 1000097956,
            "date": "2021-12-01",
            "date_dereg": null,
            "lat_sub": "34.717878",
            "lon_sub": "-92.327153",
            "lat_frs": null,
            "lon_frs": null
          }
        },
        {
          "EPAFacilityID": "100000232385",
          "name": "Port of Little Rock LPG Terminal",
          "city": "Little Rock",
          "address": "9700 Industrial Harbor Dr",
          "lat_fac": null,
          "lon_fac": null,
          "names_prev": [],
          "sub_last": {
            "id": 1000095664,
            "date": "2021-08-25",
            "date_dereg": null,
            "lat_sub": "34.716133",
            "lon_sub": "-92.172500",
            "lat_frs": null,
            "lon_frs": null
          }
        },
        {
          "EPAFacilityID": "100000220619",
          "name": "Sage V Foods, LLC",
          "city": "Little Rock",
          "address": "5901 Sloane Drive",
          "lat_fac": null,
          "lon_fac": null,
          "names_prev": [],
          "sub_last": {
            "id": 1000039368,
            "date": "2014-06-09",
            "date_dereg": null,
            "lat_sub": "34.70588",
            "lon_sub": "-092.20677",
            "lat_frs": null,
            "lon_frs": null
          }
        },
        {
          "EPAFacilityID": "100000064119",
          "name": "Smoky Hollow Foods",
          "city": "LITTLE ROCK",
          "address": "3200 S. WOODROW ST.",
          "lat_fac": 34.72191,
          "lon_fac": -92.30643,
          "names_prev": [],
          "sub_last": {
            "id": 12996,
            "date": "1999-07-20",
            "date_dereg": "1999-09-28",
            "lat_sub": "34.721944",
            "lon_sub": "-92.306111",
            "lat_frs": 34.72191,
            "lon_frs": -92.30643
          }
        },