{
  "abbr": "FL",
  "name": "Florida",
  "counties": [
    {
      "fips": "12001",
      "name": "Alachua County",
      "facilities": [
        {
          "EPAFacilityID": "100000135089",
          "name": "Gro-More Farm Service - Alachua",
          "city": "Alachua",
          "address": "14515 NW Peggy Road \u2022 P.O. Box 189",
          "lat_fac": 29.78575,
          "lon_fac": -82.50261,
          "names_prev": [],
          "sub_last": {
            "id": 12721,
            "date_val": "1999-07-15",
            "date_dereg": "2004-06-08",
            "lat_sub": "29.78575",
            "lon_sub": "-82.502611",
            "lat_frs": 29.78575,
            "lon_frs": -82.50261,
            "num_accidents": null,
            "latest_accident": null
          }
        },
        {
          "EPAFacilityID": "100000145309",
          "name": "J. F. Copeland Farm",
          "city": "Alachua",
          "address": "19201 NW County Road 235A",
          "lat_fac": 29.83522,
          "lon_fac": -82.53025,
          "names_prev": [],
          "sub_last": {
            "id": 44909,
            "date_val": "2006-02-14",
            "date_dereg": "2010-06-24",
            "lat_sub": "29.829304",
            "lon_sub": "-082.528091",
            "lat_frs": 29.83522,
            "lon_frs": -82.53025,
            "num_accidents": null,
            "latest_accident": null
          }
        },
        {
          "EPAFacilityID": "100000201159",
          "name": "Sysco South Redistribution Center",
          "city": "Alachua",
          "address": "12421 NW 173rd Street",
          "lat_fac": null,
          "lon_fac": null,
          "names_prev": [
            "Baugh Southeast Cooperative, Inc."
          ],
          "sub_last": {
            "id": 1000067229,
            "date_val": "2019-10-25",
            "date_dereg": null,
            "lat_sub": "29.770657",
            "lon_sub": "-82.519493",
            "lat_frs": null,
            "lon_frs": null,
            "num_accidents": null,
            "latest_accident": null
          }
        },
        {
          "EPAFacilityID": "100000102961",
          "name": "Kanapaha Water Reclamation Facility",
          "city": "Gainesville",
          "address": "3901 Southwest 63rd Boulevard",
          "lat_fac": 29.61425,
          "lon_fac": -82.41214,
          "names_prev": [],
          "sub_last": {
            "id": 1000011536,
            "date_val": "2009-11-03",
            "date_dereg": "2010-04-01",
            "lat_sub": "29.620833",
            "lon_sub": "-082.412500",
            "lat_frs": 29.61425,
            "lon_frs": -82.41214,
            "num_accidents": null,
            "latest_accident": null
          }
        },
        {
          "EPAFacilityID": "100000081751",
          "name": "Main Street Water Reclamation Facility",
          "city": "Gainesville",
          "address": "200 Southeast 16th Avenue",
          "lat_fac": 29.63425,
          "lon_fac": -82.32547,
          "names_prev": [],
          "sub_last": {
            "id": 1000011347,
            "date_val": "2009-11-03",
            "date_dereg": "2010-04-01",
            "lat_sub": "29.634167",
            "lon_sub": "-082.325278",
            "lat_frs": 29.63425,
            "lon_frs": -82.32547,
            "num_accidents": null,
            "latest_accident": null
          }
        },
        {
          "EPAFacilityID": "100000096727",
          "name": "Murphree Water Treatment Plant",
          "city": "Gainesville",
          "address": "1600 Northeast 53rd Avenue",
          "lat_fac": 29.70284,
          "lon_fac": -82.30102,
          "names_prev": [],
          "sub_last": {
            "id": 1000083852,
            "date_val": "2019-11-21",
            "date_dereg": null,
            "lat_sub": "29.705000",
            "lon_sub": "-082.302778",
            "lat_frs": 29.70284,
            "lon_frs": -82.30102,
            "num_accidents": null,
            "latest_accident": null
          }
        },
        {
          "EPAFacilityID": "100000151186",
          "name": "Performance Food Group, CDC, Gainesville",
          "city": "Gainesville",
          "address": "4041 N. E. 54th Ave.",
          "lat_fac": 29.70267,
          "lon_fac": -82.27636,
          "names_prev": [],
          "sub_last": {
            "id": 1000082115,
            "date_val": "2020-12-30",
            "date_dereg": null,
            "lat_sub": "29.702667",
            "lon_sub": "-082.276361",
            "lat_frs": 29.70267,
            "lon_frs": -82.27636,
            "num_accidents": null,
            "latest_accident": null
          }
        },
        {
          "EPAFacilityID": "100000105995",
          "name": "SiVance LLC",
          "city": "Gainesville",
          "address": "5002 NE 54th Place",
          "lat_fac": 29.41725,
          "lon_fac": -82.65858,
          "names_prev": [
            "Clariant Life Science Molecules (Florida) Inc.",
            "Archimica (Florida)"
          ],
          "sub_last": {
            "id": 1000084086,
            "date_val": "2020-01-13",
            "date_dereg": null,
            "lat_sub": "29.705770",
            "lon_sub": "-082.265760",
            "lat_frs": 29.41725,
            "lon_frs": -82.65858,
            "num_accidents": null,
            "latest_accident": null
          }
        },
        {
          "EPAFacilityID": "100000007725",
          "name": "University of Florida Water Reclamation Facility",
          "city": "Gainesville",
          "address": "Bldg. 1070;  Gale Lemerand Dr.",
          "lat_fac": 29.64019,
          "lon_fac": -82.35067,
          "names_prev": [
            "University of Florida Water Reclamaion Facility"
          ],
          "sub_last": {
            "id": 44079,
            "date_val": "2005-10-24",
            "date_dereg": "2006-03-22",
            "lat_sub": "29.640194",
            "lon_sub": "-082.350667",
            "lat_frs": 29.64019,
            "lon_frs": -82.35067,
            "num_accidents": null,
            "latest_accident": null
          }
        }
      ]
    },
    {
      "fips": "12003",
      "name": "Baker County",
      "facilities": [
        {
          "EPAFacilityID": "100000177658",
          "name": "Wal-Mart Distribution Center #6099",
          "city": "Macclenny",
          "address": "2686 Commerce Road",
          "lat_fac": 30.29167,
          "lon_fac": -82.0875,
          "names_prev": [],
          "sub_last": {
            "id": 1000098264,
            "date_val": "2021-12-16",
            "date_dereg": null,
            "lat_sub": "30.295059",
            "lon_sub": "-082.082551",
            "lat_frs": 30.29167,
            "lon_frs": -82.0875,
            "num_accidents": null,
            "latest_accident": null
          }
        }
      ]
    },
    {
      "fips": "12005",
      "name": "Bay County",
      "facilities": [
        {
          "EPAFacilityID": "100000051365",
          "name": "Bay County Water Treatment Plant",
          "city": "Panama City",
          "address": "3400 Transmitter Road",
          "lat_fac": 30.20471,
          "lon_fac": -85.60751,
          "names_prev": [],
          "sub_last": {
            "id": 32018,
            "date_val": "2004-07-08",
            "date_dereg": "2008-02-14",
            "lat_sub": "30.209444",
            "lon_sub": "-085.607500",
            "lat_frs": 30.20471,
            "lon_frs": -85.60751,
            "num_accidents": null,
            "latest_accident": null
          }
        },
        {
          "EPAFacilityID": "100000170245",
          "name": "Panama City, FL Terminal",
          "city": "Panama City",
          "address": "1830 East 3rd Street",
          "lat_fac": 30.1531,
          "lon_fac": -85.63554,
          "names_prev": [
            "AmeriGas - Panama City Terminal"
          ],
          "sub_last": {
            "id": 1000018999,
            "date_val": "2015-11-16",
            "date_dereg": "2017-08-03",
            "lat_sub": "30.153056",
            "lon_sub": "-085.635833",
            "lat_frs": 30.1531,
            "lon_frs": -85.63554,
            "num_accidents": null,
            "latest_accident": null
          }
        },
        {
          "EPAFacilityID": "100000090956",
          "name": "WestRock CP,LLC",
          "city": "Panama City",
          "address": "One Everitt Avenue",
          "lat_fac": 30.1458,
          "lon_fac": -85.62113,
          "names_prev": [
            "Rock-Tenn CP,LLC",
            "Smurfit-Stone Container Corp., Panama City Mill",
            "Stone Container Corporation, Panama City Mill"
          ],
          "sub_last": {
            "id": 1000098964,
            "date_val": "2022-01-14",
            "date_dereg": null,
            "lat_sub": "30.141667",
            "lon_sub": "-085.620833",
            "lat_frs": 30.1458,
            "lon_frs": -85.62113,
            "num_accidents": null,
            "latest_accident": null
          }
        },
        {
          "EPAFacilityID": "100000156029",
          "name": "City of Panama Beach Wastewater Treatment Plant",
          "city": "Panama City Beach",
          "address": "206 North Gulf Boulevard",
          "lat_fac": 30.21664,
          "lon_fac": -85.85317,
          "names_prev": [],
          "sub_last": {
            "id": 15172,
            "date_val": "1999-07-29",
            "date_dereg": "2004-08-12",
            "lat_sub": "30.215278",
            "lon_sub": "-85.855556",
            "lat_frs": 30.21664,
            "lon_frs": -85.85317,
            "num_accidents": null,
            "latest_accident": null
          }
        },
        {
          "EPAFacilityID": "100000107403",
          "name": "City of Panama City Beach Water Treatment Plant #1",
          "city": "Panama City Beach",
          "address": "110 South Arnold Road",
          "lat_fac": 30.23291,
          "lon_fac": -85.88666,
          "names_prev": [],
          "sub_last": {
            "id": 22581,
            "date_val": "2001-01-30",
            "date_dereg": "2002-04-17",
            "lat_sub": "30.229167",
            "lon_sub": "-85.890278",
            "lat_frs": 30.23291,
            "lon_frs": -85.88666,
            "num_accidents": null,
            "latest_accident": null
          }
        },
        {
          "EPAFacilityID": "100000075615",
          "name": "Lansing Smith Electric Generating Plant",
          "city": "Southport",
          "address": "4300 County Road 2300",
          "lat_fac": 30.26789,
          "lon_fac": -85.70086,
          "names_prev": [
            "Gulf Power Co. Lansing Smith Elec Generating Plant"
          ],
          "sub_last": {
            "id": 1000050642,
            "date_val": "2016-04-19",
            "date_dereg": "2018-05-08",
            "lat_sub": "30.2683462",
            "lon_sub": "-085.700521",
            "lat_frs": 30.26789,
            "lon_frs": -85.70086,
            "num_accidents": null,
            "latest_accident": null
          }
        },
        {
          "EPAFacilityID": "100000098208",
          "name": "Tyndall  WWTP",
          "city": "Tyndall AFB",
          "address": "325 CES/DJOW \u2022 1113 Mississippi Road",
          "lat_fac": 30.0875,
          "lon_fac": -85.58667,
          "names_prev": [],
          "sub_last": {
            "id": 7797,
            "date_val": "1999-07-07",
            "date_dereg": "1999-11-29",
            "lat_sub": "30.058333",
            "lon_sub": "-85.581944",
            "lat_frs": 30.0875,
            "lon_frs": -85.58667,
            "num_accidents": null,
            "latest_accident": null
          }
        }
      ]
    },
    {
      "fips": "12007",
      "name": "Bradford County",
      "facilities": [
        {
          "EPAFacilityID": "100000234301",
          "name": "HWTG - Brooker",
          "city": "Brooker",
          "address": "14510 SW State Road 231",
          "lat_fac": null,
          "lon_fac": null,
          "names_prev": [],
          "sub_last": {
            "id": 1000099163,
            "date_val": "2022-02-23",
            "date_dereg": null,
            "lat_sub": "29.924987",
            "lon_sub": "-82.328654",
            "lat_frs": null,
            "lon_frs": null,
            "num_accidents": null,
            "latest_accident": null
          }
        },
        {
          "EPAFacilityID": "100000032378",
          "name": "City of Starke Wastewater Treatment Plant",
          "city": "Starke",
          "address": "602 Edwards Road",
          "lat_fac": 29.93783,
          "lon_fac": -82.11533,
          "names_prev": [
            "City of Starke Sewage Treatment Plant"
          ],
          "sub_last": {
            "id": 1000011821,
            "date_val": "2009-11-30",
            "date_dereg": "2011-04-04",
            "lat_sub": "29.940556",
            "lon_sub": "-082.114722",
            "lat_frs": 29.93783,
            "lon_frs": -82.11533,
            "num_accidents": null,
            "latest_accident": null
          }
        },
        {
          "EPAFacilityID": "100000179567",
          "name": "Hawkins Water Treatment Group - Starke",
          "city": "Starke",
          "address": "419 Edwards Road",
          "lat_fac": 29.94444,
          "lon_fac": -82.10167,
          "names_prev": [
            "The Dumont Company"
          ],
          "sub_last": {
            "id": 1000055703,
            "date_val": "2016-02-26",
            "date_dereg": "2017-03-20",
            "lat_sub": "29.939490",
            "lon_sub": "-82.114037",
            "lat_frs": 29.94444,
            "lon_frs": -82.10167,
            "num_accidents": null,
            "latest_accident": null
          }
        }
      ]
    },
    {
      "fips": "12009",
      "name": "Brevard County",
      "facilities": [
        {
          "EPAFacilityID": "100000010267",
          "name": "Ambassador Services, Inc.",
          "city": "Cape Canaveral",
          "address": "9025 N. Atlantic Avenue \u2022 n/a",
          "lat_fac": 28.40544,
          "lon_fac": -80.60567,
          "names_prev": [
            "Mid-Florida Freezer Warehouses, Ltd.",
            "MID-FLORIDA FREEZER WAREHOUSES, LTD."
          ],
          "sub_last": {
            "id": 1000082344,
            "date_val": "2019-09-23",
            "date_dereg": null,
            "lat_sub": "28.407500",
            "lon_sub": "-080.605667",
            "lat_frs": 28.40544,
            "lon_frs": -80.60567,
            "num_accidents": null,
            "latest_accident": null
          }
        },
        {
          "EPAFacilityID": "100000145292",
          "name": "Cape Canaveral Air Force Station",
          "city": "Cape Canaveral",
          "address": "Cape Canaveral Air Force Station",
          "lat_fac": 28.49444,
          "lon_fac": -80.57889,
          "names_prev": [
            "Cape Canaveral Air Station"
          ],
          "sub_last": {
            "id": 36155,
            "date_val": "2004-08-09",
            "date_dereg": "2005-06-22",
            "lat_sub": "28.416694",
            "lon_sub": "-080.600111",
            "lat_frs": 28.49444,
            "lon_frs": -80.57889,
            "num_accidents": null,
            "latest_accident": null
          }
        },
        {
          "EPAFacilityID": "100000156421",
          "name": "City of Cape Canaveral Wastewater Treatment Plant",
          "city": "Cape Canaveral",
          "address": "600 Tower Road",
          "lat_fac": 28.39297,
          "lon_fac": -80.61742,
          "names_prev": [],
          "sub_last": {
            "id": 15300,
            "date_val": "1999-07-29",
            "date_dereg": "2004-12-22",
            "lat_sub": "28.393056",
            "lon_sub": "-80.619444",
            "lat_frs": 28.39297,
            "lon_frs": -80.61742,
            "num_accidents": null,
            "latest_accident": null
          }
        },
        {
          "EPAFacilityID": "100000179692",
          "name": "FPL-CAPE CANAVERAL",
          "city": "COCOA",
          "address": "6000 US 1 NORTH",
          "lat_fac": 28.46836,
          "lon_fac": -80.76519,
          "names_prev": [
            "FPL-CAPE CAVANERAL"
          ],
          "sub_last": {
            "id": 49227,
            "date_val": "2008-07-15",
            "date_dereg": "2011-03-03",
            "lat_sub": "28.469444",
            "lon_sub": "-080.764167",
            "lat_frs": 28.46836,
            "lon_frs": -80.76519,
            "num_accidents": null,
            "latest_accident": null
          }
        },
        {
          "EPAFacilityID": "100000238753",
          "name": "Walmart Distribution Center 8851",
          "city": "Cocoa",
          "address": "4505 Hwy 524",
          "lat_fac": null,
          "lon_fac": null,
          "names_prev": [],
          "sub_last": {
            "id": 1000069702,
            "date_val": "2018-05-10",
            "date_dereg": null,
            "lat_sub": "28.373090",
            "lon_sub": "-80.796452",
            "lat_frs": null,
            "lon_frs": null,
            "num_accidents": null,
            "latest_accident": null
          }
        },
        {
          "EPAFacilityID": "100000056208",
          "name": "City Of Cocoa Beach Water Reclamation Facility",
          "city": "Cocoa Beach",
          "address": "1600 Minuteman Causeway",
          "lat_fac": 28.31825,
          "lon_fac": -80.63294,
          "names_prev": [],
          "sub_last": {
            "id": 4575,
            "date_val": "1999-06-24",
            "date_dereg": "2003-03-14",
            "lat_sub": "28.318056",
            "lon_sub": "-80.616667",
            "lat_frs": 28.31825,
            "lon_frs": -80.63294,
            "num_accidents": null,
            "latest_accident": null
          }
        },
        {
          "EPAFacilityID": "100000031333",
          "name": "Kennedy Space Center",
          "city": "KSC",
          "address": "SI-E2",
          "lat_fac": 28.64944,
          "lon_fac": -80.68806,
          "names_prev": [],
          "sub_last": {
            "id": 1000098026,
            "date_val": "2021-12-08",
            "date_dereg": null,
            "lat_sub": "28.454144",
            "lon_sub": "-080.549569",
            "lat_frs": 28.64944,
            "lon_frs": -80.68806,
            "num_accidents": null,
            "latest_accident": null
          }
        },
        {
          "EPAFacilityID": "100000121931",
          "name": "D. B. Lee Wastewater Treatment Facility",
          "city": "Melbourne",
          "address": "835 North Apollo Blvd.",
          "lat_fac": 28.12395,
          "lon_fac": -80.63915,
          "names_prev": [],
          "sub_last": {
            "id": 26823,
            "date_val": "2002-10-23",
            "date_dereg": "2004-06-17",
            "lat_sub": "28.120833",
            "lon_sub": "-80.634722",
            "lat_frs": 28.12395,
            "lon_frs": -80.63915,
            "num_accidents": null,
            "latest_accident": null
          }
        },
        {
          "EPAFacilityID": "100000122832",
          "name": "Grant Street Water Reclamation Facility",
          "city": "Melbourne",
          "address": "2300 South Grant Street",
          "lat_fac": 28.0735,
          "lon_fac": -80.60911,
          "names_prev": [
            "Grant Street Wastewater Treatment Facility"
          ],
          "sub_last": {
            "id": 26832,
            "date_val": "2002-10-24",
            "date_dereg": "2003-03-27",
            "lat_sub": "28.090278",
            "lon_sub": "-80.608889",
            "lat_frs": 28.0735,
            "lon_frs": -80.60911,
            "num_accidents": null,
            "latest_accident": null
          }
        },
        {
          "EPAFacilityID": "100000126945",
          "name": "Lake Washington Surface Water Production Facility",
          "city": "Melbourne",
          "address": "5055 Lake Washington Road",
          "lat_fac": 28.14739,
          "lon_fac": -80.72811,
          "names_prev": [
            "Lake Washington Water Production Facility"
          ],
          "sub_last": {
            "id": 26478,
            "date_val": "2002-08-23",
            "date_dereg": "2002-09-16",
            "lat_sub": "28.148611",
            "lon_sub": "-80.727778",
            "lat_frs": 28.14739,
            "lon_frs": -80.72811,
            "num_accidents": null,
            "latest_accident": null
          }
        },
        {
          "EPAFacilityID": "100000193088",
          "name": "Lake Washington Water Production Facility",
          "city": "Melbourne",
          "address": "5985 Lake Washington Road",
          "lat_fac": null,
          "lon_fac": null,
          "names_prev": [],
          "sub_last": {
            "id": 49930,
            "date_val": "2007-10-17",
            "date_dereg": "2012-10-16",
            "lat_sub": "28.146389",
            "lon_sub": "-080.728611",
            "lat_frs": null,
            "lon_frs": null,
            "num_accidents": null,
            "latest_accident": null
          }
        },
        {
          "EPAFacilityID": "100000032109",
          "name": "City of Palm Bay",
          "city": "Palm Bay",
          "address": "1105 Troutman Blvd.",
          "lat_fac": 28.02072,
          "lon_fac": -80.59843,
          "names_prev": [
            "City of Palm Bay Water and Wastewater Facilities"
          ],
          "sub_last": {
            "id": 42440,
            "date_val": "2005-03-29",
            "date_dereg": "2009-02-12",
            "lat_sub": "28.013300",
            "lon_sub": "-080.360500",
            "lat_frs": 28.02072,
            "lon_frs": -80.59843,
            "num_accidents": null,
            "latest_accident": null
          }
        },
        {
          "EPAFacilityID": "100000123804",
          "name": "FAR Research, Inc. (dba FAR Chemical, Inc.)",
          "city": "Palm Bay",
          "address": "2210 Wilhelmina Court, NE",
          "lat_fac": 28.0559,
          "lon_fac": -80.59268,
          "names_prev": [
            "FAR Research, Inc."
          ],
          "sub_last": {
            "id": 1000083285,
            "date_val": "2019-10-29",
            "date_dereg": null,
            "lat_sub": "28.055278",
            "lon_sub": "-080.593056",
            "lat_frs": 28.0559,
            "lon_frs": -80.59268,
            "num_accidents": null,
            "latest_accident": null
          }
        },
        {
          "EPAFacilityID": "100000102257",
          "name": "Advanced Aquacare, Inc.",
          "city": "Rockledge",
          "address": "2145 South US 1",
          "lat_fac": 28.30789,
          "lon_fac": -80.70814,
          "names_prev": [
            "Advanced Aquacare"
          ],
          "sub_last": {
            "id": 1000008506,
            "date_val": "2009-06-18",
            "date_dereg": "2013-05-15",
            "lat_sub": "28.316667",
            "lon_sub": "-080.712222",
            "lat_frs": 28.30789,
            "lon_frs": -80.70814,
            "num_accidents": null,
            "latest_accident": null
          }
        },
        {
          "EPAFacilityID": "100000142393",
          "name": "Rockledge Wastewater Treatment & Water Reclamation",
          "city": "Rockledge",
          "address": "1700 South Garden Road",
          "lat_fac": 28.32822,
          "lon_fac": -80.72383,
          "names_prev": [],
          "sub_last": {
            "id": 15513,
            "date_val": "1999-08-03",
            "date_dereg": "2004-03-30",
            "lat_sub": "28.329611",
            "lon_sub": "-80.724361",
            "lat_frs": 28.32822,
            "lon_frs": -80.72383,
            "num_accidents": null,
            "latest_accident": null
          }
        },
        {
          "EPAFacilityID": "100000097637",
          "name": "Titusville Water Reclamation Plant - Blue Heron",
          "city": "Titusville",
          "address": "4800 Deep Marsh Road",
          "lat_fac": 28.55071,
          "lon_fac": -80.85892,
          "names_prev": [],
          "sub_last": {
            "id": 7704,
            "date_val": "1999-07-07",
            "date_dereg": "2002-04-03",
            "lat_sub": "28.54525",
            "lon_sub": "-80.857583",
            "lat_frs": 28.55071,
            "lon_frs": -80.85892,
            "num_accidents": null,
            "latest_accident": null
          }
        },
        {
          "EPAFacilityID": "100000099715",
          "name": "Titusville Water Reclamation Plant - Osprey",
          "city": "Titusville",
          "address": "1105 Buffalo Road",
          "lat_fac": 28.62444,
          "lon_fac": -80.82293,
          "names_prev": [],
          "sub_last": {
            "id": 7969,
            "date_val": "1999-07-07",
            "date_dereg": "2002-04-03",
            "lat_sub": "28.6245",
            "lon_sub": "-80.8165",
            "lat_frs": 28.62444,
            "lon_frs": -80.82293,
            "num_accidents": null,
            "latest_accident": null
          }
        },
        {
          "EPAFacilityID": "100000100008",
          "name": "Titusville Water Treatment Plant - Garden Street",
          "city": "Titusville",
          "address": "2836 Garden Street",
          "lat_fac": 28.61548,
          "lon_fac": -80.83753,
          "names_prev": [],
          "sub_last": {
            "id": 8033,
            "date_val": "1999-07-07",
            "date_dereg": "2002-04-03",
            "lat_sub": "28.616083",
            "lon_sub": "-80.838111",
            "lat_frs": 28.61548,
            "lon_frs": -80.83753,
            "num_accidents": null,
            "latest_accident": null
          }
        }
      ]
    },
    {
      "fips": "12011",
      "name": "Broward County",
      "facilities": [
        {
          "EPAFacilityID": "100000059232",
          "name": "Cooper City Utilities",
          "city": "Cooper City",
          "address": "11791 SW 49 Street",
          "lat_fac": 26.05694,
          "lon_fac": -80.27083,
          "names_prev": [],
          "sub_last": {
            "id": 33035,
            "date_val": "2004-07-16",
            "date_dereg": "2006-05-16",
            "lat_sub": "26.061389",
            "lon_sub": "-080.305000",
            "lat_frs": 26.05694,
            "lon_frs": -80.27083,
            "num_accidents": null,
            "latest_accident": null
          }
        },
        {
          "EPAFacilityID": "100000089245",
          "name": "CORAL SPRINGS IMPROVEMENT DISTRICT WTP/WWTP",
          "city": "Coral Springs",
          "address": "10300 NW 11th Manor",
          "lat_fac": 26.24537,
          "lon_fac": -80.26045,
          "names_prev": [
            "Coral Springs Improvement District WTP/ WWTF"
          ],
          "sub_last": {
            "id": 37035,
            "date_val": "2004-08-13",
            "date_dereg": "2006-03-20",
            "lat_sub": "26.245194",
            "lon_sub": "-080.259694",
            "lat_frs": 26.24537,
            "lon_frs": -80.26045,
            "num_accidents": null,
            "latest_accident": null
          }
        },
        {
          "EPAFacilityID": "100000005157",
          "name": "Coral Springs Water Treatment Plant",
          "city": "Coral Springs",
          "address": "3800 Northwest 85th Avenue",
          "lat_fac": 26.27695,
          "lon_fac": -80.23997,
          "names_prev": [],
          "sub_last": {
            "id": 15912,
            "date_val": "1999-08-11",
            "date_dereg": "2003-05-29",
            "lat_sub": "26.277222",
            "lon_sub": "-80.240833",
            "lat_frs": 26.27695,
            "lon_frs": -80.23997,
            "num_accidents": 1,
            "latest_accident": "1994-09-17"
          }
        },
        {
          "EPAFacilityID": "100000089263",
          "name": "NORTH SPRINGS IMPROVEMENT DISTRICT",
          "city": "Coral Springs",
          "address": "9700 NW 52nd Street",
          "lat_fac": 26.29582,
          "lon_fac": -80.25172,
          "names_prev": [
            "North Springs Improvement District WTP"
          ],
          "sub_last": {
            "id": 1000013962,
            "date_val": "2010-05-11",
            "date_dereg": "2013-12-24",
            "lat_sub": "26.295306",
            "lon_sub": "-080.254056",
            "lat_frs": 26.29582,
            "lon_frs": -80.25172,
            "num_accidents": null,
            "latest_accident": null
          }
        },
        {
          "EPAFacilityID": "100000187148",
          "name": "Reddy Ice-Davie (439)",
          "city": "Davie",
          "address": "5050 SW 51st Street",
          "lat_fac": null,
          "lon_fac": null,
          "names_prev": [
            "Reddy Ice-Davie (341)",
            "Reddy Ice #341-Davie",
            "Reddy Ice"
          ],
          "sub_last": {
            "id": 1000093523,
            "date_val": "2021-04-27",
            "date_dereg": null,
            "lat_sub": "26.058611",
            "lon_sub": "-080.213611",
            "lat_frs": null,
            "lon_frs": null,
            "num_accidents": null,
            "latest_accident": null
          }
        },
        {
          "EPAFacilityID": "100000062996",
          "name": "System I (North) Water Treatment Plant",
          "city": "Davie",
          "address": "3790 S.W. 64th Avenue",
          "lat_fac": 26.07467,
          "lon_fac": -80.23167,
          "names_prev": [],
          "sub_last": {
            "id": 41944,
            "date_val": "2005-02-02",
            "date_dereg": "2006-03-30",
            "lat_sub": "26.074667",
            "lon_sub": "-080.231667",
            "lat_frs": 26.07467,
            "lon_frs": -80.23167,
            "num_accidents": null,
            "latest_accident": null
          }
        },
        {
          "EPAFacilityID": "100000063076",
          "name": "System III (South) Water Treatment Plant",
          "city": "Davie",
          "address": "3500 N.W. 76 Avenue",
          "lat_fac": 26.04094,
          "lon_fac": -80.24236,
          "names_prev": [],
          "sub_last": {
            "id": 41984,
            "date_val": "2005-02-08",
            "date_dereg": "2006-03-30",
            "lat_sub": "26.040944",
            "lon_sub": "-080.242361",
            "lat_frs": 26.04094,
            "lon_frs": -80.24236,
            "num_accidents": null,
            "latest_accident": null
          }
        },
        {
          "EPAFacilityID": "100000094195",
          "name": "Town of Davie Wastewater Treatment Plant",
          "city": "Davie",
          "address": "3500 N.W. 76 Avenue",
          "lat_fac": 26.04094,
          "lon_fac": -80.24236,
          "names_prev": [
            "Wastewater Treatment Plant"
          ],
          "sub_last": {
            "id": 41945,
            "date_val": "2005-02-02",
            "date_dereg": "2006-03-30",
            "lat_sub": "26.041639",
            "lon_sub": "-080.239056",
            "lat_frs": 26.04094,
            "lon_frs": -80.24236,
            "num_accidents": null,
            "latest_accident": null
          }
        },
        {
          "EPAFacilityID": "100000044542",
          "name": "Publix Super Markets,Inc.-Deerfield Beach Facility",
          "city": "Deerfield",
          "address": "Publix - Deerfield Beach Facility \u2022 777 SW 12th Avenue",
          "lat_fac": 26.30596,
          "lon_fac": -80.12029,
          "names_prev": [],
          "sub_last": {
            "id": 1000061320,
            "date_val": "2020-11-16",
            "date_dereg": null,
            "lat_sub": "26.308968",
            "lon_sub": "-080.124224",
            "lat_frs": 26.30596,
            "lon_frs": -80.12029,
            "num_accidents": null,
            "latest_accident": null
          }
        },
        {
          "EPAFacilityID": "100000141562",
          "name": "Deerfield Beach East Water Treatment Plant",
          "city": "Deerfield Beach",
          "address": "101 N.W. 2 Avenue",
          "lat_fac": 26.31966,
          "lon_fac": -80.10506,
          "names_prev": [
            "Deerfield Beach East Water Treatement Plant"
          ],
          "sub_last": {
            "id": 1000014781,
            "date_val": "2010-07-14",
            "date_dereg": "2013-06-21",
            "lat_sub": "26.320000",
            "lon_sub": "-080.086389",
            "lat_frs": 26.31966,
            "lon_frs": -80.10506,
            "num_accidents": null,
            "latest_accident": null
          }
        },
        {
          "EPAFacilityID": "100000139664",
          "name": "Deerfield Beach West Water Treatment Plant",
          "city": "Deerfield Beach",
          "address": "290 Goolsby Road",
          "lat_fac": 26.31383,
          "lon_fac": -80.12572,
          "names_prev": [],
          "sub_last": {
            "id": 1000093386,
            "date_val": "2021-04-16",
            "date_dereg": null,
            "lat_sub": "26.313959",
            "lon_sub": "-080.125326",
            "lat_frs": 26.31383,
            "lon_frs": -80.12572,
            "num_accidents": null,
            "latest_accident": null
          }
        },
        {
          "EPAFacilityID": "100000029373",
          "name": "District 3A Water Treatment Plant",
          "city": "Fort Lauderdale",
          "address": "4980 S.W. 40th Avenue",
          "lat_fac": 26.06071,
          "lon_fac": -80.2004,
          "names_prev": [],
          "sub_last": {
            "id": 2475,
            "date_val": "1999-06-15",
            "date_dereg": "2005-01-07",
            "lat_sub": "26.061111",
            "lon_sub": "-80.198333",
            "lat_frs": 26.06071,
            "lon_frs": -80.2004,
            "num_accidents": null,
            "latest_accident": null
          }
        },
        {
          "EPAFacilityID": "100000057644",
          "name": "Fiveash Water Treatment Plant",
          "city": "Fort Lauderdale",
          "address": "4321 NW 9th Avenue",
          "lat_fac": 26.18076,
          "lon_fac": -80.15495,
          "names_prev": [],
          "sub_last": {
            "id": 1000091384,
            "date_val": "2021-02-02",
            "date_dereg": null,
            "lat_sub": "26.178036",
            "lon_sub": "-080.156114",
            "lat_frs": 26.18076,
            "lon_frs": -80.15495,
            "num_accidents": null,
            "latest_accident": null
          }
        },
        {
          "EPAFacilityID": "100000050721",
          "name": "George T. Lohmeyer Wastewater Treatment Plant",
          "city": "Fort Lauderdale",
          "address": "1765 S.E. 18th Street",
          "lat_fac": 26.09946,
          "lon_fac": -80.12431,
          "names_prev": [],
          "sub_last": {
            "id": 1000083803,
            "date_val": "2019-12-13",
            "date_dereg": null,
            "lat_sub": "26.098700",
            "lon_sub": "-80.125793",
            "lat_frs": 26.09946,
            "lon_frs": -80.12431,
            "num_accidents": null,
            "latest_accident": null
          }
        },
        {
          "EPAFacilityID": "100000049556",
          "name": "Peele-Dixie Water Treatment Plant",
          "city": "Fort Lauderdale",
          "address": "1500 South State Road 7",
          "lat_fac": 26.10233,
          "lon_fac": -80.20125,
          "names_prev": [],
          "sub_last": {
            "id": 45610,
            "date_val": "2006-05-10",
            "date_dereg": "2009-04-21",
            "lat_sub": "26.101389",
            "lon_sub": "-080.201111",
            "lat_frs": 26.10233,
            "lon_frs": -80.20125,
            "num_accidents": 2,
            "latest_accident": "2006-03-29"
          }
        },
        {
          "EPAFacilityID": "100000165901",
          "name": "Port Everglades Terminal",
          "city": "Fort Lauderdale",
          "address": "800 SE 28th St.",
          "lat_fac": 26.08907,
          "lon_fac": -80.13471,
          "names_prev": [],
          "sub_last": {
            "id": 1000072480,
            "date_val": "2020-06-10",
            "date_dereg": null,
            "lat_sub": "26.088611",
            "lon_sub": "-080.134444",
            "lat_frs": 26.08907,
            "lon_frs": -80.13471,
            "num_accidents": null,
            "latest_accident": null
          }
        },
        {
          "EPAFacilityID": "100000137318",
          "name": "JCI Jones Chemicals Inc. - Ft. Lauderdale",
          "city": "Ft. Lauderdale",
          "address": "1800 N.W. 22nd Street",
          "lat_fac": 26.15484,
          "lon_fac": -80.16788,
          "names_prev": [
            "JCI Jones Chemicals, Inc.",
            "JCI Jones Chemicals, Inc., Ft. Lauderdale"
          ],
          "sub_last": {
            "id": 42560,
            "date_val": "2005-04-08",
            "date_dereg": "2005-09-26",
            "lat_sub": "26.154455",
            "lon_sub": "-080.168247",
            "lat_frs": 26.15484,
            "lon_frs": -80.16788,
            "num_accidents": 2,
            "latest_accident": "2001-07-03"
          }
        },
        {
          "EPAFacilityID": "100000078774",
          "name": "City of Hallandale Beach Water Treatment Plant",
          "city": "Hallandale Beach",
          "address": "630 NW 2nd Street",
          "lat_fac": 25.98774,
          "lon_fac": -80.15505,
          "names_prev": [
            "City of Hallandale Water Plant"
          ],
          "sub_last": {
            "id": 35717,
            "date_val": "2004-08-03",
            "date_dereg": "2008-05-08",
            "lat_sub": "25.991167",
            "lon_sub": "-080.158722",
            "lat_frs": 25.98774,
            "lon_frs": -80.15505,
            "num_accidents": null,
            "latest_accident": null
          }
        },
        {
          "EPAFacilityID": "100000026633",
          "name": "City of Hollywood Water Plant",
          "city": "Hollywood",
          "address": "3441 Hollywood Blvd.",
          "lat_fac": 26.01084,
          "lon_fac": -80.17697,
          "names_prev": [],
          "sub_last": {
            "id": 2188,
            "date_val": "1999-06-11",
            "date_dereg": "2004-04-22",
            "lat_sub": "26.008333",
            "lon_sub": "80.180556",
            "lat_frs": 26.01084,
            "lon_frs": -80.17697,
            "num_accidents": 1,
            "latest_accident": "1995-07-21"
          }
        },
        {
          "EPAFacilityID": "100000026606",
          "name": "Southern Regional WWTP",
          "city": "Hollywood",
          "address": "1621 N 14th Avenue",
          "lat_fac": 26.02658,
          "lon_fac": -80.13478,
          "names_prev": [
            "Southern Regional Wastewater Treatment Plant"
          ],
          "sub_last": {
            "id": 1000082982,
            "date_val": "2019-10-08",
            "date_dereg": null,
            "lat_sub": "26.13568",
            "lon_sub": "-80.88123",
            "lat_frs": 26.02658,
            "lon_frs": -80.13478,
            "num_accidents": null,
            "latest_accident": null
          }
        },
        {
          "EPAFacilityID": "100000031896",
          "name": "District 1A - Water Treatment Plant",
          "city": "Lauderdale Lakes",
          "address": "3701 N. State Rd. 7",
          "lat_fac": 26.17185,
          "lon_fac": -80.20345,
          "names_prev": [
            "District 1A Water Treatment Plant"
          ],
          "sub_last": {
            "id": 49901,
            "date_val": "2007-10-10",
            "date_dereg": "2009-12-04",
            "lat_sub": "26.171667",
            "lon_sub": "-080.203889",
            "lat_frs": 26.17185,
            "lon_frs": -80.20345,
            "num_accidents": null,
            "latest_accident": null
          }
        },
        {
          "EPAFacilityID": "100000094104",
          "name": "Lauderhill Water Treatment Plant",
          "city": "Lauderhill",
          "address": "2101 N.W. 49th Avenue",
          "lat_fac": 26.0125,
          "lon_fac": -80.21972,
          "names_prev": [],
          "sub_last": {
            "id": 1000083864,
            "date_val": "2019-11-20",
            "date_dereg": null,
            "lat_sub": "26.152500",
            "lon_sub": "-080.217778",
            "lat_frs": 26.0125,
            "lon_frs": -80.21972,
            "num_accidents": null,
            "latest_accident": null
          }
        },
        {
          "EPAFacilityID": "100000141768",
          "name": "East & West Site  Water & Wastewater Facilities",
          "city": "Margate",
          "address": "1001 West River Drive",
          "lat_fac": 26.24052,
          "lon_fac": -80.21007,
          "names_prev": [],
          "sub_last": {
            "id": 28431,
            "date_val": "2003-06-23",
            "date_dereg": "2003-06-24",
            "lat_sub": "26.240556",
            "lon_sub": "-80.2175",
            "lat_frs": 26.24052,
            "lon_frs": -80.21007,
            "num_accidents": null,
            "latest_accident": null
          }
        },
        {
          "EPAFacilityID": "100000013549",
          "name": "The City of Miramar East Water Treatment Plant",
          "city": "Miramar",
          "address": "2600 S.W. 66th Terrace",
          "lat_fac": 25.98636,
          "lon_fac": -80.22177,
          "names_prev": [],
          "sub_last": {
            "id": 1160,
            "date_val": "1999-05-26",
            "date_dereg": "2004-03-19",
            "lat_sub": "25.986028",
            "lon_sub": "-80.221139",
            "lat_frs": 25.98636,
            "lon_frs": -80.22177,
            "num_accidents": null,
            "latest_accident": null
          }
        },
        {
          "EPAFacilityID": "100000168141",
          "name": "City of North Lauderdale",
          "city": "North Lauderdale",
          "address": "841 SW 71 Avenue",
          "lat_fac": 26.22246,
          "lon_fac": -80.22027,
          "names_prev": [
            "City of North Lauderdale Water Treatment Plant"
          ],
          "sub_last": {
            "id": 1000090443,
            "date_val": "2020-10-27",
            "date_dereg": null,
            "lat_sub": "26.220297",
            "lon_sub": "-80.221663",
            "lat_frs": 26.22246,
            "lon_frs": -80.22027,
            "num_accidents": null,
            "latest_accident": null
          }
        },
        {
          "EPAFacilityID": "100000092552",
          "name": "Pembroke Pines Water Treatment Plant",
          "city": "Pembroke Pines",
          "address": "7960 Johnson Street",
          "lat_fac": 26.01639,
          "lon_fac": -80.24778,
          "names_prev": [],
          "sub_last": {
            "id": 1000050527,
            "date_val": "2018-08-21",
            "date_dereg": "2020-07-22",
            "lat_sub": "26.016389",
            "lon_sub": "-080.247778",
            "lat_frs": 26.01639,
            "lon_frs": -80.24778,
            "num_accidents": null,
            "latest_accident": null
          }
        },
        {
          "EPAFacilityID": "100000072235",
          "name": "Central Water Treatment Plant",
          "city": "Plantation",
          "address": "700 NW 91 Ave",
          "lat_fac": 26.13099,
          "lon_fac": -80.269,
          "names_prev": [],
          "sub_last": {
            "id": 5969,
            "date_val": "1999-06-30",
            "date_dereg": "2002-03-20",
            "lat_sub": "26.125",
            "lon_sub": "-80.266667",
            "lat_frs": 26.13099,
            "lon_frs": -80.269,
            "num_accidents": null,
            "latest_accident": null
          }
        },
        {
          "EPAFacilityID": "100000218392",
          "name": "Amerigas Pompano Beach FL Terminal",
          "city": "Pompano Beach",
          "address": "260 SW 13th Avenue",
          "lat_fac": null,
          "lon_fac": null,
          "names_prev": [],
          "sub_last": {
            "id": 1000066720,
            "date_val": "2021-08-18",
            "date_dereg": null,
            "lat_sub": "26.227180",
            "lon_sub": "-80.140255",
            "lat_frs": null,
            "lon_frs": null,
            "num_accidents": null,
            "latest_accident": null
          }
        },
        {
          "EPAFacilityID": "100000170478",
          "name": "Apperson Chemicals Inc, Pompano",
          "city": "Pompano Beach",
          "address": "101NW 13th Ave",
          "lat_fac": 26.23607,
          "lon_fac": -80.14157,
          "names_prev": [],
          "sub_last": {
            "id": 21497,
            "date_val": "2000-06-19",
            "date_dereg": "2001-10-30",
            "lat_sub": "25.95675",
            "lon_sub": "80.881222",
            "lat_frs": 26.23607,
            "lon_frs": -80.14157,
            "num_accidents": null,
            "latest_accident": null
          }
        },
        {
          "EPAFacilityID": "100000108965",
          "name": "Associated Grocers of Florida, Inc. (38111)",
          "city": "Pompano Beach",
          "address": "1141 SW 12th Avenue",
          "lat_fac": 26.2145,
          "lon_fac": -80.13896,
          "names_prev": [
            "Associated Grocers of Florida, Inc.",
            "Pompano Distribution Center",
            "Winn Dixie Stores, Inc.-Pompano Warehouse"
          ],
          "sub_last": {
            "id": 1000076998,
            "date_val": "2022-02-17",
            "date_dereg": null,
            "lat_sub": "26.216460",
            "lon_sub": "-80.143122",
            "lat_frs": 26.2145,
            "lon_frs": -80.13896,
            "num_accidents": null,
            "latest_accident": null
          }
        },
        {
          "EPAFacilityID": "100000140153",
          "name": "City of Pompano Beach Water Treatment Plant",
          "city": "Pompano Beach",
          "address": "1205 NE 5th Avenue",
          "lat_fac": 26.24316,
          "lon_fac": -80.12106,
          "names_prev": [],
          "sub_last": {
            "id": 1000012448,
            "date_val": "2010-02-17",
            "date_dereg": "2010-09-27",
            "lat_sub": "26.143800",
            "lon_sub": "-080.070900",
            "lat_frs": 26.24316,
            "lon_frs": -80.12106,
            "num_accidents": null,
            "latest_accident": null
          }
        },
        {
          "EPAFacilityID": "100000033331",
          "name": "District 2A - Water Treatment Plant",
          "city": "Pompano Beach",
          "address": "1390 NE 50th St.",
          "lat_fac": 26.29196,
          "lon_fac": -80.10532,
          "names_prev": [
            "District 2A Water Treatment Plant"
          ],
          "sub_last": {
            "id": 49897,
            "date_val": "2007-10-11",
            "date_dereg": "2012-06-04",
            "lat_sub": "26.292500",
            "lon_sub": "-080.106111",
            "lat_frs": 26.29196,
            "lon_frs": -80.10532,
            "num_accidents": null,
            "latest_accident": null
          }
        },
        {
          "EPAFacilityID": "100000036392",
          "name": "North Regional Wastewater Treatment Plant",
          "city": "Pompano Beach",
          "address": "2401 N. Powerline Rd.",
          "lat_fac": 26.26158,
          "lon_fac": -80.15272,
          "names_prev": [],
          "sub_last": {
            "id": 1000067537,
            "date_val": "2018-02-12",
            "date_dereg": "2020-09-18",
            "lat_sub": "26.261236",
            "lon_sub": "-080.154197",
            "lat_frs": 26.26158,
            "lon_frs": -80.15272,
            "num_accidents": null,
            "latest_accident": null
          }
        },
        {
          "EPAFacilityID": "100000055842",
          "name": "Tamarac Water Treatment Plant",
          "city": "Tamarac",
          "address": "Tamarac Water Treatment Plant \u2022 7803 Northwest 61st Street",
          "lat_fac": 26.20007,
          "lon_fac": -80.25619,
          "names_prev": [],
          "sub_last": {
            "id": 35244,
            "date_val": "2004-07-30",
            "date_dereg": "2005-01-11",
            "lat_sub": "26.201111",
            "lon_sub": "-080.256389",
            "lat_frs": 26.20007,
            "lon_frs": -80.25619,
            "num_accidents": null,
            "latest_accident": null
          }
        }
      ]
    },
    {
      "fips": "12015",
      "name": "Charlotte County",
      "facilities": [
        {
          "EPAFacilityID": "100000230751",
          "name": "Cheney Brothers, Inc (Punta Gorda)",
          "city": "Punta Gorda",
          "address": "1 Cheney Way",
          "lat_fac": null,
          "lon_fac": null,
          "names_prev": [],
          "sub_last": {
            "id": 1000091124,
            "date_val": "2020-12-02",
            "date_dereg": null,
            "lat_sub": "26.911729",
            "lon_sub": "-82.006482",
            "lat_frs": null,
            "lon_frs": null,
            "num_accidents": null,
            "latest_accident": null
          }
        },
        {
          "EPAFacilityID": "100000041493",
          "name": "City of Punta Gorda Water Treatment Plant",
          "city": "Punta Gorda",
          "address": "38100 Washington Loop Road",
          "lat_fac": 26.97252,
          "lon_fac": -81.89282,
          "names_prev": [
            "Water Treatment Plant"
          ],
          "sub_last": {
            "id": 1000054919,
            "date_val": "2020-02-21",
            "date_dereg": "2020-10-01",
            "lat_sub": "26.975725",
            "lon_sub": "-081.935461",
            "lat_frs": 26.97252,
            "lon_frs": -81.89282,
            "num_accidents": null,
            "latest_accident": null
          }
        },
        {
          "EPAFacilityID": "100000043516",
          "name": "Wastewater Treatment Plant",
          "city": "Punta Gorda",
          "address": "30999 Bermont Road",
          "lat_fac": 26.94666,
          "lon_fac": -81.9439,
          "names_prev": [],
          "sub_last": {
            "id": 1000078923,
            "date_val": "2020-02-19",
            "date_dereg": "2020-10-07",
            "lat_sub": "26.928709",
            "lon_sub": "-81.946895",
            "lat_frs": 26.94666,
            "lon_frs": -81.9439,
            "num_accidents": null,
            "latest_accident": null
          }
        },
        {
          "EPAFacilityID": "100000182848",
          "name": "Telman Road Facility",
          "city": "Rotonda West",
          "address": "140 Telman Road",
          "lat_fac": 26.90975,
          "lon_fac": -82.30656,
          "names_prev": [
            "Englewood Water District - Telman Road Facility"
          ],
          "sub_last": {
            "id": 1000080667,
            "date_val": "2019-06-25",
            "date_dereg": null,
            "lat_sub": "26.902222",
            "lon_sub": "-082.306389",
            "lat_frs": 26.90975,
            "lon_frs": -82.30656,
            "num_accidents": null,
            "latest_accident": null
          }
        }
      ]
    },
    {
      "fips": "12017",
      "name": "Citrus County",
      "facilities": [
        {
          "EPAFacilityID": "100000105218",
          "name": "Crystal River",
          "city": "Crystal River",
          "address": "15760 Powerline Road",
          "lat_fac": 28.95811,
          "lon_fac": -82.69972,
          "names_prev": [],
          "sub_last": {
            "id": 8212,
            "date_val": "1999-07-08",
            "date_dereg": "2001-07-10",
            "lat_sub": "28.959444",
            "lon_sub": "-82.700278",
            "lat_frs": 28.95811,
            "lon_frs": -82.69972,
            "num_accidents": null,
            "latest_accident": null
          }
        },
        {
          "EPAFacilityID": "100000090153",
          "name": "Inverness Wastewater Treatment Plant",
          "city": "Inverness",
          "address": "3900 South Florida Avenue",
          "lat_fac": 28.80472,
          "lon_fac": -82.3117,
          "names_prev": [],
          "sub_last": {
            "id": 7112,
            "date_val": "1999-07-06",
            "date_dereg": "2004-02-10",
            "lat_sub": "28.80425",
            "lon_sub": "-82.313139",
            "lat_frs": 28.80472,
            "lon_frs": -82.3117,
            "num_accidents": null,
            "latest_accident": null
          }
        },
        {
          "EPAFacilityID": "100000099804",
          "name": "Sun Country Chemical Co., Inc.",
          "city": "Inverness",
          "address": "2323 Highway 44 West",
          "lat_fac": 28.84206,
          "lon_fac": -82.36256,
          "names_prev": [
            "Sun Country Chemical Co. Inc."
          ],
          "sub_last": {
            "id": 37107,
            "date_val": "2004-08-12",
            "date_dereg": "2009-04-08",
            "lat_sub": "28.840556",
            "lon_sub": "-082.361111",
            "lat_frs": 28.84206,
            "lon_frs": -82.36256,
            "num_accidents": null,
            "latest_accident": null
          }
        }
      ]
    },
    {
      "fips": "12019",
      "name": "Clay County",
      "facilities": [
        {
          "EPAFacilityID": "100000188815",
          "name": "Gustafson's L.L.C.",
          "city": "Green Cove Springs",
          "address": "4169 Country Road 15A",
          "lat_fac": null,
          "lon_fac": null,
          "names_prev": [],
          "sub_last": {
            "id": 1000014364,
            "date_val": "2013-08-20",
            "date_dereg": "2015-05-20",
            "lat_sub": "29.973310",
            "lon_sub": "-081.692840",
            "lat_frs": null,
            "lon_frs": null,
            "num_accidents": null,
            "latest_accident": null
          }
        },
        {
          "EPAFacilityID": "100000158312",
          "name": "Ash Street Facility",
          "city": "Orange Park",
          "address": "700 Ash Street",
          "lat_fac": 30.18264,
          "lon_fac": -81.70757,
          "names_prev": [],
          "sub_last": {
            "id": 16310,
            "date_val": "1999-08-13",
            "date_dereg": "2000-03-24",
            "lat_sub": "30.1825",
            "lon_sub": "-81.710278",
            "lat_frs": 30.18264,
            "lon_frs": -81.70757,
            "num_accidents": null,
            "latest_accident": null
          }
        },
        {
          "EPAFacilityID": "100000082947",
          "name": "Miller Street WWTF",
          "city": "Orange Park",
          "address": "1000 Miller Street",
          "lat_fac": 30.17819,
          "lon_fac": -81.71228,
          "names_prev": [],
          "sub_last": {
            "id": 6656,
            "date_val": "1999-07-02",
            "date_dereg": "2004-07-28",
            "lat_sub": "30.177778",
            "lon_sub": "-81.712778",
            "lat_frs": 30.17819,
            "lon_frs": -81.71228,
            "num_accidents": null,
            "latest_accident": null
          }
        },
        {
          "EPAFacilityID": "100000082091",
          "name": "Ridgecrest Water Treatment Plant",
          "city": "Orange Park",
          "address": "1082 Camp Johnson Rd.",
          "lat_fac": 30.14701,
          "lon_fac": -81.76759,
          "names_prev": [],
          "sub_last": {
            "id": 6648,
            "date_val": "1999-07-02",
            "date_dereg": "2003-10-02",
            "lat_sub": "30.143333",
            "lon_sub": "-81.767222",
            "lat_frs": 30.14701,
            "lon_frs": -81.76759,
            "num_accidents": null,
            "latest_accident": null
          }
        }
      ]
    },
    {
      "fips": "12021",
      "name": "Collier County",
      "facilities": [
        {
          "EPAFacilityID": "100000182134",
          "name": "Golden Gate City Wastewater Treatment Facility",
          "city": "Naples",
          "address": "4931 32nd Avenue",
          "lat_fac": 26.1715,
          "lon_fac": -81.9055,
          "names_prev": [],
          "sub_last": {
            "id": 27903,
            "date_val": "2003-04-08",
            "date_dereg": "2003-08-13",
            "lat_sub": "26.1715",
            "lon_sub": "-81.9055",
            "lat_frs": 26.1715,
            "lon_frs": -81.9055,
            "num_accidents": null,
            "latest_accident": null
          }
        },
        {
          "EPAFacilityID": "100000182205",
          "name": "Golden Gate City Water Treatment Facility",
          "city": "Naples",
          "address": "4300 Golden Gate Blvd.",
          "lat_fac": 26.18058,
          "lon_fac": -81.69397,
          "names_prev": [],
          "sub_last": {
            "id": 27904,
            "date_val": "2003-04-08",
            "date_dereg": "2003-08-12",
            "lat_sub": "26.180583",
            "lon_sub": "-81.693972",
            "lat_frs": 26.18058,
            "lon_frs": -81.69397,
            "num_accidents": null,
            "latest_accident": null
          }
        },
        {
          "EPAFacilityID": "100000109296",
          "name": "North County Regional Water Treatment Plant",
          "city": "Naples",
          "address": "8005 Vanderbilt Beach Road Ext",
          "lat_fac": 26.1418,
          "lon_fac": -81.7974,
          "names_prev": [],
          "sub_last": {
            "id": 1000097542,
            "date_val": "2021-11-23",
            "date_dereg": null,
            "lat_sub": "26.245046",
            "lon_sub": "-81.677806",
            "lat_frs": 26.1418,
            "lon_frs": -81.7974,
            "num_accidents": null,
            "latest_accident": null
          }
        },
        {
          "EPAFacilityID": "100000109376",
          "name": "North County Water Reclamation Facility",
          "city": "Naples",
          "address": "10500 Goodlette Frank Road",
          "lat_fac": 26.26664,
          "lon_fac": -81.78912,
          "names_prev": [],
          "sub_last": {
            "id": 8793,
            "date_val": "1999-07-09",
            "date_dereg": "2002-04-03",
            "lat_sub": "26.265833",
            "lon_sub": "-81.788056",
            "lat_frs": 26.26664,
            "lon_frs": -81.78912,
            "num_accidents": null,
            "latest_accident": null
          }
        },
        {
          "EPAFacilityID": "100000109571",
          "name": "South County Regional Water Treatment Plant",
          "city": "Naples",
          "address": "3851 Utility Drive",
          "lat_fac": 26.16615,
          "lon_fac": -81.68624,
          "names_prev": [],
          "sub_last": {
            "id": 1000094295,
            "date_val": "2021-06-18",
            "date_dereg": null,
            "lat_sub": "26.166335",
            "lon_sub": "-081.683993",
            "lat_frs": 26.16615,
            "lon_frs": -81.68624,
            "num_accidents": null,
            "latest_accident": null
          }
        },
        {
          "EPAFacilityID": "100000108545",
          "name": "Water Reclamation Facility",
          "city": "Naples",
          "address": "1400 3rd Ave. North",
          "lat_fac": 26.15108,
          "lon_fac": -81.78908,
          "names_prev": [
            "City of Naples Wastewater Treatment Facility"
          ],
          "sub_last": {
            "id": 1000089802,
            "date_val": "2020-10-05",
            "date_dereg": null,
            "lat_sub": "26.152757",
            "lon_sub": "-081.788346",
            "lat_frs": 26.15108,
            "lon_frs": -81.78908,
            "num_accidents": null,
            "latest_accident": null
          }
        },
        {
          "EPAFacilityID": "100000109615",
          "name": "Water Treatment Plant",
          "city": "Naples",
          "address": "1000 Fleischmann Boulevard",
          "lat_fac": 26.16757,
          "lon_fac": -81.7977,
          "names_prev": [
            "City of Naples Water Treatment Plant"
          ],
          "sub_last": {
            "id": 1000088912,
            "date_val": "2020-07-23",
            "date_dereg": null,
            "lat_sub": "26.166911",
            "lon_sub": "-81.796882",
            "lat_frs": 26.16757,
            "lon_frs": -81.7977,
            "num_accidents": null,
            "latest_accident": null
          }
        }
      ]
    },
    {
      "fips": "12023",
      "name": "Columbia County",
      "facilities": [
        {
          "EPAFacilityID": "100000186041",
          "name": "Carlisle Construction Materials, LLC",
          "city": "Lake City",
          "address": "388 Southeast Enterprise Court",
          "lat_fac": null,
          "lon_fac": null,
          "names_prev": [
            "Hunter Panels LLC",
            "Hunter Panels"
          ],
          "sub_last": {
            "id": 1000089766,
            "date_val": "2020-09-09",
            "date_dereg": null,
            "lat_sub": "30.173000",
            "lon_sub": "-082.589400",
            "lat_frs": null,
            "lon_frs": null,
            "num_accidents": null,
            "latest_accident": null
          }
        },
        {
          "EPAFacilityID": "100000023841",
          "name": "Lake City Water Treatment Facility",
          "city": "Lake City",
          "address": "928 SE Putnam Street",
          "lat_fac": 30.18586,
          "lon_fac": -82.62344,
          "names_prev": [],
          "sub_last": {
            "id": 32353,
            "date_val": "2004-07-12",
            "date_dereg": "2006-01-13",
            "lat_sub": "30.185556",
            "lon_sub": "-082.622500",
            "lat_frs": 30.18586,
            "lon_frs": -82.62344,
            "num_accidents": null,
            "latest_accident": null
          }
        },
        {
          "EPAFacilityID": "100000093249",
          "name": "Southern States Cooperative- Lake City, FL (71969)",
          "city": "Lake City",
          "address": "1051 West Railroad Street",
          "lat_fac": 30.19609,
          "lon_fac": -82.64386,
          "names_prev": [],
          "sub_last": {
            "id": 19702,
            "date_val": "2000-01-21",
            "date_dereg": "2001-09-17",
            "lat_sub": "30.195833",
            "lon_sub": "-82.643611",
            "lat_frs": 30.19609,
            "lon_frs": -82.64386,
            "num_accidents": null,
            "latest_accident": null
          }
        },
        {
          "EPAFacilityID": "100000202372",
          "name": "Target Food Distribution Center T3892",
          "city": "Lake City",
          "address": "3049 N. US 441",
          "lat_fac": null,
          "lon_fac": null,
          "names_prev": [],
          "sub_last": {
            "id": 1000068379,
            "date_val": "2018-03-07",
            "date_dereg": null,
            "lat_sub": "30.233674",
            "lon_sub": "-082.634966",
            "lat_frs": null,
            "lon_frs": null,
            "num_accidents": null,
            "latest_accident": null
          }
        }
      ]
    },
    {
      "fips": "12025",
      "name": "(Former) Dade County",
      "facilities": [
        {
          "EPAFacilityID": "100000092062",
          "name": "Hialeah Water Treatment Plant",
          "city": "Hialeah",
          "address": "700 West 2nd Avenue",
          "lat_fac": 25.82801,
          "lon_fac": -80.28557,
          "names_prev": [],
          "sub_last": {
            "id": 7453,
            "date_val": "1999-07-06",
            "date_dereg": "2004-06-17",
            "lat_sub": "25.827778",
            "lon_sub": "-80.286389",
            "lat_frs": 25.82801,
            "lon_frs": -80.28557,
            "num_accidents": null,
            "latest_accident": null
          }
        },
        {
          "EPAFacilityID": "100000043838",
          "name": "Fancy Flora Inc.",
          "city": "Miami",
          "address": "19950 S.W. 216 Street",
          "lat_fac": 25.33869,
          "lon_fac": -80.31031,
          "names_prev": [],
          "sub_last": {
            "id": 10477,
            "date_val": "1999-06-21",
            "date_dereg": "2003-03-10",
            "lat_sub": "25.338694",
            "lon_sub": "-80.310306",
            "lat_frs": 25.33869,
            "lon_frs": -80.31031,
            "num_accidents": null,
            "latest_accident": null
          }
        }
      ]
    },
    {
      "fips": "12027",
      "name": "DeSoto County",
      "facilities": [
        {
          "EPAFacilityID": "100000182982",
          "name": "City of Arcadia - Water Treatment Plant",
          "city": "Arcadia",
          "address": "645 Turner Road",
          "lat_fac": 27.22056,
          "lon_fac": -81.84167,
          "names_prev": [],
          "sub_last": {
            "id": 28527,
            "date_val": "2007-03-27",
            "date_dereg": "2009-01-07",
            "lat_sub": "27.220556",
            "lon_sub": "-81.841667",
            "lat_frs": 27.22056,
            "lon_frs": -81.84167,
            "num_accidents": null,
            "latest_accident": null
          }
        },
        {
          "EPAFacilityID": "100000183053",
          "name": "City of Arcadia - William Tyson WWTP",
          "city": "Arcadia",
          "address": "223 South Parker Avenue",
          "lat_fac": 27.21694,
          "lon_fac": -81.87417,
          "names_prev": [],
          "sub_last": {
            "id": 28556,
            "date_val": "2003-07-16",
            "date_dereg": "2009-01-06",
            "lat_sub": "27.2175",
            "lon_sub": "-81.874167",
            "lat_frs": 27.21694,
            "lon_frs": -81.87417,
            "num_accidents": null,
            "latest_accident": null
          }
        },
        {
          "EPAFacilityID": "100000104521",
          "name": "Peace River Regional Water Treatment Facility",
          "city": "Arcadia",
          "address": "8998 SW County Road 769",
          "lat_fac": 27.09083,
          "lon_fac": -82.00167,
          "names_prev": [],
          "sub_last": {
            "id": 35720,
            "date_val": "2004-08-03",
            "date_dereg": "2010-01-06",
            "lat_sub": "27.090833",
            "lon_sub": "-082.001944",
            "lat_frs": 27.09083,
            "lon_frs": -82.00167,
            "num_accidents": null,
            "latest_accident": null
          }
        },
        {
          "EPAFacilityID": "100000190704",
          "name": "Wal-Mart Distribution Center #7023",
          "city": "Arcadia",
          "address": "6785 S.W. Enterprise Road",
          "lat_fac": null,
          "lon_fac": null,
          "names_prev": [],
          "sub_last": {
            "id": 1000083946,
            "date_val": "2019-12-06",
            "date_dereg": null,
            "lat_sub": "27.042500",
            "lon_sub": "-081.955549",
            "lat_frs": null,
            "lon_frs": null,
            "num_accidents": null,
            "latest_accident": null
          }
        }
      ]
    },
    {
      "fips": "12031",
      "name": "Duval County",
      "facilities": [
        {
          "EPAFacilityID": "100000121307",
          "name": "Atlantic Beach WTP # 1",
          "city": "Atlantic Beach",
          "address": "City of Atlantic Beach WTP #1 \u2022 469 11th Street",
          "lat_fac": 30.33611,
          "lon_fac": -81.40583,
          "names_prev": [
            "Atlantic Beach Water Treatment Plant # 1"
          ],
          "sub_last": {
            "id": 1000098165,
            "date_val": "2021-12-13",
            "date_dereg": null,
            "lat_sub": "30.33557",
            "lon_sub": "-81.405339",
            "lat_frs": 30.33611,
            "lon_frs": -81.40583,
            "num_accidents": null,
            "latest_accident": null
          }
        },
        {
          "EPAFacilityID": "100000121192",
          "name": "Atlantic Beach WTP # 2",
          "city": "Atlantic Beach",
          "address": "City of Atlantic Beach WTP #2 \u2022 2301 Mayport Road",
          "lat_fac": 30.34917,
          "lon_fac": -81.41194,
          "names_prev": [
            "Atlantic Beach Water Treatment Plant # 2"
          ],
          "sub_last": {
            "id": 1000098204,
            "date_val": "2021-12-13",
            "date_dereg": null,
            "lat_sub": "30.349537",
            "lon_sub": "-81.41213",
            "lat_frs": 30.34917,
            "lon_frs": -81.41194,
            "num_accidents": null,
            "latest_accident": null
          }
        },
        {
          "EPAFacilityID": "100000121165",
          "name": "Atlantic Beach WTP # 3",
          "city": "Atlantic Beach",
          "address": "City of Atlantic Beach WTP # 3 \u2022 902 Assisi Lane",
          "lat_fac": 30.35278,
          "lon_fac": -81.41611,
          "names_prev": [
            "Atlantic Beach Water Treatment Plant # 3"
          ],
          "sub_last": {
            "id": 1000098205,
            "date_val": "2021-12-13",
            "date_dereg": null,
            "lat_sub": "30.352931",
            "lon_sub": "-81.416852",
            "lat_frs": 30.35278,
            "lon_frs": -81.41611,
            "num_accidents": null,
            "latest_accident": null
          }
        },
        {
          "EPAFacilityID": "100000121361",
          "name": "Atlantic Beach WWTP # 1",
          "city": "Atlantic Beach",
          "address": "City of Atlantic Beach WWTP # 1 \u2022 1100 Sandpipper Lane",
          "lat_fac": 30.33556,
          "lon_fac": -81.40889,
          "names_prev": [
            "City of Atlantic Beach WWT #1"
          ],
          "sub_last": {
            "id": 1000098243,
            "date_val": "2021-12-13",
            "date_dereg": null,
            "lat_sub": "30.335387",
            "lon_sub": "-81.4088604",
            "lat_frs": 30.33556,
            "lon_frs": -81.40889,
            "num_accidents": null,
            "latest_accident": null
          }
        },
        {
          "EPAFacilityID": "100000119221",
          "name": "Atlantic Beach WWTP # 2",
          "city": "Atlantic Beach",
          "address": "City of Atlantic Beach WWTP #2 \u2022 739 Renault Drive",
          "lat_fac": 30.36944,
          "lon_fac": -81.41139,
          "names_prev": [
            "City of Atlantic Beach WWT #2"
          ],
          "sub_last": {
            "id": 1000025558,
            "date_val": "2012-01-09",
            "date_dereg": "2012-11-01",
            "lat_sub": "30.369444",
            "lon_sub": "-081.411389",
            "lat_frs": 30.36944,
            "lon_frs": -81.41139,
            "num_accidents": null,
            "latest_accident": null
          }
        },
        {
          "EPAFacilityID": "100000006245",
          "name": "Airgas USA, LLC, Jacksonville",
          "city": "Jacksonville",
          "address": "5837 West 5th Street",
          "lat_fac": 30.34308,
          "lon_fac": -81.74624,
          "names_prev": [
            "Airgas South, Jacksonville",
            "Air Products, Jacksonville"
          ],
          "sub_last": {
            "id": 1000078869,
            "date_val": "2019-05-09",
            "date_dereg": null,
            "lat_sub": "30.343333",
            "lon_sub": "-081.746111",
            "lat_frs": 30.34308,
            "lon_frs": -81.74624,
            "num_accidents": null,
            "latest_accident": null
          }
        },
        {
          "EPAFacilityID": "100000115822",
          "name": "Amrep Automotive Products Group",
          "city": "Jacksonville",
          "address": "2910 West Beaver Street",
          "lat_fac": 30.33001,
          "lon_fac": -81.7165,
          "names_prev": [
            "Petro Chemical Products, Inc."
          ],
          "sub_last": {
            "id": 35714,
            "date_val": "2004-08-03",
            "date_dereg": "2005-05-23",
            "lat_sub": "30.329722",
            "lon_sub": "-081.717778",
            "lat_frs": 30.33001,
            "lon_frs": -81.7165,
            "num_accidents": null,
            "latest_accident": null
          }
        },
        {
          "EPAFacilityID": "100000091287",
          "name": "Anheuser-Busch, LLC.",
          "city": "Jacksonville",
          "address": "111 Busch Drive",
          "lat_fac": 30.44892,
          "lon_fac": -81.64706,
          "names_prev": [
            "Anheuser-Busch, Inc.",
            "Anheuser-Busch, Inc. Jacksonville Brewery"
          ],
          "sub_last": {
            "id": 1000090211,
            "date_val": "2020-10-20",
            "date_dereg": null,
            "lat_sub": "30.433903",
            "lon_sub": "-81.646846",
            "lat_frs": 30.44892,
            "lon_frs": -81.64706,
            "num_accidents": null,
            "latest_accident": null
          }
        },
        {
          "EPAFacilityID": "100000132849",
          "name": "Arlington East Water Reclamation Facility",
          "city": "Jacksonville",
          "address": "1555 Millcoe Road",
          "lat_fac": 30.34664,
          "lon_fac": -81.54317,
          "names_prev": [],
          "sub_last": {
            "id": 1000003597,
            "date_val": "2009-06-26",
            "date_dereg": "2013-02-04",
            "lat_sub": "30.345932",
            "lon_sub": "-081.541225",
            "lat_frs": 30.34664,
            "lon_frs": -81.54317,
            "num_accidents": null,
            "latest_accident": null
          }
        },
        {
          "EPAFacilityID": "100000144097",
          "name": "Arlington Water Treatment Plant",
          "city": "Jacksonville",
          "address": "1425 Maitland Avenue",
          "lat_fac": 30.33516,
          "lon_fac": -81.59447,
          "names_prev": [],
          "sub_last": {
            "id": 13512,
            "date_val": "1999-07-21",
            "date_dereg": "2003-08-20",
            "lat_sub": "30.334917",
            "lon_sub": "-81.595889",
            "lat_frs": 30.33516,
            "lon_frs": -81.59447,
            "num_accidents": null,
            "latest_accident": null
          }
        },
        {
          "EPAFacilityID": "100000184855",
          "name": "Beaver Street Fisheries, Inc.",
          "city": "Jacksonville",
          "address": "1741 West Beaver Street",
          "lat_fac": 30.33556,
          "lon_fac": -81.68722,
          "names_prev": [],
          "sub_last": {
            "id": 1000084143,
            "date_val": "2020-02-12",
            "date_dereg": null,
            "lat_sub": "30.335632",
            "lon_sub": "-081.687212",
            "lat_frs": 30.33556,
            "lon_frs": -81.68722,
            "num_accidents": null,
            "latest_accident": null
          }
        },
        {
          "EPAFacilityID": "100000220977",
          "name": "Blanchard Terminal Company LLC - Jacksonville",
          "city": "Jacksonville",
          "address": "2101 Zoo Parkway",
          "lat_fac": null,
          "lon_fac": null,
          "names_prev": [],
          "sub_last": {
            "id": 1000065938,
            "date_val": "2019-10-14",
            "date_dereg": null,
            "lat_sub": "30.412922",
            "lon_sub": "-81.606708",
            "lat_frs": null,
            "lon_frs": null,
            "num_accidents": null,
            "latest_accident": null
          }
        },
        {
          "EPAFacilityID": "100000189583",
          "name": "Brandy Branch Generating Station",
          "city": "Jacksonville",
          "address": "15701 West Beaver Street",
          "lat_fac": null,
          "lon_fac": null,
          "names_prev": [],
          "sub_last": {
            "id": 1000083145,
            "date_val": "2021-12-02",
            "date_dereg": null,
            "lat_sub": "30.32055",
            "lon_sub": "-81.94861",
            "lat_frs": null,
            "lon_frs": null,
            "num_accidents": null,
            "latest_accident": null
          }
        },
        {
          "EPAFacilityID": "100000044098",
          "name": "Brenntag Mid-South, Inc.",
          "city": "Jacksonville",
          "address": "2940 West 45th ST",
          "lat_fac": 30.36863,
          "lon_fac": -81.7133,
          "names_prev": [
            "P. B. & S. CHEMICAL COMPANY, INC. (31)"
          ],
          "sub_last": {
            "id": 23405,
            "date_val": "2001-05-04",
            "date_dereg": "2002-02-22",
            "lat_sub": "30.36",
            "lon_sub": "-81.74",
            "lat_frs": 30.36863,
            "lon_frs": -81.7133,
            "num_accidents": 1,
            "latest_accident": "2000-05-24"
          }
        },
        {
          "EPAFacilityID": "100000239707",
          "name": "Buckeye Jacksonville Rail",
          "city": "Jacksonville",
          "address": "10201 Eastport Road",
          "lat_fac": null,
          "lon_fac": null,
          "names_prev": [],
          "sub_last": {
            "id": 1000073040,
            "date_val": "2019-12-16",
            "date_dereg": null,
            "lat_sub": "30.441117",
            "lon_sub": "-81.604388",
            "lat_frs": null,
            "lon_frs": null,
            "num_accidents": null,
            "latest_accident": null
          }
        },
        {
          "EPAFacilityID": "100000143481",
          "name": "Buckman Water Reclamation Facility",
          "city": "Jacksonville",
          "address": "2221 Buckman Street",
          "lat_fac": 30.35231,
          "lon_fac": -81.62897,
          "names_prev": [],
          "sub_last": {
            "id": 13523,
            "date_val": "1999-07-20",
            "date_dereg": "2001-12-04",
            "lat_sub": "30.352222",
            "lon_sub": "-81.628333",
            "lat_frs": 30.35231,
            "lon_frs": -81.62897,
            "num_accidents": null,
            "latest_accident": null
          }
        },
        {
          "EPAFacilityID": "100000189841",
          "name": "Burris Logistics - Jacksonville",
          "city": "Jacksonville",
          "address": "4501 Dignan Street",
          "lat_fac": null,
          "lon_fac": null,
          "names_prev": [
            "Burris Refrigerated Logistics",
            "Burris Refrigerated Logistics - Jacksonville"
          ],
          "sub_last": {
            "id": 1000097772,
            "date_val": "2021-11-19",
            "date_dereg": null,
            "lat_sub": "30.325303",
            "lon_sub": "-081.723244",
            "lat_frs": null,
            "lon_frs": null,
            "num_accidents": null,
            "latest_accident": null
          }
        },
        {
          "EPAFacilityID": "100000173117",
          "name": "C&S Wholesale Services, Inc. - Baldwin",
          "city": "Jacksonville",
          "address": "15500 West Beaver Street",
          "lat_fac": null,
          "lon_fac": null,
          "names_prev": [
            "Baldwin Distribution Center",
            "New Jacksonville Warehouse"
          ],
          "sub_last": {
            "id": 1000080263,
            "date_val": "2021-03-15",
            "date_dereg": null,
            "lat_sub": "30.300186",
            "lon_sub": "-81.943767",
            "lat_frs": null,
            "lon_frs": null,
            "num_accidents": null,
            "latest_accident": null
          }
        },
        {
          "EPAFacilityID": "100000103577",
          "name": "Cedar Bay Generating Plant",
          "city": "Jacksonville",
          "address": "9640 Eastport Road \u2022 P.O. Box 26324",
          "lat_fac": 30.42142,
          "lon_fac": -81.60697,
          "names_prev": [
            "Cedar Bay Generating Facility"
          ],
          "sub_last": {
            "id": 1000047428,
            "date_val": "2014-11-12",
            "date_dereg": "2016-09-06",
            "lat_sub": "30.422165",
            "lon_sub": "-81.607008",
            "lat_frs": 30.42142,
            "lon_frs": -81.60697,
            "num_accidents": null,
            "latest_accident": null
          }
        },
        {
          "EPAFacilityID": "100000230715",
          "name": "Center Point Terminal J&W, LLC",
          "city": "Jacksonville",
          "address": "3117 Talleyrand Ave.",
          "lat_fac": null,
          "lon_fac": null,
          "names_prev": [],
          "sub_last": {
            "id": 1000076791,
            "date_val": "2019-04-01",
            "date_dereg": null,
            "lat_sub": "30.357981",
            "lon_sub": "-81.623163",
            "lat_frs": null,
            "lon_frs": null,
            "num_accidents": null,
            "latest_accident": null
          }
        },
        {
          "EPAFacilityID": "100000143622",
          "name": "Community Hall Water Treatment Plant",
          "city": "Jacksonville",
          "address": "2935 Orange Pickers Road",
          "lat_fac": 30.14963,
          "lon_fac": -81.6338,
          "names_prev": [],
          "sub_last": {
            "id": 13524,
            "date_val": "1999-07-20",
            "date_dereg": "2003-08-20",
            "lat_sub": "30.150667",
            "lon_sub": "-81.634611",
            "lat_frs": 30.14963,
            "lon_frs": -81.6338,
            "num_accidents": null,
            "latest_accident": null
          }
        },
        {
          "EPAFacilityID": "100000134455",
          "name": "Deerwood 3 Water Treatment Plant",
          "city": "Jacksonville",
          "address": "7587 Southside Boulevard",
          "lat_fac": 30.23175,
          "lon_fac": -81.55216,
          "names_prev": [],
          "sub_last": {
            "id": 12597,
            "date_val": "1999-07-15",
            "date_dereg": "2004-04-13",
            "lat_sub": "30.236028",
            "lon_sub": "-81.551167",
            "lat_frs": 30.23175,
            "lon_frs": -81.55216,
            "num_accidents": null,
            "latest_accident": null
          }
        },
        {
          "EPAFacilityID": "100000144168",
          "name": "District II Water Reclamation Facility",
          "city": "Jacksonville",
          "address": "1840 Cedar Bay Road",
          "lat_fac": 30.42294,
          "lon_fac": -81.61842,
          "names_prev": [],
          "sub_last": {
            "id": 13513,
            "date_val": "1999-07-21",
            "date_dereg": "2002-12-04",
            "lat_sub": "30.423833",
            "lon_sub": "-81.620028",
            "lat_frs": 30.42294,
            "lon_frs": -81.61842,
            "num_accidents": null,
            "latest_accident": null
          }
        },
        {
          "EPAFacilityID": "100000143668",
          "name": "Fairfax Water Treatment Plant",
          "city": "Jacksonville",
          "address": "3020 Fairfax Street",
          "lat_fac": 30.35618,
          "lon_fac": -81.68624,
          "names_prev": [],
          "sub_last": {
            "id": 13526,
            "date_val": "1999-07-20",
            "date_dereg": "2003-08-20",
            "lat_sub": "30.359444",
            "lon_sub": "-81.686944",
            "lat_frs": 30.35618,
            "lon_frs": -81.68624,
            "num_accidents": null,
            "latest_accident": null
          }
        },
        {
          "EPAFacilityID": "100000206387",
          "name": "FEDEX Supply Chain Jacksonville Dist. Center",
          "city": "Jacksonville",
          "address": "12200 Presidents Court",
          "lat_fac": null,
          "lon_fac": null,
          "names_prev": [
            "GENCO Jacksonville Distribution Center"
          ],
          "sub_last": {
            "id": 1000076420,
            "date_val": "2019-03-28",
            "date_dereg": "2021-11-24",
            "lat_sub": "30.36557",
            "lon_sub": "-81.844574",
            "lat_frs": null,
            "lon_frs": null,
            "num_accidents": null,
            "latest_accident": null
          }
        },
        {
          "EPAFacilityID": "100000169042",
          "name": "Firestone Building Products - Jacksonville",
          "city": "Jacksonville",
          "address": "6831 Stuart Avenue",
          "lat_fac": 30.3173,
          "lon_fac": -81.76054,
          "names_prev": [
            "Firestone Building Products-Jacksonville"
          ],
          "sub_last": {
            "id": 1000079864,
            "date_val": "2021-12-07",
            "date_dereg": null,
            "lat_sub": "30.318056",
            "lon_sub": "-081.759722",
            "lat_frs": 30.3173,
            "lon_frs": -81.76054,
            "num_accidents": null,
            "latest_accident": null
          }
        },
        {
          "EPAFacilityID": "100000135347",
          "name": "Hendricks Water Treatment Plant",
          "city": "Jacksonville",
          "address": "1418 King Avenue",
          "lat_fac": 30.3122,
          "lon_fac": -81.65344,
          "names_prev": [],
          "sub_last": {
            "id": 12601,
            "date_val": "1999-07-15",
            "date_dereg": "2003-08-20",
            "lat_sub": "30.310639",
            "lon_sub": "-81.653694",
            "lat_frs": 30.3122,
            "lon_frs": -81.65344,
            "num_accidents": null,
            "latest_accident": null
          }
        },
        {
          "EPAFacilityID": "100000144079",
          "name": "Highlands Water Treatment Plant",
          "city": "Jacksonville",
          "address": "801 Beckner Avenue",
          "lat_fac": 30.42672,
          "lon_fac": -81.65731,
          "names_prev": [],
          "sub_last": {
            "id": 13511,
            "date_val": "1999-07-21",
            "date_dereg": "2004-04-13",
            "lat_sub": "30.426722",
            "lon_sub": "-81.657306",
            "lat_frs": 30.42672,
            "lon_frs": -81.65731,
            "num_accidents": null,
            "latest_accident": null
          }
        },
        {
          "EPAFacilityID": "100000034811",
          "name": "IFF Chemical Holdings Inc",
          "city": "Jacksonville",
          "address": "2051 N. Lane Avenue",
          "lat_fac": 30.34708,
          "lon_fac": -81.75172,
          "names_prev": [
            "IFF Chemical Holdings Inc.",
            "Bush Boake Allen Inc., Jacksonville"
          ],
          "sub_last": {
            "id": 1000069561,
            "date_val": "2018-04-30",
            "date_dereg": null,
            "lat_sub": "30.347778",
            "lon_sub": "-081.752222",
            "lat_frs": 30.34708,
            "lon_frs": -81.75172,
            "num_accidents": null,
            "latest_accident": null
          }
        },
        {
          "EPAFacilityID": "100000219382",
          "name": "Jacksonville (Bruss) Facility",
          "city": "Jacksonville",
          "address": "5441 West 5th St.",
          "lat_fac": null,
          "lon_fac": null,
          "names_prev": [],
          "sub_last": {
            "id": 1000066743,
            "date_val": "2017-11-27",
            "date_dereg": null,
            "lat_sub": "30.343652",
            "lon_sub": "-81.7404905",
            "lat_frs": null,
            "lon_frs": null,
            "num_accidents": null,
            "latest_accident": null
          }
        },
        {
          "EPAFacilityID": "100000050623",
          "name": "Jacksonville-Sunoco LLC",
          "city": "Jacksonville",
          "address": "6531 Evergreen Ave.",
          "lat_fac": 30.37908,
          "lon_fac": -81.63784,
          "names_prev": [
            "NuStar Jacksonville Terminal",
            "ST Services - Jacksonville Terminal",
            "ST Services- Jacksonville Terminal"
          ],
          "sub_last": {
            "id": 1000064767,
            "date_val": "2021-12-13",
            "date_dereg": null,
            "lat_sub": "30.376845",
            "lon_sub": "-081.639725",
            "lat_frs": 30.37908,
            "lon_frs": -81.63784,
            "num_accidents": null,
            "latest_accident": null
          }
        },
        {
          "EPAFacilityID": "100000153193",
          "name": "JCI Jones Chemicals, Inc. - Jacksonville, FL",
          "city": "Jacksonville",
          "address": "1433 Talleyrand Ave.",
          "lat_fac": 30.34067,
          "lon_fac": -81.62995,
          "names_prev": [
            "JCI Jones Chemicals Inc. Jacksonville",
            "JCI Jones Chemicals Inc. - Jacksonville",
            "JCI-Jones Chemicals Inc. Jacksonville Facility"
          ],
          "sub_last": {
            "id": 1000079108,
            "date_val": "2021-09-22",
            "date_dereg": null,
            "lat_sub": "30.340942",
            "lon_sub": "-081.627208",
            "lat_frs": 30.34067,
            "lon_frs": -81.62995,
            "num_accidents": 1,
            "latest_accident": "2021-07-12"
          }
        },
        {
          "EPAFacilityID": "100000178461",
          "name": "Johns Manville",
          "city": "Jacksonville",
          "address": "5510 West 12th Street",
          "lat_fac": 30.35076,
          "lon_fac": -81.7417,
          "names_prev": [],
          "sub_last": {
            "id": 1000093207,
            "date_val": "2021-04-16",
            "date_dereg": null,
            "lat_sub": "30.200000",
            "lon_sub": "-081.741870",
            "lat_frs": 30.35076,
            "lon_frs": -81.7417,
            "num_accidents": null,
            "latest_accident": null
          }
        },
        {
          "EPAFacilityID": "100000143677",
          "name": "Lakeshore Water Treatment Plant",
          "city": "Jacksonville",
          "address": "2113 Hamilton Street",
          "lat_fac": 30.28016,
          "lon_fac": -81.72174,
          "names_prev": [],
          "sub_last": {
            "id": 13527,
            "date_val": "1999-07-20",
            "date_dereg": "2005-01-12",
            "lat_sub": "30.279806",
            "lon_sub": "-81.721667",
            "lat_frs": 30.28016,
            "lon_frs": -81.72174,
            "num_accidents": null,
            "latest_accident": null
          }
        },
        {
          "EPAFacilityID": "100000134348",
          "name": "Lovegrove Water Treatment Plant",
          "city": "Jacksonville",
          "address": "5575 Barker Street",
          "lat_fac": 30.29529,
          "lon_fac": -81.60626,
          "names_prev": [],
          "sub_last": {
            "id": 12595,
            "date_val": "1999-07-15",
            "date_dereg": "2005-01-12",
            "lat_sub": "30.295361",
            "lon_sub": "-81.606361",
            "lat_frs": 30.29529,
            "lon_frs": -81.60626,
            "num_accidents": null,
            "latest_accident": null
          }
        },
        {
          "EPAFacilityID": "100000132885",
          "name": "Main Street Water Treatment Plant",
          "city": "Jacksonville",
          "address": "1000 North Main Street",
          "lat_fac": 30.33535,
          "lon_fac": -81.65502,
          "names_prev": [],
          "sub_last": {
            "id": 12579,
            "date_val": "1999-07-15",
            "date_dereg": "2003-08-20",
            "lat_sub": "30.336111",
            "lon_sub": "-81.656667",
            "lat_frs": 30.33535,
            "lon_frs": -81.65502,
            "num_accidents": null,
            "latest_accident": null
          }
        },
        {
          "EPAFacilityID": "100000143221",
          "name": "Marietta Water Treatment Plant",
          "city": "Jacksonville",
          "address": "201 McCargo Street N.",
          "lat_fac": 30.32565,
          "lon_fac": -81.78144,
          "names_prev": [],
          "sub_last": {
            "id": 13515,
            "date_val": "1999-07-20",
            "date_dereg": "2003-08-20",
            "lat_sub": "30.3255",
            "lon_sub": "-81.780639",
            "lat_frs": 30.32565,
            "lon_frs": -81.78144,
            "num_accidents": null,
            "latest_accident": null
          }
        },
        {
          "EPAFacilityID": "100000143695",
          "name": "McDuff Water Treatment Plant",
          "city": "Jacksonville",
          "address": "1040 South McDuff Avenue",
          "lat_fac": 30.31176,
          "lon_fac": -81.70532,
          "names_prev": [],
          "sub_last": {
            "id": 13528,
            "date_val": "1999-07-20",
            "date_dereg": "2003-08-20",
            "lat_sub": "30.311389",
            "lon_sub": "-81.705722",
            "lat_frs": 30.31176,
            "lon_frs": -81.70532,
            "num_accidents": null,
            "latest_accident": null
          }
        },
        {
          "EPAFacilityID": "100000032421",
          "name": "Naval Air Station - Jacksonville",
          "city": "Jacksonville",
          "address": "6500 Roosevelt. Blvd",
          "lat_fac": 30.23861,
          "lon_fac": -81.90278,
          "names_prev": [],
          "sub_last": {
            "id": 35560,
            "date_val": "2004-08-03",
            "date_dereg": "2006-11-29",
            "lat_sub": "30.236667",
            "lon_sub": "-081.682778",
            "lat_frs": 30.23861,
            "lon_frs": -81.90278,
            "num_accidents": null,
            "latest_accident": null
          }
        },
        {
          "EPAFacilityID": "100000145041",
          "name": "nexAir, LLC- Jacksonville, FL",
          "city": "Jacksonville",
          "address": "150 Stockton Street",
          "lat_fac": 30.32972,
          "lon_fac": -81.69141,
          "names_prev": [
            "Praxair Distribution - Jacksonville, FL"
          ],
          "sub_last": {
            "id": 1000071579,
            "date_val": "2018-07-31",
            "date_dereg": "2021-06-18",
            "lat_sub": "30.329031",
            "lon_sub": "-081.691422",
            "lat_frs": 30.32972,
            "lon_frs": -81.69141,
            "num_accidents": null,
            "latest_accident": null
          }
        },
        {
          "EPAFacilityID": "100000093542",
          "name": "North East Florida Chemical Corporation",
          "city": "Jacksonville",
          "address": "4453 Sunbeam Road",
          "lat_fac": 30.20604,
          "lon_fac": -81.60002,
          "names_prev": [
            "North East Florida Chemical Corp."
          ],
          "sub_last": {
            "id": 1000009164,
            "date_val": "2009-06-23",
            "date_dereg": "2013-06-14",
            "lat_sub": "30.20632",
            "lon_sub": "-081.59949",
            "lat_frs": 30.20604,
            "lon_frs": -81.60002,
            "num_accidents": null,
            "latest_accident": null
          }
        },
        {
          "EPAFacilityID": "100000133839",
          "name": "Northside Generating Station",
          "city": "Jacksonville",
          "address": "4377 Hecksher Drive",
          "lat_fac": 30.41656,
          "lon_fac": -81.55286,
          "names_prev": [
            "Northside Generation Station"
          ],
          "sub_last": {
            "id": 52680,
            "date_val": "2008-10-03",
            "date_dereg": "2012-12-24",
            "lat_sub": "30.416111",
            "lon_sub": "-081.554167",
            "lat_frs": 30.41656,
            "lon_frs": -81.55286,
            "num_accidents": null,
            "latest_accident": null
          }
        },
        {
          "EPAFacilityID": "100000134393",
          "name": "Norwood Water Treatment Plant",
          "city": "Jacksonville",
          "address": "1033 Escambia Street",
          "lat_fac": 30.37436,
          "lon_fac": -81.66887,
          "names_prev": [],
          "sub_last": {
            "id": 12596,
            "date_val": "1999-07-15",
            "date_dereg": "2003-08-20",
            "lat_sub": "30.374861",
            "lon_sub": "-81.669306",
            "lat_frs": 30.37436,
            "lon_frs": -81.66887,
            "num_accidents": null,
            "latest_accident": null
          }
        },
        {
          "EPAFacilityID": "100000132411",
          "name": "Oakridge Water Treatment Plant",
          "city": "Jacksonville",
          "address": "11789 Saints Road",
          "lat_fac": 30.29534,
          "lon_fac": -81.51437,
          "names_prev": [],
          "sub_last": {
            "id": 12574,
            "date_val": "1999-07-15",
            "date_dereg": "2003-08-20",
            "lat_sub": "30.295222",
            "lon_sub": "-81.513917",
            "lat_frs": 30.29534,
            "lon_frs": -81.51437,
            "num_accidents": null,
            "latest_accident": null
          }
        },
        {
          "EPAFacilityID": "100000221244",
          "name": "Omega Partners Jacksonville LLC",
          "city": "Jacksonville",
          "address": "3721 Talleyrand Avenue",
          "lat_fac": null,
          "lon_fac": null,
          "names_prev": [],
          "sub_last": {
            "id": 1000068291,
            "date_val": "2020-10-26",
            "date_dereg": null,
            "lat_sub": "30.361058",
            "lon_sub": "-81.624380",
            "lat_frs": null,
            "lon_frs": null,
            "num_accidents": null,
            "latest_accident": null
          }
        },
        {
          "EPAFacilityID": "100000044604",
          "name": "Publix Super Markets, Inc.-Jacksonville Warehouse",
          "city": "Jacksonville",
          "address": "9800 West Beaver Street",
          "lat_fac": 30.31733,
          "lon_fac": -81.8215,
          "names_prev": [],
          "sub_last": {
            "id": 1000079703,
            "date_val": "2020-11-16",
            "date_dereg": null,
            "lat_sub": "30.313686",
            "lon_sub": "-081.821747",
            "lat_frs": 30.31733,
            "lon_frs": -81.8215,
            "num_accidents": null,
            "latest_accident": null
          }
        },
        {
          "EPAFacilityID": "100000185998",
          "name": "Reddy Ice-Jacksonville (409)",
          "city": "Jacksonville",
          "address": "4671 Edison Avenue",
          "lat_fac": null,
          "lon_fac": null,
          "names_prev": [
            "Reddy Ice-Jacksonville (346)",
            "Reddy Ice #346-Jacksonville"
          ],
          "sub_last": {
            "id": 1000041762,
            "date_val": "2016-09-12",
            "date_dereg": "2019-05-06",
            "lat_sub": "30.322222",
            "lon_sub": "-081.725833",
            "lat_frs": null,
            "lon_frs": null,
            "num_accidents": null,
            "latest_accident": null
          }
        },
        {
          "EPAFacilityID": "100000140509",
          "name": "Ridenour Water Treatment Plant",
          "city": "Jacksonville",
          "address": "102 N. Kernan Blvd",
          "lat_fac": 30.32361,
          "lon_fac": -81.49222,
          "names_prev": [],
          "sub_last": {
            "id": 13221,
            "date_val": "1999-07-19",
            "date_dereg": "2003-08-20",
            "lat_sub": "30.323611",
            "lon_sub": "-81.492222",
            "lat_frs": 30.32361,
            "lon_frs": -81.49222,
            "num_accidents": null,
            "latest_accident": null
          }
        },