{
  "abbr": "MI",
  "name": "Michigan",
  "counties": [
    {
      "fips": "26005",
      "name": "Allegan County",
      "facilities": [
        {
          "EPAFacilityID": "100000118491",
          "name": "CHS Inc. - Hamilton Farm Bureau",
          "city": "Hamilton",
          "address": "4670 East Washington Street",
          "lat_fac": 42.67636,
          "lon_fac": -85.99917,
          "names_prev": [
            "CHS Inc. d/b/a Hamilton Farm Bureau",
            "Hamilton Farm Bureau Cooperative, Inc."
          ],
          "sub_last": {
            "id": 1000044155,
            "date_val": "2014-07-01",
            "date_dereg": "2016-10-13",
            "lat_sub": "42.67563",
            "lon_sub": "-085.998933",
            "lat_frs": 42.67636,
            "lon_frs": -85.99917,
            "num_accidents": null,
            "latest_accident": null
          }
        },
        {
          "EPAFacilityID": "100000189271",
          "name": "Hudsonville Creamery & Ice Cream, LLC",
          "city": "Holland",
          "address": "345 East 48th Street \u2022 Suite 200",
          "lat_fac": null,
          "lon_fac": null,
          "names_prev": [],
          "sub_last": {
            "id": 1000093402,
            "date_val": "2021-04-20",
            "date_dereg": null,
            "lat_sub": "42.755139",
            "lon_sub": "-86.092644",
            "lat_frs": null,
            "lon_frs": null,
            "num_accidents": null,
            "latest_accident": null
          }
        },
        {
          "EPAFacilityID": "100000144765",
          "name": "Sherwin-Williams Company - Holland",
          "city": "Holland",
          "address": "636 E. 40th Street",
          "lat_fac": 42.76209,
          "lon_fac": -86.07917,
          "names_prev": [
            "The Sherwin-Williams Company-Holland"
          ],
          "sub_last": {
            "id": 1000079622,
            "date_val": "2021-10-14",
            "date_dereg": null,
            "lat_sub": "42.761389",
            "lon_sub": "-086.080000",
            "lat_frs": 42.76209,
            "lon_frs": -86.07917,
            "num_accidents": null,
            "latest_accident": null
          }
        },
        {
          "EPAFacilityID": "100000125982",
          "name": "HOPKINS",
          "city": "HOPKINS",
          "address": "303 MILL ST",
          "lat_fac": 46.44877,
          "lon_fac": -90.15115,
          "names_prev": [],
          "sub_last": {
            "id": 12073,
            "date_val": "1999-07-16",
            "date_dereg": "2011-10-06",
            "lat_sub": "42.625583",
            "lon_sub": "-85.763056",
            "lat_frs": 46.44877,
            "lon_frs": -90.15115,
            "num_accidents": null,
            "latest_accident": null
          }
        },
        {
          "EPAFacilityID": "100000070013",
          "name": "Hamilton Farm Bureau Cooperative, Inc. - Martn, MI",
          "city": "Martin",
          "address": "977 118th Avenue",
          "lat_fac": 42.55201,
          "lon_fac": -85.63671,
          "names_prev": [
            "Terra International, Inc.-Martin, MI"
          ],
          "sub_last": {
            "id": 21689,
            "date_val": "2000-08-01",
            "date_dereg": "2007-09-28",
            "lat_sub": "42.553333",
            "lon_sub": "-85.639444",
            "lat_frs": 42.55201,
            "lon_frs": -85.63671,
            "num_accidents": 1,
            "latest_accident": "1996-05-03"
          }
        },
        {
          "EPAFacilityID": "100000117786",
          "name": "JBS Plainwell Beef Processing Facility",
          "city": "Plainwell",
          "address": "PO Box 247 \u2022 11 11th Street",
          "lat_fac": 42.42202,
          "lon_fac": -85.64969,
          "names_prev": [
            "Packerland-Plainwell, Inc.",
            "Murco Foods, Inc."
          ],
          "sub_last": {
            "id": 1000068162,
            "date_val": "2021-01-07",
            "date_dereg": null,
            "lat_sub": "42.4209834",
            "lon_sub": "-085.649933",
            "lat_frs": 42.42202,
            "lon_frs": -85.64969,
            "num_accidents": null,
            "latest_accident": null
          }
        },
        {
          "EPAFacilityID": "100000215304",
          "name": "JBS Plainwell Distribution Center",
          "city": "Plainwell",
          "address": "33 11th Street",
          "lat_fac": null,
          "lon_fac": null,
          "names_prev": [],
          "sub_last": {
            "id": 1000094702,
            "date_val": "2021-07-19",
            "date_dereg": null,
            "lat_sub": "42.42323",
            "lon_sub": "-85.64910",
            "lat_frs": null,
            "lon_frs": null,
            "num_accidents": null,
            "latest_accident": null
          }
        },
        {
          "EPAFacilityID": "100000175918",
          "name": "Linde Gas, LLC - Wayland",
          "city": "Wayland",
          "address": "1146 Morren Court",
          "lat_fac": 42.72667,
          "lon_fac": -85.6575,
          "names_prev": [
            "AGA GAS INC."
          ],
          "sub_last": {
            "id": 44462,
            "date_val": "2005-12-12",
            "date_dereg": "2010-04-26",
            "lat_sub": "42.726667",
            "lon_sub": "-085.657500",
            "lat_frs": 42.72667,
            "lon_frs": -85.6575,
            "num_accidents": null,
            "latest_accident": null
          }
        }
      ]
    },
    {
      "fips": "26011",
      "name": "Arenac County",
      "facilities": [
        {
          "EPAFacilityID": "100000054031",
          "name": "Whitestone Pumping Facility",
          "city": "AuGres",
          "address": "720 N. Huron Road (US-23)",
          "lat_fac": 44.10555,
          "lon_fac": -83.56961,
          "names_prev": [],
          "sub_last": {
            "id": 1000085405,
            "date_val": "2020-02-20",
            "date_dereg": null,
            "lat_sub": "44.105556",
            "lon_sub": "-083.568611",
            "lat_frs": 44.10555,
            "lon_frs": -83.56961,
            "num_accidents": null,
            "latest_accident": null
          }
        }
      ]
    },
    {
      "fips": "26015",
      "name": "Barry County",
      "facilities": [
        {
          "EPAFacilityID": "100000196691",
          "name": "Carbon Green BioEnergy, LLC",
          "city": "Lake Odessa",
          "address": "7795 Saddlebag Lake Road",
          "lat_fac": null,
          "lon_fac": null,
          "names_prev": [
            "VeraSun Woodbury, LLC",
            "US Bio -Woodbury, LLC"
          ],
          "sub_last": {
            "id": 1000046817,
            "date_val": "2014-11-12",
            "date_dereg": "2017-09-29",
            "lat_sub": "42.765800",
            "lon_sub": "-085.078000",
            "lat_frs": null,
            "lon_frs": null,
            "num_accidents": null,
            "latest_accident": null
          }
        },
        {
          "EPAFacilityID": "100000108288",
          "name": "Lake Odessa, MI",
          "city": "Lake Odessa",
          "address": "9260 East Eaton Highway",
          "lat_fac": 42.77024,
          "lon_fac": -85.11653,
          "names_prev": [
            "Caledonia Farmers Elevator Co. Lake Odessa Branch"
          ],
          "sub_last": {
            "id": 1000078161,
            "date_val": "2019-06-04",
            "date_dereg": null,
            "lat_sub": "42.768894",
            "lon_sub": "-085.107224",
            "lat_frs": 42.77024,
            "lon_frs": -85.11653,
            "num_accidents": null,
            "latest_accident": null
          }
        }
      ]
    },
    {
      "fips": "26017",
      "name": "Bay County",
      "facilities": [
        {
          "EPAFacilityID": "100000110612",
          "name": "Auburn Fertilizer Division",
          "city": "Bay City",
          "address": "4640 Seven Mile Road",
          "lat_fac": 43.60668,
          "lon_fac": -84.03176,
          "names_prev": [],
          "sub_last": {
            "id": 1000009824,
            "date_val": "2009-07-14",
            "date_dereg": "2015-01-06",
            "lat_sub": "43.599972",
            "lon_sub": "-84.031944",
            "lat_frs": 43.60668,
            "lon_frs": -84.03176,
            "num_accidents": null,
            "latest_accident": null
          }
        },
        {
          "EPAFacilityID": "100000151943",
          "name": "Bay Metro Water Treatment Plant",
          "city": "Bay City",
          "address": "2691 N. Euclid Rd.",
          "lat_fac": 43.66101,
          "lon_fac": -83.91233,
          "names_prev": [],
          "sub_last": {
            "id": 1000024179,
            "date_val": "2011-11-09",
            "date_dereg": "2016-09-23",
            "lat_sub": "43.660833",
            "lon_sub": "-083.910500",
            "lat_frs": 43.66101,
            "lon_frs": -83.91233,
            "num_accidents": null,
            "latest_accident": null
          }
        },
        {
          "EPAFacilityID": "100000062674",
          "name": "CITY OF BAY CITY WASTWATER PLANT",
          "city": "BAY CITY",
          "address": "2905 NORTH WATER",
          "lat_fac": 43.60874,
          "lon_fac": -83.8697,
          "names_prev": [],
          "sub_last": {
            "id": 4922,
            "date_val": "1999-06-29",
            "date_dereg": "2005-11-22",
            "lat_sub": "43.538889",
            "lon_sub": "-83.869444",
            "lat_frs": 43.60874,
            "lon_frs": -83.8697,
            "num_accidents": null,
            "latest_accident": null
          }
        },
        {
          "EPAFacilityID": "100000196879",
          "name": "Monitor 11",
          "city": "Bay City",
          "address": "3900 3 Mile Road",
          "lat_fac": null,
          "lon_fac": null,
          "names_prev": [],
          "sub_last": {
            "id": 1000059418,
            "date_val": "2016-09-07",
            "date_dereg": "2021-08-02",
            "lat_sub": "43.626722",
            "lon_sub": "-083.953889",
            "lat_frs": null,
            "lon_frs": null,
            "num_accidents": null,
            "latest_accident": null
          }
        },
        {
          "EPAFacilityID": "100000042232",
          "name": "Monitor Sugar Company",
          "city": "Bay City",
          "address": "2600 S. Euclid Ave",
          "lat_fac": 43.57646,
          "lon_fac": -83.91609,
          "names_prev": [],
          "sub_last": {
            "id": 3355,
            "date_val": "1999-06-18",
            "date_dereg": "2000-04-18",
            "lat_sub": "43.574722",
            "lon_sub": "-83.968889",
            "lat_frs": 43.57646,
            "lon_frs": -83.91609,
            "num_accidents": 1,
            "latest_accident": "1998-11-12"
          }
        },
        {
          "EPAFacilityID": "100000222528",
          "name": "MPLX Terminals LLC - Bay City LP Terminal",
          "city": "Bay City",
          "address": "1806 Marquette Street",
          "lat_fac": null,
          "lon_fac": null,
          "names_prev": [],
          "sub_last": {
            "id": 1000071619,
            "date_val": "2019-10-14",
            "date_dereg": null,
            "lat_sub": "43.616697",
            "lon_sub": "-83.865028",
            "lat_frs": null,
            "lon_frs": null,
            "num_accidents": null,
            "latest_accident": null
          }
        },
        {
          "EPAFacilityID": "100000116055",
          "name": "West Bay County Department of Water/Sewer",
          "city": "Bay City",
          "address": "3933 Patterson Rd",
          "lat_fac": 43.62539,
          "lon_fac": -83.87428,
          "names_prev": [],
          "sub_last": {
            "id": 1000081487,
            "date_val": "2019-07-25",
            "date_dereg": null,
            "lat_sub": "43.632500",
            "lon_sub": "-083.870139",
            "lat_frs": 43.62539,
            "lon_frs": -83.87428,
            "num_accidents": null,
            "latest_accident": null
          }
        },
        {
          "EPAFacilityID": "100000098618",
          "name": "Linwood, MI 877",
          "city": "Linwood",
          "address": "975 East Linwood Road",
          "lat_fac": 43.73872,
          "lon_fac": -84.00845,
          "names_prev": [
            "Linwood, MI",
            "Crop Production Services"
          ],
          "sub_last": {
            "id": 55156,
            "date_val": "2010-10-20",
            "date_dereg": "2013-09-19",
            "lat_sub": "43.738889",
            "lon_sub": "-084.007861",
            "lat_frs": 43.73872,
            "lon_frs": -84.00845,
            "num_accidents": null,
            "latest_accident": null
          }
        },
        {
          "EPAFacilityID": "100000090634",
          "name": "Munger, MI 871",
          "city": "Munger",
          "address": "107 S Farley Road",
          "lat_fac": 43.56145,
          "lon_fac": -83.75887,
          "names_prev": [
            "Munger, MI",
            "Crop Production Services"
          ],
          "sub_last": {
            "id": 49448,
            "date_val": "2007-08-24",
            "date_dereg": "2009-05-08",
            "lat_sub": "43.562194",
            "lon_sub": "-083.758361",
            "lat_frs": 43.56145,
            "lon_frs": -83.75887,
            "num_accidents": null,
            "latest_accident": null
          }
        },
        {
          "EPAFacilityID": "100000196851",
          "name": "Fraser 8",
          "city": "Pinconning",
          "address": "745 E Erickson Road",
          "lat_fac": null,
          "lon_fac": null,
          "names_prev": [],
          "sub_last": {
            "id": 1000023723,
            "date_val": "2016-03-15",
            "date_dereg": "2016-08-08",
            "lat_sub": "43.797611",
            "lon_sub": "-084.017722",
            "lat_frs": null,
            "lon_frs": null,
            "num_accidents": null,
            "latest_accident": null
          }
        }
      ]
    },
    {
      "fips": "26021",
      "name": "Berrien County",
      "facilities": [
        {
          "EPAFacilityID": "100000145381",
          "name": "Amboy of Michigan L.L.C.",
          "city": "Benton Harbor",
          "address": "248 Ninth Street",
          "lat_fac": 42.11402,
          "lon_fac": -86.45907,
          "names_prev": [],
          "sub_last": {
            "id": 13756,
            "date_val": "1999-07-22",
            "date_dereg": "2004-06-08",
            "lat_sub": "42.115278",
            "lon_sub": "86.453611",
            "lat_frs": 42.11402,
            "lon_frs": -86.45907,
            "num_accidents": null,
            "latest_accident": null
          }
        },
        {
          "EPAFacilityID": "100000123065",
          "name": "Lake Township Water System",
          "city": "Bridgman",
          "address": "8351 Red Arrow Highway",
          "lat_fac": 41.96815,
          "lon_fac": -86.54874,
          "names_prev": [],
          "sub_last": {
            "id": 38096,
            "date_val": "2004-08-20",
            "date_dereg": "2009-03-23",
            "lat_sub": "42.243655",
            "lon_sub": "-086.222816",
            "lat_frs": 41.96815,
            "lon_frs": -86.54874,
            "num_accidents": null,
            "latest_accident": null
          }
        },
        {
          "EPAFacilityID": "100000108625",
          "name": "Buchanan  Agronomy",
          "city": "Buchanan",
          "address": "16724 Bakertown Road",
          "lat_fac": 41.82136,
          "lon_fac": -86.38752,
          "names_prev": [
            "LaPorte Co. Farm Bureau Coop, Buchanan NH3"
          ],
          "sub_last": {
            "id": 1000080832,
            "date_val": "2019-07-16",
            "date_dereg": null,
            "lat_sub": "41.815223",
            "lon_sub": "-086.388885",
            "lat_frs": 41.82136,
            "lon_frs": -86.38752,
            "num_accidents": null,
            "latest_accident": null
          }
        },
        {
          "EPAFacilityID": "100000226855",
          "name": "Buckeye Terminals, LLC - Niles Terminal",
          "city": "Niles",
          "address": "2303 South 3rd Street",
          "lat_fac": null,
          "lon_fac": null,
          "names_prev": [],
          "sub_last": {
            "id": 1000081425,
            "date_val": "2019-08-26",
            "date_dereg": null,
            "lat_sub": "41.785932",
            "lon_sub": "-86.256395",
            "lat_frs": null,
            "lon_frs": null,
            "num_accidents": null,
            "latest_accident": null
          }
        },
        {
          "EPAFacilityID": "100000070772",
          "name": "City of Niles, MI Wastewater Treatment Plant",
          "city": "Niles",
          "address": "21 Marmont Street",
          "lat_fac": 41.82985,
          "lon_fac": -86.25592,
          "names_prev": [],
          "sub_last": {
            "id": 1000012804,
            "date_val": "2010-03-03",
            "date_dereg": "2010-09-27",
            "lat_sub": "41.839361",
            "lon_sub": "-086.265083",
            "lat_frs": 41.82985,
            "lon_frs": -86.25592,
            "num_accidents": null,
            "latest_accident": null
          }
        },
        {
          "EPAFacilityID": "100000238888",
          "name": "MPLX Niles LP Terminal",
          "city": "Niles",
          "address": "2140 South Third Street",
          "lat_fac": null,
          "lon_fac": null,
          "names_prev": [
            "MPLX Niles North LP Terminal"
          ],
          "sub_last": {
            "id": 1000089445,
            "date_val": "2021-07-20",
            "date_dereg": null,
            "lat_sub": "41.789736",
            "lon_sub": "-86.256061",
            "lat_frs": null,
            "lon_frs": null,
            "num_accidents": null,
            "latest_accident": null
          }
        },
        {
          "EPAFacilityID": "100000105236",
          "name": "BENTON HARBOR-ST.  JOSEPH JOINT WWTP",
          "city": "SAINT JOSEPH",
          "address": "269  ANCHORS WAY",
          "lat_fac": 42.10371,
          "lon_fac": -86.47121,
          "names_prev": [],
          "sub_last": {
            "id": 35048,
            "date_val": "2004-07-29",
            "date_dereg": "2009-04-14",
            "lat_sub": "42.192900",
            "lon_sub": "-086.470133",
            "lat_frs": 42.10371,
            "lon_frs": -86.47121,
            "num_accidents": null,
            "latest_accident": null
          }
        },
        {
          "EPAFacilityID": "100000052934",
          "name": "Agrilink Foods - Sodus",
          "city": "Sodus",
          "address": "4125 South Pipestone Road",
          "lat_fac": 42.05105,
          "lon_fac": -86.38299,
          "names_prev": [],
          "sub_last": {
            "id": 4231,
            "date_val": "1999-06-24",
            "date_dereg": "1999-12-20",
            "lat_sub": "42.043056",
            "lon_sub": "-86.368611",
            "lat_frs": 42.05105,
            "lon_frs": -86.38299,
            "num_accidents": null,
            "latest_accident": null
          }
        },
        {
          "EPAFacilityID": "100000101196",
          "name": "Hanson Cold Storage Co. - Benton Harbor Division",
          "city": "Sodus",
          "address": "2875 South Pipestone Road",
          "lat_fac": 42.06687,
          "lon_fac": -86.41541,
          "names_prev": [],
          "sub_last": {
            "id": 1000078339,
            "date_val": "2021-11-03",
            "date_dereg": null,
            "lat_sub": "42.065556",
            "lon_sub": "-086.399167",
            "lat_frs": 42.06687,
            "lon_frs": -86.41541,
            "num_accidents": null,
            "latest_accident": null
          }
        },
        {
          "EPAFacilityID": "100000106949",
          "name": "City of Benton Harbor Water Plant",
          "city": "St. Joseph",
          "address": "601 North Ridgeway",
          "lat_fac": 42.12367,
          "lon_fac": -86.47483,
          "names_prev": [],
          "sub_last": {
            "id": 1000015590,
            "date_val": "2010-10-19",
            "date_dereg": "2016-06-14",
            "lat_sub": "42.123889",
            "lon_sub": "-086.474444",
            "lat_frs": 42.12367,
            "lon_frs": -86.47483,
            "num_accidents": null,
            "latest_accident": null
          }
        },
        {
          "EPAFacilityID": "100000095489",
          "name": "St. Joseph Water Filtration Plant",
          "city": "St. Joseph",
          "address": "1701 Lions Park Drive",
          "lat_fac": 42.09978,
          "lon_fac": -86.49245,
          "names_prev": [
            "ST.  JOSEPH WATER FILTRATION PLANT"
          ],
          "sub_last": {
            "id": 1000050825,
            "date_val": "2015-07-22",
            "date_dereg": "2020-02-20",
            "lat_sub": "42.055640",
            "lon_sub": "-086.293600",
            "lat_frs": 42.09978,
            "lon_frs": -86.49245,
            "num_accidents": null,
            "latest_accident": null
          }
        }
      ]
    },
    {
      "fips": "26023",
      "name": "Branch County",
      "facilities": [
        {
          "EPAFacilityID": "100000087069",
          "name": "CBPU Waste Water Treatment Plant",
          "city": "Coldwater",
          "address": "100 Jay St.",
          "lat_fac": 41.93944,
          "lon_fac": -85.01694,
          "names_prev": [],
          "sub_last": {
            "id": 6960,
            "date_val": "1999-07-02",
            "date_dereg": "2004-06-28",
            "lat_sub": "41.939444",
            "lon_sub": "-85.016944",
            "lat_frs": 41.93944,
            "lon_frs": -85.01694,
            "num_accidents": null,
            "latest_accident": null
          }
        },
        {
          "EPAFacilityID": "100000091731",
          "name": "CBPU Water Treatment Plant",
          "city": "Coldwater",
          "address": "75 N. Waterworks Park Drive",
          "lat_fac": 41.93361,
          "lon_fac": -84.99278,
          "names_prev": [],
          "sub_last": {
            "id": 1000095742,
            "date_val": "2021-11-16",
            "date_dereg": null,
            "lat_sub": "41.933611",
            "lon_sub": "-084.992778",
            "lat_frs": 41.93361,
            "lon_frs": -84.99278,
            "num_accidents": null,
            "latest_accident": null
          }
        },
        {
          "EPAFacilityID": "100000235079",
          "name": "Clemens Food Group, LLC",
          "city": "Coldwater",
          "address": "572 Newton Road",
          "lat_fac": null,
          "lon_fac": null,
          "names_prev": [],
          "sub_last": {
            "id": 1000069684,
            "date_val": "2018-05-09",
            "date_dereg": null,
            "lat_sub": "41.973569",
            "lon_sub": "-84.966854",
            "lat_frs": null,
            "lon_frs": null,
            "num_accidents": null,
            "latest_accident": null
          }
        },
        {
          "EPAFacilityID": "100000142776",
          "name": "Coldwater Crop Center",
          "city": "Coldwater",
          "address": "220 East Garfield",
          "lat_fac": 41.92723,
          "lon_fac": -85.03759,
          "names_prev": [
            "Coldwater Crops Center",
            "STEUBEN COUNTY CO-OP"
          ],
          "sub_last": {
            "id": 1000002176,
            "date_val": "2009-06-15",
            "date_dereg": "2013-12-03",
            "lat_sub": "41.928333",
            "lon_sub": "-085.036111",
            "lat_frs": 41.92723,
            "lon_frs": -85.03759,
            "num_accidents": null,
            "latest_accident": null
          }
        },
        {
          "EPAFacilityID": "100000202201",
          "name": "Real Alloy Recycling, Inc.",
          "city": "Coldwater",
          "address": "267 North Filmore Road",
          "lat_fac": null,
          "lon_fac": null,
          "names_prev": [
            "Aleris Recycling, Inc.",
            "IMCO Recycling of Michigan, LLC"
          ],
          "sub_last": {
            "id": 1000088863,
            "date_val": "2020-07-20",
            "date_dereg": null,
            "lat_sub": "41.922500",
            "lon_sub": "-085.023333",
            "lat_frs": null,
            "lon_frs": null,
            "num_accidents": null,
            "latest_accident": null
          }
        },
        {
          "EPAFacilityID": "100000066439",
          "name": "Real Alloy Specification, LLC",
          "city": "Coldwater",
          "address": "368 W. Garfield Ave",
          "lat_fac": 41.92716,
          "lon_fac": -85.01757,
          "names_prev": [
            "Real Alloy Specification, Inc.",
            "Alchem Aluminum Coldwater Inc."
          ],
          "sub_last": {
            "id": 1000088362,
            "date_val": "2020-07-20",
            "date_dereg": null,
            "lat_sub": "41.927778",
            "lon_sub": "-085.021944",
            "lat_frs": 41.92716,
            "lon_frs": -85.01757,
            "num_accidents": null,
            "latest_accident": null
          }
        },
        {
          "EPAFacilityID": "100000020167",
          "name": "Reading Feed and Grain, Inc., Quincy Branch",
          "city": "Quincy",
          "address": "US Hwy 12 North",
          "lat_fac": 41.95025,
          "lon_fac": -84.86644,
          "names_prev": [],
          "sub_last": {
            "id": 1552,
            "date_val": "1999-06-07",
            "date_dereg": "2004-03-05",
            "lat_sub": "41.95025",
            "lon_sub": "-84.866444",
            "lat_frs": 41.95025,
            "lon_frs": -84.86644,
            "num_accidents": null,
            "latest_accident": null
          }
        },
        {
          "EPAFacilityID": "100000124527",
          "name": "Star of the West Milling Co.",
          "city": "Quincy",
          "address": "14 Church St.",
          "lat_fac": 41.94467,
          "lon_fac": -84.88666,
          "names_prev": [
            "Star of the West Mill Co."
          ],
          "sub_last": {
            "id": 1000092817,
            "date_val": "2021-03-26",
            "date_dereg": null,
            "lat_sub": "41.944922",
            "lon_sub": "-084.885561",
            "lat_frs": 41.94467,
            "lon_frs": -84.88666,
            "num_accidents": null,
            "latest_accident": null
          }
        },
        {
          "EPAFacilityID": "100000169818",
          "name": "Union City North Farm Center",
          "city": "Union City",
          "address": "1303 Arbogast Rd.",
          "lat_fac": 42.06853,
          "lon_fac": -85.15972,
          "names_prev": [],
          "sub_last": {
            "id": 22671,
            "date_val": "2001-02-02",
            "date_dereg": "2004-05-24",
            "lat_sub": "42.068528",
            "lon_sub": "-85.159722",
            "lat_frs": 42.06853,
            "lon_frs": -85.15972,
            "num_accidents": null,
            "latest_accident": null
          }
        },
        {
          "EPAFacilityID": "100000059429",
          "name": "Union City South Farm Center",
          "city": "Union City",
          "address": "505 Railroad Street",
          "lat_fac": 42.05856,
          "lon_fac": -85.13656,
          "names_prev": [],
          "sub_last": {
            "id": 4741,
            "date_val": "1999-06-24",
            "date_dereg": "2000-05-30",
            "lat_sub": "42.058556",
            "lon_sub": "-85.136556",
            "lat_frs": 42.05856,
            "lon_frs": -85.13656,
            "num_accidents": null,
            "latest_accident": null
          }
        }
      ]
    },
    {
      "fips": "26025",
      "name": "Calhoun County",
      "facilities": [
        {
          "EPAFacilityID": "100000059116",
          "name": "Albion Farm Center",
          "city": "Albion",
          "address": "26193 W. Michigan Ave.",
          "lat_fac": 42.25936,
          "lon_fac": -84.77919,
          "names_prev": [],
          "sub_last": {
            "id": 4734,
            "date_val": "1999-06-24",
            "date_dereg": "2003-05-06",
            "lat_sub": "42.259361",
            "lon_sub": "-84.779194",
            "lat_frs": 42.25936,
            "lon_frs": -84.77919,
            "num_accidents": null,
            "latest_accident": null
          }
        },
        {
          "EPAFacilityID": "100000197949",
          "name": "Continental Carbonic Products, Inc",
          "city": "Albion",
          "address": "26718 B Drive North",
          "lat_fac": null,
          "lon_fac": null,
          "names_prev": [],
          "sub_last": {
            "id": 1000099886,
            "date_val": "2022-02-23",
            "date_dereg": null,
            "lat_sub": "42.258611",
            "lon_sub": "-084.787722",
            "lat_frs": null,
            "lon_frs": null,
            "num_accidents": 1,
            "latest_accident": "2014-11-03"
          }
        },
        {
          "EPAFacilityID": "100000198582",
          "name": "The Andersons Marathon Holding LLC",
          "city": "Albion",
          "address": "26250 B Drive North",
          "lat_fac": null,
          "lon_fac": null,
          "names_prev": [
            "The Andersons Albion Ethanol, LLC"
          ],
          "sub_last": {
            "id": 1000063380,
            "date_val": "2019-11-05",
            "date_dereg": null,
            "lat_sub": "42.259646",
            "lon_sub": "-084.789726",
            "lat_frs": null,
            "lon_frs": null,
            "num_accidents": null,
            "latest_accident": null
          }
        },
        {
          "EPAFacilityID": "100000188539",
          "name": "Prairie Farms Dairy- Battle Creek",
          "city": "Battle Creek",
          "address": "126 Brady Road",
          "lat_fac": null,
          "lon_fac": null,
          "names_prev": [],
          "sub_last": {
            "id": 1000081121,
            "date_val": "2021-02-09",
            "date_dereg": null,
            "lat_sub": "42.339499",
            "lon_sub": "-085.271679",
            "lat_frs": null,
            "lon_frs": null,
            "num_accidents": null,
            "latest_accident": null
          }
        },
        {
          "EPAFacilityID": "100000037603",
          "name": "Verona Pumping Station",
          "city": "Battle Creek",
          "address": "Verona Pumping Station \u2022 250 Brigden Dr.",
          "lat_fac": 42.34167,
          "lon_fac": -85.14333,
          "names_prev": [],
          "sub_last": {
            "id": 1000048098,
            "date_val": "2014-12-29",
            "date_dereg": "2016-03-15",
            "lat_sub": "42.338806",
            "lon_sub": "-085.144028",
            "lat_frs": 42.34167,
            "lon_frs": -85.14333,
            "num_accidents": null,
            "latest_accident": null
          }
        },
        {
          "EPAFacilityID": "100000056841",
          "name": "Wastewater Treatment Plant",
          "city": "Battle Creek",
          "address": "2000 W. River Rd",
          "lat_fac": 42.34367,
          "lon_fac": -85.26355,
          "names_prev": [],
          "sub_last": {
            "id": 1000081522,
            "date_val": "2020-09-09",
            "date_dereg": null,
            "lat_sub": "42.346315",
            "lon_sub": "-085.267300",
            "lat_frs": 42.34367,
            "lon_frs": -85.26355,
            "num_accidents": null,
            "latest_accident": null
          }
        },
        {
          "EPAFacilityID": "100000229282",
          "name": "Woodworth Inc. Homer",
          "city": "Homer",
          "address": "29753 M-60 East",
          "lat_fac": null,
          "lon_fac": null,
          "names_prev": [],
          "sub_last": {
            "id": 1000050699,
            "date_val": "2020-04-13",
            "date_dereg": null,
            "lat_sub": "42.164197",
            "lon_sub": "-84.715671",
            "lat_frs": null,
            "lon_frs": null,
            "num_accidents": null,
            "latest_accident": null
          }
        }
      ]
    },
    {
      "fips": "26027",
      "name": "Cass County",
      "facilities": [
        {
          "EPAFacilityID": "100000141223",
          "name": "The Mennel Milling Company of Michigan",
          "city": "Dowagiac",
          "address": "301 South Mill Street",
          "lat_fac": 41.9837,
          "lon_fac": -86.10229,
          "names_prev": [
            "Mennel Milling Company of Michigan"
          ],
          "sub_last": {
            "id": 1000049221,
            "date_val": "2020-03-18",
            "date_dereg": null,
            "lat_sub": "41.982981",
            "lon_sub": "-086.10248",
            "lat_frs": 41.9837,
            "lon_frs": -86.10229,
            "num_accidents": null,
            "latest_accident": null
          }
        },
        {
          "EPAFacilityID": "100000110578",
          "name": "Marcellus Agronomy",
          "city": "Marcellus",
          "address": "100 railroad st",
          "lat_fac": 42.02942,
          "lon_fac": -85.808,
          "names_prev": [
            "LaPorte Co. Farm Bureau Coop, Marcellus NH3"
          ],
          "sub_last": {
            "id": 53609,
            "date_val": "2009-02-06",
            "date_dereg": "2009-11-23",
            "lat_sub": "42.028611",
            "lon_sub": "-085.809167",
            "lat_frs": 42.02942,
            "lon_frs": -85.808,
            "num_accidents": null,
            "latest_accident": null
          }
        }
      ]
    },
    {
      "fips": "26033",
      "name": "Chippewa County",
      "facilities": [
        {
          "EPAFacilityID": "100000189805",
          "name": "Kincheloe Terminal Company LLC",
          "city": "Kincheloe",
          "address": "5344 West M-80 Hwy",
          "lat_fac": null,
          "lon_fac": null,
          "names_prev": [
            "Kincheloe Terminal",
            "Kincheloe, Michigan"
          ],
          "sub_last": {
            "id": 1000086043,
            "date_val": "2021-11-04",
            "date_dereg": null,
            "lat_sub": "46.260550",
            "lon_sub": "-084.47653",
            "lat_frs": null,
            "lon_frs": null,
            "num_accidents": null,
            "latest_accident": null
          }
        },
        {
          "EPAFacilityID": "100000110621",
          "name": "Sault Ste. Marie Wastewater Treatment Plant",
          "city": "Sault Ste. Marie",
          "address": "1171 E. Portage Ave.",
          "lat_fac": 46.48927,
          "lon_fac": -84.31334,
          "names_prev": [
            "Sault Ste. Marie Wastewater Treatment Facility"
          ],
          "sub_last": {
            "id": 1000084729,
            "date_val": "2020-01-23",
            "date_dereg": null,
            "lat_sub": "46.491389",
            "lon_sub": "-084.315278",
            "lat_frs": 46.48927,
            "lon_frs": -84.31334,
            "num_accidents": null,
            "latest_accident": null
          }
        },
        {
          "EPAFacilityID": "100000146488",
          "name": "Sault Ste. Marie Water Treatment Facility",
          "city": "Sault Ste. Marie",
          "address": "1634 W. 24th Street",
          "lat_fac": 46.48764,
          "lon_fac": -84.41703,
          "names_prev": [],
          "sub_last": {
            "id": 1000084731,
            "date_val": "2020-01-23",
            "date_dereg": null,
            "lat_sub": "46.487639",
            "lon_sub": "-084.417028",
            "lat_frs": 46.48764,
            "lon_frs": -84.41703,
            "num_accidents": null,
            "latest_accident": null
          }
        }
      ]
    },
    {
      "fips": "26035",
      "name": "Clare County",
      "facilities": [
        {
          "EPAFacilityID": "100000191053",
          "name": "Lear Corporation",
          "city": "Farwell",
          "address": "505 Hoover Street",
          "lat_fac": null,
          "lon_fac": null,
          "names_prev": [
            "Renosol Seating",
            "Renosol Seating, LLC"
          ],
          "sub_last": {
            "id": 1000069424,
            "date_val": "2018-08-09",
            "date_dereg": null,
            "lat_sub": "43.840556",
            "lon_sub": "-084.871111",
            "lat_frs": null,
            "lon_frs": null,
            "num_accidents": null,
            "latest_accident": null
          }
        }
      ]
    },
    {
      "fips": "26037",
      "name": "Clinton County",
      "facilities": [
        {
          "EPAFacilityID": "100000225231",
          "name": "MPLX Terminals LLC - Lansing LP Terminal",
          "city": "Lansing",
          "address": "6300 West Grand River Avenue",
          "lat_fac": null,
          "lon_fac": null,
          "names_prev": [],
          "sub_last": {
            "id": 1000073484,
            "date_val": "2021-07-20",
            "date_dereg": null,
            "lat_sub": "42.783006",
            "lon_sub": "-84.648552",
            "lat_frs": null,
            "lon_frs": null,
            "num_accidents": null,
            "latest_accident": null
          }
        },
        {
          "EPAFacilityID": "100000194032",
          "name": "Michigan Milk Producers Association",
          "city": "Ovid",
          "address": "431 W. Williams Street",
          "lat_fac": null,
          "lon_fac": null,
          "names_prev": [],
          "sub_last": {
            "id": 1000091163,
            "date_val": "2020-12-29",
            "date_dereg": null,
            "lat_sub": "43.006389",
            "lon_sub": "-084.378611",
            "lat_frs": null,
            "lon_frs": null,
            "num_accidents": null,
            "latest_accident": null
          }
        },
        {
          "EPAFacilityID": "100000115421",
          "name": "St Johns, MI 879 Satellite",
          "city": "St Johns",
          "address": "1100 North Forest Hill Road",
          "lat_fac": 43.00306,
          "lon_fac": -84.67998,
          "names_prev": [
            "St Johns, MI 622",
            "St Johns, MI 744",
            "ST JOHNS"
          ],
          "sub_last": {
            "id": 1000091988,
            "date_val": "2021-03-25",
            "date_dereg": "2022-01-19",
            "lat_sub": "43.003420",
            "lon_sub": "-084.679152",
            "lat_frs": 43.00306,
            "lon_frs": -84.67998,
            "num_accidents": null,
            "latest_accident": null
          }
        },
        {
          "EPAFacilityID": "100000245371",
          "name": "MWC, LLC",
          "city": "St. Johns",
          "address": "1640 Technical Drive",
          "lat_fac": null,
          "lon_fac": null,
          "names_prev": [],
          "sub_last": {
            "id": 1000090695,
            "date_val": "2020-11-04",
            "date_dereg": null,
            "lat_sub": "43.019113",
            "lon_sub": "-84.549654",
            "lat_frs": null,
            "lon_frs": null,
            "num_accidents": null,
            "latest_accident": null
          }
        }
      ]
    },
    {
      "fips": "26039",
      "name": "Crawford County",
      "facilities": [
        {
          "EPAFacilityID": "100000161148",
          "name": "DRZ",
          "city": "Grayling",
          "address": "8718 Tangelo Road",
          "lat_fac": 44.55464,
          "lon_fac": -84.7884,
          "names_prev": [
            "Beaver Creek Gas Plant"
          ],
          "sub_last": {
            "id": 1000095943,
            "date_val": "2021-09-07",
            "date_dereg": null,
            "lat_sub": "44.558806",
            "lon_sub": "-084.818444",
            "lat_frs": 44.55464,
            "lon_frs": -84.7884,
            "num_accidents": null,
            "latest_accident": null
          }
        },
        {
          "EPAFacilityID": "100000037505",
          "name": "Georgia-Pacific Chemicals LLC, Beaver Creek Plant",
          "city": "Grayling",
          "address": "4113 Four Mile Road",
          "lat_fac": 44.6076,
          "lon_fac": -84.55309,
          "names_prev": [
            "Georgia-Pacific Resins, Inc., Beaver Creek, MI",
            "Georgia-Pacific Resins, Inc."
          ],
          "sub_last": {
            "id": 1000087595,
            "date_val": "2020-07-15",
            "date_dereg": null,
            "lat_sub": "44.598333",
            "lon_sub": "-084.691667",
            "lat_frs": 44.6076,
            "lon_frs": -84.55309,
            "num_accidents": null,
            "latest_accident": null
          }
        }
      ]
    },
    {
      "fips": "26041",
      "name": "Delta County",
      "facilities": [
        {
          "EPAFacilityID": "100000144453",
          "name": "Escanaba Paper Company",
          "city": "Escanaba",
          "address": "7100 County Road 426",
          "lat_fac": 45.8412,
          "lon_fac": -87.1046,
          "names_prev": [
            "MeadWestvaco - Escanaba Operations",
            "Mead Paper"
          ],
          "sub_last": {
            "id": 1000092386,
            "date_val": "2021-02-11",
            "date_dereg": null,
            "lat_sub": "45.804889",
            "lon_sub": "-087.094361",
            "lat_frs": 45.8412,
            "lon_frs": -87.1046,
            "num_accidents": null,
            "latest_accident": null
          }
        },
        {
          "EPAFacilityID": "100000036828",
          "name": "Rapid River Depropanizer and Storage Facility",
          "city": "Rapid River",
          "address": "10955 U.S. Highway 41",
          "lat_fac": 45.94277,
          "lon_fac": -86.9723,
          "names_prev": [
            "Rapid River Depropanizer"
          ],
          "sub_last": {
            "id": 1000096663,
            "date_val": "2021-10-18",
            "date_dereg": null,
            "lat_sub": "45.943889",
            "lon_sub": "-86.974444",
            "lat_frs": 45.94277,
            "lon_frs": -86.9723,
            "num_accidents": null,
            "latest_accident": null
          }
        }
      ]
    },
    {
      "fips": "26043",
      "name": "Dickinson County",
      "facilities": [
        {
          "EPAFacilityID": "100000046835",
          "name": "Verso Quinnesec Mill",
          "city": "Quinnesec",
          "address": "W6791 U.S. Highway 2",
          "lat_fac": 45.7978,
          "lon_fac": -87.9286,
          "names_prev": [
            "Verso Paper Quinnesec Mill",
            "Quinnesec Mill",
            "International Paper Company-Quinnesec Mill",
            "Champion -  Quinnesec Mill"
          ],
          "sub_last": {
            "id": 1000079621,
            "date_val": "2019-07-18",
            "date_dereg": null,
            "lat_sub": "45.795587",
            "lon_sub": "-87.958358",
            "lat_frs": 45.7978,
            "lon_frs": -87.9286,
            "num_accidents": null,
            "latest_accident": null
          }
        }
      ]
    },
    {
      "fips": "26045",
      "name": "Eaton County",
      "facilities": [
        {
          "EPAFacilityID": "100000152844",
          "name": "Citizens LLC",
          "city": "Charlotte",
          "address": "7758 Otto Road",
          "lat_fac": 42.67994,
          "lon_fac": -84.79843,
          "names_prev": [],
          "sub_last": {
            "id": 1000012391,
            "date_val": "2010-02-02",
            "date_dereg": "2010-02-05",
            "lat_sub": "42.679444",
            "lon_sub": "-84.795833",
            "lat_frs": 42.67994,
            "lon_frs": -84.79843,
            "num_accidents": null,
            "latest_accident": null
          }
        },
        {
          "EPAFacilityID": "100000098422",
          "name": "Lake Odessa, MI 886",
          "city": "Lake Odessa",
          "address": "211 Milbourne Street",
          "lat_fac": 42.76236,
          "lon_fac": -85.07149,
          "names_prev": [
            "Lake Odessa, MI",
            "Crop Production Services"
          ],
          "sub_last": {
            "id": 1000040383,
            "date_val": "2014-06-16",
            "date_dereg": "2015-12-21",
            "lat_sub": "42.762778",
            "lon_sub": "-085.072250",
            "lat_frs": 42.76236,
            "lon_frs": -85.07149,
            "num_accidents": null,
            "latest_accident": null
          }
        },
        {
          "EPAFacilityID": "100000153727",
          "name": "Claude R. Erickson Station",
          "city": "Lansing",
          "address": "3725 South Canal Road \u2022 Post Office Box 13007",
          "lat_fac": 42.70772,
          "lon_fac": -84.66201,
          "names_prev": [
            "Erickson Station"
          ],
          "sub_last": {
            "id": 40778,
            "date_val": "2004-10-18",
            "date_dereg": "2011-07-29",
            "lat_sub": "42.695028",
            "lon_sub": "-084.659500",
            "lat_frs": 42.70772,
            "lon_frs": -84.66201,
            "num_accidents": null,
            "latest_accident": null
          }
        },
        {
          "EPAFacilityID": "100000199377",
          "name": "Meijer Lansing Distribution Facility",
          "city": "Lansing",
          "address": "3405 S. Creyts Road",
          "lat_fac": null,
          "lon_fac": null,
          "names_prev": [
            "Meijer DC 85"
          ],
          "sub_last": {
            "id": 1000095363,
            "date_val": "2021-08-17",
            "date_dereg": null,
            "lat_sub": "42.701770",
            "lon_sub": "-084.635290",
            "lat_frs": null,
            "lon_frs": null,
            "num_accidents": null,
            "latest_accident": null
          }
        },
        {
          "EPAFacilityID": "100000152853",
          "name": "Citizens L.L.C. Vermontville Plant",
          "city": "Vermontville",
          "address": "870 South Main Street",
          "lat_fac": 42.61773,
          "lon_fac": -85.02471,
          "names_prev": [
            "Citizens LLC"
          ],
          "sub_last": {
            "id": 40504,
            "date_val": "2004-09-24",
            "date_dereg": "2011-08-02",
            "lat_sub": "42.616861",
            "lon_sub": "-085.026194",
            "lat_frs": 42.61773,
            "lon_frs": -85.02471,
            "num_accidents": null,
            "latest_accident": null
          }
        }
      ]
    },
    {
      "fips": "26047",
      "name": "Emmet County",
      "facilities": [
        {
          "EPAFacilityID": "100000128435",
          "name": "Petoskey Wastewater Treatment Plant",
          "city": "Petoskey",
          "address": "1000 West Lake Street",
          "lat_fac": 45.37167,
          "lon_fac": -84.97722,
          "names_prev": [],
          "sub_last": {
            "id": 11906,
            "date_val": "1999-07-14",
            "date_dereg": "2003-08-06",
            "lat_sub": "45.371667",
            "lon_sub": "-84.977222",
            "lat_frs": 45.37167,
            "lon_frs": -84.97722,
            "num_accidents": null,
            "latest_accident": null
          }
        }
      ]
    },
    {
      "fips": "26049",
      "name": "Genesee County",
      "facilities": [
        {
          "EPAFacilityID": "100000102998",
          "name": "Country Fresh, LLC - Flint",
          "city": "Flint",
          "address": "609 Chavez Drive",
          "lat_fac": 43.02568,
          "lon_fac": -83.68143,
          "names_prev": [
            "Country Fresh, Flint Division",
            "Country Fresh McDonald  Dairy Division"
          ],
          "sub_last": {
            "id": 54727,
            "date_val": "2009-06-19",
            "date_dereg": "2009-12-04",
            "lat_sub": "43.026471",
            "lon_sub": "-083.681901",
            "lat_frs": 43.02568,
            "lon_frs": -83.68143,
            "num_accidents": null,
            "latest_accident": null
          }
        },
        {
          "EPAFacilityID": "100000067777",
          "name": "Flint Water Pollution Control Facilities",
          "city": "Flint",
          "address": "G-4652 Beecher Road",
          "lat_fac": 43.0316,
          "lon_fac": -83.76857,
          "names_prev": [],
          "sub_last": {
            "id": 1000081720,
            "date_val": "2019-08-07",
            "date_dereg": null,
            "lat_sub": "43.043961",
            "lon_sub": "-083.770119",
            "lat_frs": 43.0316,
            "lon_frs": -83.76857,
            "num_accidents": null,
            "latest_accident": null
          }
        },
        {
          "EPAFacilityID": "100000210372",
          "name": "Woodworth Inc. Flint",
          "city": "Flint",
          "address": "4201 Peir North Blvd.",
          "lat_fac": null,
          "lon_fac": null,
          "names_prev": [],
          "sub_last": {
            "id": 1000089283,
            "date_val": "2020-08-10",
            "date_dereg": null,
            "lat_sub": "43.068745",
            "lon_sub": "-083.766601",
            "lat_frs": null,
            "lon_frs": null,
            "num_accidents": null,
            "latest_accident": null
          }
        },
        {
          "EPAFacilityID": "100000078471",
          "name": "Anthony Ragnone Wastewater Treatment Plant",
          "city": "Montrose",
          "address": "9290 Farrand Road",
          "lat_fac": 43.19113,
          "lon_fac": -83.85905,
          "names_prev": [
            "Anthony Ragnone Waste Water Treatment Plant"
          ],
          "sub_last": {
            "id": 1000074540,
            "date_val": "2018-12-07",
            "date_dereg": null,
            "lat_sub": "43.191389",
            "lon_sub": "-083.864722",
            "lat_frs": 43.19113,
            "lon_frs": -83.85905,
            "num_accidents": null,
            "latest_accident": null
          }
        },
        {
          "EPAFacilityID": "100000122468",
          "name": "Rogers Elevator Co.",
          "city": "Mt Morris",
          "address": "8352 N Vassar Rd",
          "lat_fac": 43.13067,
          "lon_fac": -83.5791,
          "names_prev": [],
          "sub_last": {
            "id": 1000011445,
            "date_val": "2009-10-21",
            "date_dereg": "2010-07-30",
            "lat_sub": "43.130639",
            "lon_sub": "-083.579000",
            "lat_frs": 43.13067,
            "lon_frs": -83.5791,
            "num_accidents": null,
            "latest_accident": null
          }
        }
      ]
    },
    {
      "fips": "26051",
      "name": "Gladwin County",
      "facilities": [
        {
          "EPAFacilityID": "100000216688",
          "name": "South Buckeye 127 CPF",
          "city": "Beaverton",
          "address": "278 Badger Road \u2022 --",
          "lat_fac": null,
          "lon_fac": null,
          "names_prev": [],
          "sub_last": {
            "id": 1000069101,
            "date_val": "2018-04-06",
            "date_dereg": null,
            "lat_sub": "43.901920",
            "lon_sub": "-84.377693",
            "lat_frs": null,
            "lon_frs": null,
            "num_accidents": null,
            "latest_accident": null
          }
        }
      ]
    },
    {
      "fips": "26055",
      "name": "Grand Traverse County",
      "facilities": [
        {
          "EPAFacilityID": "100000185088",
          "name": "Cherry Growers Inc",
          "city": "Grawn",
          "address": "6331 US 31 South",
          "lat_fac": 44.65236,
          "lon_fac": -85.70525,
          "names_prev": [
            "Cherry Growers, Inc"
          ],
          "sub_last": {
            "id": 53854,
            "date_val": "2014-02-07",
            "date_dereg": null,
            "lat_sub": "44.652361",
            "lon_sub": "-085.705250",
            "lat_frs": 44.65236,
            "lon_frs": -85.70525,
            "num_accidents": null,
            "latest_accident": null
          }
        },
        {
          "EPAFacilityID": "100000234757",
          "name": "Peninsula Fruit Exchange",
          "city": "Traverse City",
          "address": "2955 Kroupa Road",
          "lat_fac": null,
          "lon_fac": null,
          "names_prev": [],
          "sub_last": {
            "id": 1000062325,
            "date_val": "2022-01-15",
            "date_dereg": null,
            "lat_sub": "44.9213",
            "lon_sub": "-85.5165",
            "lat_frs": null,
            "lon_frs": null,
            "num_accidents": null,
            "latest_accident": null
          }
        },
        {
          "EPAFacilityID": "100000114404",
          "name": "Sara Lee Frozen Bakery - Traverse City, MI",
          "city": "Traverse City",
          "address": "2314 Sybrandt Road",
          "lat_fac": 44.73555,
          "lon_fac": -85.62186,
          "names_prev": [
            "The Hillshire Brands Company - Traverse City, MI",
            "Sara Lee Bakery- Traverse City",
            "Sara Lee Bakery - Traverse City"
          ],
          "sub_last": {
            "id": 1000087584,
            "date_val": "2020-06-03",
            "date_dereg": null,
            "lat_sub": "44.736632",
            "lon_sub": "-085.621932",
            "lat_frs": 44.73555,
            "lon_frs": -85.62186,
            "num_accidents": 1,
            "latest_accident": "2018-05-18"
          }
        }
      ]
    },
    {
      "fips": "26057",
      "name": "Gratiot County",
      "facilities": [
        {
          "EPAFacilityID": "100000017411",
          "name": "Alma Wastewater Treatment Plant",
          "city": "Alma",
          "address": "1000 Washington",
          "lat_fac": 43.38726,
          "lon_fac": -84.64824,
          "names_prev": [],
          "sub_last": {
            "id": 1000001175,
            "date_val": "2009-05-12",
            "date_dereg": "2013-10-18",
            "lat_sub": "43.387222",
            "lon_sub": "-084.647500",
            "lat_frs": 43.38726,
            "lon_frs": -84.64824,
            "num_accidents": null,
            "latest_accident": null
          }
        },
        {
          "EPAFacilityID": "100000011541",
          "name": "City of Alma Water Treatment Plant",
          "city": "Alma",
          "address": "200 N. Lincoln",
          "lat_fac": 43.37766,
          "lon_fac": -84.66641,
          "names_prev": [],
          "sub_last": {
            "id": 1000034116,
            "date_val": "2013-04-25",
            "date_dereg": "2013-10-18",
            "lat_sub": "43.376944",
            "lon_sub": "-084.666111",
            "lat_frs": 43.37766,
            "lon_frs": -84.66641,
            "num_accidents": null,
            "latest_accident": null
          }
        },
        {
          "EPAFacilityID": "100000149387",
          "name": "TPI Petroleum, Inc.",
          "city": "Alma",
          "address": "1925 E. Superior Street",
          "lat_fac": 43.37889,
          "lon_fac": -84.625,
          "names_prev": [],
          "sub_last": {
            "id": 16836,
            "date_val": "1999-08-27",
            "date_dereg": "2000-02-25",
            "lat_sub": "43.378889",
            "lon_sub": "-84.625",
            "lat_frs": 43.37889,
            "lon_frs": -84.625,
            "num_accidents": 6,
            "latest_accident": "1998-04-30"
          }
        },
        {
          "EPAFacilityID": "100000107671",
          "name": "Breckenridge, MI 874",
          "city": "Breckenridge",
          "address": "8263 N Ransom Road",
          "lat_fac": 43.40812,
          "lon_fac": -84.45767,
          "names_prev": [
            "Breckenridge, MI",
            "Crop Production Services",
            "B&W Co-op, Inc. - Ransom Facility"
          ],
          "sub_last": {
            "id": 55516,
            "date_val": "2009-06-29",
            "date_dereg": "2011-02-03",
            "lat_sub": "43.410667",
            "lon_sub": "-084.452333",
            "lat_frs": 43.40812,
            "lon_frs": -84.45767,
            "num_accidents": null,
            "latest_accident": null
          }
        },
        {
          "EPAFacilityID": "100000247958",
          "name": "Wheeler LPG Terminal",
          "city": "Merrill",
          "address": "11650 E Monroe Rd.",
          "lat_fac": null,
          "lon_fac": null,
          "names_prev": [],
          "sub_last": {
            "id": 1000098722,
            "date_val": "2022-01-10",
            "date_dereg": null,
            "lat_sub": "43.4075120",
            "lon_sub": "-84.3729500",
            "lat_frs": null,
            "lon_frs": null,
            "num_accidents": null,
            "latest_accident": null
          }
        },
        {
          "EPAFacilityID": "100000107653",
          "name": "B&W Co-op, Inc. - North Star Facility",
          "city": "North Star",
          "address": "202 N Railroad",
          "lat_fac": 43.32497,
          "lon_fac": -84.54142,
          "names_prev": [],
          "sub_last": {
            "id": 25698,
            "date_val": "2002-05-13",
            "date_dereg": "2011-06-06",
            "lat_sub": "43.324972",
            "lon_sub": "-84.541417",
            "lat_frs": 43.32497,
            "lon_frs": -84.54142,
            "num_accidents": null,
            "latest_accident": null
          }
        },
        {
          "EPAFacilityID": "100000038666",
          "name": "Klein Farm Services",
          "city": "Perrinton",
          "address": "311 Fulton Street \u2022 PO Box 85",
          "lat_fac": 43.18224,
          "lon_fac": -84.68191,
          "names_prev": [],
          "sub_last": {
            "id": 3107,
            "date_val": "1999-06-17",
            "date_dereg": "2000-01-14",
            "lat_sub": "43.183611",
            "lon_sub": "-84.683611",
            "lat_frs": 43.18224,
            "lon_frs": -84.68191,
            "num_accidents": null,
            "latest_accident": null
          }
        },
        {
          "EPAFacilityID": "100000116439",
          "name": "Pompeii, MI 615",
          "city": "Pompeii",
          "address": "130 S State Street",
          "lat_fac": 44.65501,
          "lon_fac": -83.29684,
          "names_prev": [
            "Pompeii, MI 704",
            "POMPEII"
          ],
          "sub_last": {
            "id": 53401,
            "date_val": "2009-01-14",
            "date_dereg": "2009-07-10",
            "lat_sub": "43.183083",
            "lon_sub": "-084.601500",
            "lat_frs": 44.65501,
            "lon_frs": -83.29684,
            "num_accidents": null,
            "latest_accident": null
          }
        }
      ]
    },
    {
      "fips": "26059",
      "name": "Hillsdale County",
      "facilities": [
        {
          "EPAFacilityID": "100000187077",
          "name": "BEF Foods",
          "city": "Hillsdale",
          "address": "200 N. Wolcott St.",
          "lat_fac": null,
          "lon_fac": null,
          "names_prev": [
            "Bob Evans Farms"
          ],
          "sub_last": {
            "id": 1000077071,
            "date_val": "2021-06-07",
            "date_dereg": null,
            "lat_sub": "41.921722",
            "lon_sub": "-084.616118",
            "lat_frs": null,
            "lon_frs": null,
            "num_accidents": null,
            "latest_accident": null
          }
        },
        {
          "EPAFacilityID": "100000081966",
          "name": "General Mills - Hillsdale",
          "city": "Hillsdale",
          "address": "101 East Bacon Street",
          "lat_fac": 41.92006,
          "lon_fac": -84.63078,
          "names_prev": [
            "The Pillsbury Company - Hillsdale",
            "Kerry Inc. DCA Bakery Division - Hillsdale"
          ],
          "sub_last": {
            "id": 26288,
            "date_val": "2002-06-07",
            "date_dereg": "2004-04-12",
            "lat_sub": "41.920556",
            "lon_sub": "-84.628333",
            "lat_frs": 41.92006,
            "lon_frs": -84.63078,
            "num_accidents": null,
            "latest_accident": null
          }
        },
        {
          "EPAFacilityID": "100000062852",
          "name": "Stoney Point Gas Plant",
          "city": "Jonesville",
          "address": "4445 East Mosherville Road",
          "lat_fac": 42.06573,
          "lon_fac": -84.56617,
          "names_prev": [
            "Whiting Petroleum - Stoney Point Gas Plant",
            "Marathon Oil Company - Stoney Point Gas Plant"
          ],
          "sub_last": {
            "id": 38436,
            "date_val": "2004-08-23",
            "date_dereg": "2009-04-08",
            "lat_sub": "42.065552",
            "lon_sub": "-084.566706",
            "lat_frs": 42.06573,
            "lon_frs": -84.56617,
            "num_accidents": null,
            "latest_accident": null
          }
        },
        {
          "EPAFacilityID": "100000059152",
          "name": "The Andersons Litchfield Farm Center",
          "city": "Litchfield",
          "address": "10900 Homer Road",
          "lat_fac": 42.05792,
          "lon_fac": -84.77531,
          "names_prev": [
            "Litchfield Farm Center"
          ],
          "sub_last": {
            "id": 1000084100,
            "date_val": "2019-12-10",
            "date_dereg": null,
            "lat_sub": "42.057917",
            "lon_sub": "-084.775306",
            "lat_frs": 42.05792,
            "lon_frs": -84.77531,
            "num_accidents": null,
            "latest_accident": null
          }
        },
        {
          "EPAFacilityID": "100000059125",
          "name": "North Adams Farm Center",
          "city": "North Adams",
          "address": "1001 North Adams",
          "lat_fac": 41.96822,
          "lon_fac": -84.45789,
          "names_prev": [],
          "sub_last": {
            "id": 4735,
            "date_val": "1999-06-24",
            "date_dereg": "2003-05-06",
            "lat_sub": "41.968222",
            "lon_sub": "-84.457889",
            "lat_frs": 41.96822,
            "lon_frs": -84.45789,
            "num_accidents": null,
            "latest_accident": null
          }
        },
        {
          "EPAFacilityID": "100000140885",
          "name": "Prattville Fertilizer & Grain, Inc.",
          "city": "Prattville",
          "address": "12755 Kipp Street",
          "lat_fac": 41.78105,
          "lon_fac": -84.40307,
          "names_prev": [],
          "sub_last": {
            "id": 1000076897,
            "date_val": "2019-03-18",
            "date_dereg": null,
            "lat_sub": "41.780740",
            "lon_sub": "-084.403237",
            "lat_frs": 41.78105,
            "lon_frs": -84.40307,
            "num_accidents": null,
            "latest_accident": null
          }
        },
        {
          "EPAFacilityID": "100000121771",
          "name": "Conagra Brands, Inc. - Quincy, MI",
          "city": "Quincy",
          "address": "4551 Squires Road",
          "lat_fac": 41.9945,
          "lon_fac": -84.82644,
          "names_prev": [
            "ConAgra Foods",
            "Armour Swift-Eckrich"
          ],
          "sub_last": {
            "id": 1000089423,
            "date_val": "2020-08-28",
            "date_dereg": null,
            "lat_sub": "41.962014",
            "lon_sub": "-084.821105",
            "lat_frs": 41.9945,
            "lon_frs": -84.82644,
            "num_accidents": null,
            "latest_accident": null
          }
        }
      ]
    },
    {
      "fips": "26061",
      "name": "Houghton County",
      "facilities": [
        {
          "EPAFacilityID": "100000153861",
          "name": "Osmose, Inc.",
          "city": "Hubbell",
          "address": "52430 Duncan Ave (M-26) \u2022 PO Box 399",
          "lat_fac": 47.09584,
          "lon_fac": -88.39346,
          "names_prev": [
            "Peninsula Copper Industries, Inc."
          ],
          "sub_last": {
            "id": 1000045425,
            "date_val": "2014-07-10",
            "date_dereg": "2018-10-17",
            "lat_sub": "47.175000",
            "lon_sub": "-088.441667",
            "lat_frs": 47.09584,
            "lon_frs": -88.39346,
            "num_accidents": null,
            "latest_accident": null
          }
        }
      ]
    },
    {
      "fips": "26063",
      "name": "Huron County",
      "facilities": [
        {
          "EPAFacilityID": "100000069409",
          "name": "Cooperative Elevator Co., Bad Axe, MI Facility",
          "city": "Bad Axe",
          "address": "210 Thompson Road",
          "lat_fac": 43.78801,
          "lon_fac": -82.99335,
          "names_prev": [
            "Terra International,Inc.- Bad Axe, Michigan"
          ],
          "sub_last": {
            "id": 1000041761,
            "date_val": "2014-05-06",
            "date_dereg": "2016-01-04",
            "lat_sub": "43.787857",
            "lon_sub": "-082.991731",
            "lat_frs": 43.78801,
            "lon_frs": -82.99335,
            "num_accidents": null,
            "latest_accident": null
          }
        },
        {
          "EPAFacilityID": "100000063165",
          "name": "Cooperative Elevator Co., Farver Road, MI Facility",
          "city": "Elkton",
          "address": "130 N Farver Road",
          "lat_fac": 43.82044,
          "lon_fac": -83.20081,
          "names_prev": [
            "Terra International, Inc.-Elkton, Michigan"
          ],
          "sub_last": {
            "id": 30699,
            "date_val": "2004-06-25",
            "date_dereg": "2005-04-05",
            "lat_sub": "43.819444",
            "lon_sub": "-083.200000",
            "lat_frs": 43.82044,
            "lon_frs": -83.20081,
            "num_accidents": null,
            "latest_accident": null
          }
        },
        {
          "EPAFacilityID": "100000017974",
          "name": "Elkton Anhydrous Ammonia Site",
          "city": "Elkton",
          "address": "66 Krohn Rd.",
          "lat_fac": 43.81965,
          "lon_fac": -83.16106,
          "names_prev": [],
          "sub_last": {
            "id": 1425,
            "date_val": "1999-06-04",
            "date_dereg": "2001-06-06",
            "lat_sub": "43.813944",
            "lon_sub": "-83.143389",
            "lat_frs": 43.81965,
            "lon_frs": -83.16106,
            "num_accidents": null,
            "latest_accident": null
          }
        },
        {
          "EPAFacilityID": "100000043419",
          "name": "Corteva Agriscience LLC - Harbor Beach, Michigan",
          "city": "Harbor Beach",
          "address": "305 N. Huron",
          "lat_fac": 43.8475,
          "lon_fac": -82.65249,
          "names_prev": [
            "Dow AgroSciences L.L.C., Harbor Beach, Michigan",
            "DowAgroSciences Harbor Beach, Michigan Site"
          ],
          "sub_last": {
            "id": 1000096266,
            "date_val": "2021-09-22",
            "date_dereg": null,
            "lat_sub": "43.846111",
            "lon_sub": "-082.649722",
            "lat_frs": 43.8475,
            "lon_frs": -82.65249,
            "num_accidents": null,
            "latest_accident": null
          }
        },
        {
          "EPAFacilityID": "100000015404",
          "name": "Pigeon Anhydrous Ammonia Site",
          "city": "Pigeon",
          "address": "7837 W. Pigeon Rd",
          "lat_fac": 43.82971,
          "lon_fac": -83.29285,
          "names_prev": [],
          "sub_last": {
            "id": 30698,
            "date_val": "2004-06-25",
            "date_dereg": "2005-04-05",
            "lat_sub": "43.829167",
            "lon_sub": "-083.293056",
            "lat_frs": 43.82971,
            "lon_frs": -83.29285,
            "num_accidents": null,
            "latest_accident": null
          }
        },
        {
          "EPAFacilityID": "100000016877",
          "name": "Cooperative Elevator Co., Ruth, MI Facility",
          "city": "Ruth",
          "address": "4600 S. Ruth Rd",
          "lat_fac": 43.73694,
          "lon_fac": -82.74071,
          "names_prev": [
            "Ruth Anhydrous Ammonia Site"
          ],
          "sub_last": {
            "id": 1000041725,
            "date_val": "2014-05-06",
            "date_dereg": "2019-03-18",
            "lat_sub": "43.712433",
            "lon_sub": "-082.740226",
            "lat_frs": 43.73694,
            "lon_frs": -82.74071,
            "num_accidents": null,
            "latest_accident": null
          }
        },
        {
          "EPAFacilityID": "100000017493",
          "name": "Sebewaing Anhydrous Ammonia Site",
          "city": "Sebewaing",
          "address": "969 East Pine Street",
          "lat_fac": 43.74109,
          "lon_fac": -83.44053,
          "names_prev": [],
          "sub_last": {
            "id": 30704,
            "date_val": "2004-06-25",
            "date_dereg": "2007-06-29",
            "lat_sub": "43.741667",
            "lon_sub": "-083.437500",
            "lat_frs": 43.74109,
            "lon_frs": -83.44053,
            "num_accidents": null,
            "latest_accident": null
          }
        },
        {
          "EPAFacilityID": "100000098903",
          "name": "Ubly, MI 892",
          "city": "Ubly",
          "address": "PO Box 215 \u2022 2332 Main Street",
          "lat_fac": 43.7104,
          "lon_fac": -82.9263,
          "names_prev": [
            "Ubly, MI",
            "Crop Production Services"
          ],
          "sub_last": {
            "id": 55131,
            "date_val": "2009-06-26",
            "date_dereg": "2012-01-24",
            "lat_sub": "43.709944",
            "lon_sub": "-082.925333",
            "lat_frs": 43.7104,
            "lon_frs": -82.9263,
            "num_accidents": null,
            "latest_accident": null
          }
        }
      ]
    },
    {
      "fips": "26065",
      "name": "Ingham County",
      "facilities": [
        {
          "EPAFacilityID": "100000166624",
          "name": "Lindberg Heat Treating Company",
          "city": "Lansing",
          "address": "2127 West Willow Street",
          "lat_fac": 42.74823,
          "lon_fac": -84.57963,
          "names_prev": [],
          "sub_last": {
            "id": 22668,
            "date_val": "2001-02-02",
            "date_dereg": "2009-07-06",
            "lat_sub": "42.74775",
            "lon_sub": "-84.581917",
            "lat_frs": 42.74823,
            "lon_frs": -84.57963,
            "num_accidents": null,
            "latest_accident": null
          }
        },
        {
          "EPAFacilityID": "100000100026",
          "name": "Alexander Chemical Corporation, Mason, MI Facility",
          "city": "Mason",
          "address": "6300 Trillium Trail",
          "lat_fac": 42.42175,
          "lon_fac": -84.60331,
          "names_prev": [],
          "sub_last": {
            "id": 1000060657,
            "date_val": "2016-10-26",
            "date_dereg": "2017-10-03",
            "lat_sub": "42.561145",
            "lon_sub": "-84.439029",
            "lat_frs": 42.42175,
            "lon_frs": -84.60331,
            "num_accidents": 1,
            "latest_accident": "2016-06-06"
          }
        },
        {
          "EPAFacilityID": "100000075152",
          "name": "Aurelius Gas Plant",
          "city": "Mason",
          "address": "3505 Barnes Rd \u2022 N/A",
          "lat_fac": 42.52414,
          "lon_fac": -84.4834,
          "names_prev": [],
          "sub_last": {
            "id": 10979,
            "date_val": "1999-06-30",
            "date_dereg": "2011-09-09",
            "lat_sub": "42.518611",
            "lon_sub": "-84.485",
            "lat_frs": 42.52414,
            "lon_frs": -84.4834,
            "num_accidents": null,
            "latest_accident": null
          }
        },
        {
          "EPAFacilityID": "100000059223",
          "name": "The Andersons Webberville Terminal",
          "city": "Webberville",
          "address": "2690 Stockbridge Road",
          "lat_fac": 42.66556,
          "lon_fac": -84.19597,
          "names_prev": [
            "Webberville Wholesale Terminal"
          ],
          "sub_last": {
            "id": 1000048094,
            "date_val": "2018-05-01",
            "date_dereg": "2019-05-17",
            "lat_sub": "42.665556",
            "lon_sub": "-084.195972",
            "lat_frs": 42.66556,
            "lon_frs": -84.19597,
            "num_accidents": null,
            "latest_accident": null
          }
        },
        {
          "EPAFacilityID": "100000212183",
          "name": "Cremer Farm Center, Inc.",
          "city": "Williamston",
          "address": "1784 Howell Rd.",
          "lat_fac": null,
          "lon_fac": null,
          "names_prev": [],
          "sub_last": {
            "id": 1000052842,
            "date_val": "2016-03-24",
            "date_dereg": "2017-05-02",
            "lat_sub": "42.600558",
            "lon_sub": "-84.288643",
            "lat_frs": null,
            "lon_frs": null,
            "num_accidents": null,
            "latest_accident": null
          }
        }
      ]
    },
    {
      "fips": "26067",
      "name": "Ionia County",
      "facilities": [
        {
          "EPAFacilityID": "100000125198",
          "name": "Cargill Kitchen Solutions",
          "city": "Lake Odessa",
          "address": "3100 Bonanza Rd",
          "lat_fac": 42.79203,
          "lon_fac": -85.13534,
          "names_prev": [
            "Sunny Fresh Foods"
          ],
          "sub_last": {
            "id": 1000086794,
            "date_val": "2022-02-10",
            "date_dereg": null,
            "lat_sub": "42.793350",
            "lon_sub": "-085.135277",
            "lat_frs": 42.79203,
            "lon_frs": -85.13534,
            "num_accidents": null,
            "latest_accident": null
          }
        },
        {
          "EPAFacilityID": "100000110934",
          "name": "Twin City Foods Inc",
          "city": "Lake Odessa",
          "address": "801 Lincoln",
          "lat_fac": 42.78531,
          "lon_fac": -85.14193,
          "names_prev": [
            "Twin City Foods",
            "Twin City Foods Inc., Lake Qdessa Mi. Div.",
            "TWINCITY FOODS INC. LAKE ODESSA,MI. DIV"
          ],
          "sub_last": {
            "id": 1000084071,
            "date_val": "2019-12-09",
            "date_dereg": null,
            "lat_sub": "42.786667",
            "lon_sub": "-085.141667",
            "lat_frs": 42.78531,
            "lon_frs": -85.14193,
            "num_accidents": null,
            "latest_accident": null
          }
        },
        {
          "EPAFacilityID": "100000139496",
          "name": "Muir, MI 744",
          "city": "Muir",
          "address": "175 Railroad Street",
          "lat_fac": 42.99684,
          "lon_fac": -84.94232,
          "names_prev": [
            "MUIR"
          ],
          "sub_last": {
            "id": 46554,
            "date_val": "2006-09-12",
            "date_dereg": "2006-11-22",
            "lat_sub": "42.996611",
            "lon_sub": "-084.942417",
            "lat_frs": 42.99684,
            "lon_frs": -84.94232,
            "num_accidents": null,
            "latest_accident": null
          }
        },
        {
          "EPAFacilityID": "100000080253",
          "name": "Portland, MI 880",
          "city": "Portland",
          "address": "9855 East Grand River",
          "lat_fac": 42.85486,
          "lon_fac": -84.88077,
          "names_prev": [
            "Portland, MI",
            "Crop Production Services"
          ],
          "sub_last": {
            "id": 55008,
            "date_val": "2009-06-26",
            "date_dereg": "2009-11-18",
            "lat_sub": "42.854222",
            "lon_sub": "-084.879861",
            "lat_frs": 42.85486,
            "lon_frs": -84.88077,
            "num_accidents": null,
            "latest_accident": null
          }
        }
      ]
    },
    {
      "fips": "26069",
      "name": "Iosco County",
      "facilities": [
        {
          "EPAFacilityID": "100000112013",
          "name": "Huron Shore Regional Utility Authority",
          "city": "East Tawas",
          "address": "247 Baldwin Resort Road",
          "lat_fac": 44.28923,
          "lon_fac": -83.42266,
          "names_prev": [],
          "sub_last": {
            "id": 1000082002,
            "date_val": "2019-09-25",
            "date_dereg": null,
            "lat_sub": "44.272853",
            "lon_sub": "-083.429056",
            "lat_frs": 44.28923,
            "lon_frs": -83.42266,
            "num_accidents": null,
            "latest_accident": null
          }
        },
        {
          "EPAFacilityID": "100000206163",
          "name": "Reno Central Processing Facility",
          "city": "Whittemore",
          "address": "282 North M-65",
          "lat_fac": null,
          "lon_fac": null,
          "names_prev": [],
          "sub_last": {
            "id": 1000039731,
            "date_val": "2015-08-04",
            "date_dereg": "2018-04-30",
            "lat_sub": "44.268333",
            "lon_sub": "-083.806833",
            "lat_frs": null,
            "lon_frs": null,
            "num_accidents": null,
            "latest_accident": null
          }
        }
      ]
    },
    {
      "fips": "26073",
      "name": "Isabella County",
      "facilities": [
        {
          "EPAFacilityID": "100000126311",
          "name": "BROWN MILLING, INC.",
          "city": "MT. PLEASANT",
          "address": "8731 E. ROSEBUSH RD.",
          "lat_fac": 43.69882,
          "lon_fac": -84.67466,
          "names_prev": [],
          "sub_last": {
            "id": 11975,
            "date_val": "1999-07-14",
            "date_dereg": "2009-04-24",
            "lat_sub": "43.698889",
            "lon_sub": "-84.675389",
            "lat_frs": 43.69882,
            "lon_frs": -84.67466,
            "num_accidents": null,
            "latest_accident": null
          }
        },
        {
          "EPAFacilityID": "100000130011",
          "name": "SUPERIOR FERTILIZER",
          "city": "ROSEBUSH",
          "address": "3761 E.WEIDMAN RD.",
          "lat_fac": 43.68384,
          "lon_fac": -84.76543,
          "names_prev": [],
          "sub_last": {
            "id": 12349,
            "date_val": "1999-07-14",
            "date_dereg": "2006-08-14",
            "lat_sub": "43.683583",
            "lon_sub": "-84.771444",
            "lat_frs": 43.68384,
            "lon_frs": -84.76543,
            "num_accidents": null,
            "latest_accident": null
          }
        }
      ]
    },
    {
      "fips": "26075",
      "name": "Jackson County",
      "facilities": [
        {
          "EPAFacilityID": "100000153344",
          "name": "City of Jackson Water Treatment Plant",
          "city": "Jackson",
          "address": "740 E. Mansion St.",
          "lat_fac": 42.22699,
          "lon_fac": -84.38194,
          "names_prev": [],
          "sub_last": {
            "id": 1000075220,
            "date_val": "2019-01-08",
            "date_dereg": null,
            "lat_sub": "42.229740",
            "lon_sub": "-084.387152",
            "lat_frs": 42.22699,
            "lon_frs": -84.38194,
            "num_accidents": null,
            "latest_accident": null
          }
        },
        {
          "EPAFacilityID": "100000157689",
          "name": "ADCO Products, INC.",
          "city": "Michigan Center",
          "address": "4401 Page Avenue",
          "lat_fac": 42.23423,
          "lon_fac": -84.33405,
          "names_prev": [],
          "sub_last": {
            "id": 1000002735,
            "date_val": "2009-06-09",
            "date_dereg": "2014-04-29",
            "lat_sub": "42.231459",
            "lon_sub": "-084.333744",
            "lat_frs": 42.23423,
            "lon_frs": -84.33405,
            "num_accidents": null,
            "latest_accident": null
          }
        }
      ]
    },
    {
      "fips": "26077",
      "name": "Kalamazoo County",
      "facilities": [
        {
          "EPAFacilityID": "100000015565",
          "name": "Battle Creek Farm Bureau Association",
          "city": "Climax",
          "address": "14325 O.P.  Avenue",
          "lat_fac": 42.22371,
          "lon_fac": -85.34968,
          "names_prev": [],
          "sub_last": {
            "id": 1349,
            "date_val": "1999-06-08",
            "date_dereg": "2003-05-06",
            "lat_sub": "42.223972",
            "lon_sub": "-85.445889",
            "lat_frs": 42.22371,
            "lon_frs": -85.34968,
            "num_accidents": null,
            "latest_accident": null
          }
        },
        {
          "EPAFacilityID": "100000019482",
          "name": "Allnex USA Inc.",
          "city": "Kalamazoo",
          "address": "2715 Miller Road",
          "lat_fac": 42.26662,
          "lon_fac": -85.54579,
          "names_prev": [
            "Cytec Kalamazoo, Michigan Plant"
          ],
          "sub_last": {
            "id": 1000085422,
            "date_val": "2020-03-20",
            "date_dereg": null,
            "lat_sub": "42.269722",
            "lon_sub": "-085.545556",
            "lat_frs": 42.26662,
            "lon_frs": -85.54579,
            "num_accidents": null,
            "latest_accident": null
          }
        },
        {
          "EPAFacilityID": "100000207064",
          "name": "Haviland Products Company - Kalamazoo",
          "city": "Kalamazoo",
          "address": "2722 North Burdick",
          "lat_fac": null,
          "lon_fac": null,
          "names_prev": [],
          "sub_last": {
            "id": 1000089592,
            "date_val": "2020-09-15",
            "date_dereg": null,
            "lat_sub": "42.31932",
            "lon_sub": "-85.58381",
            "lat_frs": null,
            "lon_frs": null,
            "num_accidents": null,
            "latest_accident": null
          }
        },
        {
          "EPAFacilityID": "100000029024",
          "name": "Kalamazoo Water Reclamation Plant",
          "city": "Kalamazoo",
          "address": "1415 N. Harrison",
          "lat_fac": 42.30389,
          "lon_fac": -85.57322,
          "names_prev": [],
          "sub_last": {
            "id": 38292,
            "date_val": "2004-08-23",
            "date_dereg": "2009-07-10",
            "lat_sub": "42.306389",
            "lon_sub": "-085.573056",
            "lat_frs": 42.30389,
            "lon_frs": -85.57322,
            "num_accidents": null,
            "latest_accident": null
          }
        },
        {
          "EPAFacilityID": "100000098967",
          "name": "Pharmacia & Upjohn (P&U) - KAPI and EMU",
          "city": "Kalamazoo",
          "address": "7000 Portage Road",
          "lat_fac": 42.21513,
          "lon_fac": -85.56042,
          "names_prev": [
            "Pharmacia & Upjohn - KAPI and EMU"
          ],
          "sub_last": {
            "id": 1000064121,
            "date_val": "2019-06-17",
            "date_dereg": null,
            "lat_sub": "42.210111",
            "lon_sub": "-085.552194",
            "lat_frs": 42.21513,
            "lon_frs": -85.56042,
            "num_accidents": null,
            "latest_accident": null
          }
        },
        {
          "EPAFacilityID": "100000002043",
          "name": "Ryder Integrated Logistics Inc.",
          "city": "Kalamazoo",
          "address": "6805 Beatrice Dr.",
          "lat_fac": 42.24031,
          "lon_fac": -85.68523,
          "names_prev": [
            "TLC LLC Kalamazoo Logistic Center II",
            "TLC LLC KALAMAZOO LOGISTIC CENTER 2"
          ],
          "sub_last": {
            "id": 1000039899,
            "date_val": "2014-04-09",
            "date_dereg": "2014-09-03",
            "lat_sub": "42.240278",
            "lon_sub": "-085.683889",
            "lat_frs": 42.24031,
            "lon_frs": -85.68523,
            "num_accidents": null,
            "latest_accident": null
          }
        },
        {
          "EPAFacilityID": "100000002052",
          "name": "TLC LLC Kalamazoo Logistic Center I",
          "city": "Kalamazoo",
          "address": "6677 Beatrice Dr.",
          "lat_fac": 42.24031,
          "lon_fac": -85.68362,
          "names_prev": [
            "TLC LLC KALAMAZOO LOGISTIC CENTER 1"
          ],
          "sub_last": {
            "id": 1000000688,
            "date_val": "2009-04-29",
            "date_dereg": "2010-07-09",
            "lat_sub": "42.205556",
            "lon_sub": "-085.679722",
            "lat_frs": 42.24031,
            "lon_frs": -85.68362,
            "num_accidents": null,
            "latest_accident": null
          }
        },
        {
          "EPAFacilityID": "100000087817",
          "name": "Water Station # 25",
          "city": "Kalamazoo",
          "address": "7275 East H. Ave",
          "lat_fac": 42.31734,
          "lon_fac": -85.49896,
          "names_prev": [],
          "sub_last": {
            "id": 33356,
            "date_val": "2004-07-20",
            "date_dereg": "2010-05-13",
            "lat_sub": "42.318944",
            "lon_sub": "-085.486667",
            "lat_frs": 42.31734,
            "lon_frs": -85.49896,
            "num_accidents": null,
            "latest_accident": null
          }
        },
        {
          "EPAFacilityID": "100000087675",
          "name": "Water Station # 9",
          "city": "Kalamazoo",
          "address": "813 West Kilgore Road",
          "lat_fac": 42.2446,
          "lon_fac": -85.5951,
          "names_prev": [],
          "sub_last": {
            "id": 33353,
            "date_val": "2004-07-20",
            "date_dereg": "2009-07-09",
            "lat_sub": "42.243361",
            "lon_sub": "-085.594472",
            "lat_frs": 42.2446,
            "lon_frs": -85.5951,
            "num_accidents": null,
            "latest_accident": null
          }
        },
        {
          "EPAFacilityID": "100000087149",
          "name": "Water Station #1",
          "city": "Kalamazoo",
          "address": "215 W. Stockbridge Ave",
          "lat_fac": 42.27708,
          "lon_fac": -85.58091,
          "names_prev": [],
          "sub_last": {
            "id": 1000080326,
            "date_val": "2019-06-18",
            "date_dereg": null,
            "lat_sub": "42.277500",
            "lon_sub": "-085.585500",
            "lat_frs": 42.27708,
            "lon_frs": -85.58091,
            "num_accidents": null,
            "latest_accident": null
          }
        },
        {
          "EPAFacilityID": "100000087728",
          "name": "Water Station #24",
          "city": "Kalamazoo",
          "address": "5999 South 9th Street",
          "lat_fac": 42.23026,
          "lon_fac": -85.67701,
          "names_prev": [],
          "sub_last": {
            "id": 33355,
            "date_val": "2004-07-20",
            "date_dereg": "2009-07-10",
            "lat_sub": "42.229389",
            "lon_sub": "-085.670750",
            "lat_frs": 42.23026,
            "lon_frs": -85.67701,
            "num_accidents": null,
            "latest_accident": null
          }
        },
        {
          "EPAFacilityID": "100000140983",
          "name": "Pharmacia and Upjohn Building 212",
          "city": "Kalmazoo",
          "address": "701 East Milham Rd",
          "lat_fac": 42.2299,
          "lon_fac": -85.58192,
          "names_prev": [],
          "sub_last": {
            "id": 13537,
            "date_val": "1999-07-19",
            "date_dereg": "2004-05-21",
            "lat_sub": "42.229722",
            "lon_sub": "-85.582222",
            "lat_frs": 42.2299,
            "lon_frs": -85.58192,
            "num_accidents": null,
            "latest_accident": null
          }
        }
      ]
    },
    {
      "fips": "26079",
      "name": "Kalkaska County",
      "facilities": [
        {
          "EPAFacilityID": "100000006646",
          "name": "Kalkaska Gas Plant",
          "city": "Kalkaska",
          "address": "1080 Prough Road",
          "lat_fac": 44.69,
          "lon_fac": -85.19667,
          "names_prev": [],
          "sub_last": {
            "id": 1000076647,
            "date_val": "2019-03-06",
            "date_dereg": null,
            "lat_sub": "44.697353",
            "lon_sub": "-085.204353",
            "lat_frs": 44.69,
            "lon_frs": -85.19667,
            "num_accidents": null,
            "latest_accident": null
          }
        }
      ]
    },
    {
      "fips": "26081",
      "name": "Kent County",
      "facilities": [
        {
          "EPAFacilityID": "100000095862",
          "name": "Access Business Group LLC",
          "city": "Ada",
          "address": "7575 Fulton Street East",
          "lat_fac": 42.95538,
          "lon_fac": -85.48007,
          "names_prev": [
            "Amway Corporation - Ada Site"
          ],
          "sub_last": {
            "id": 1000045716,
            "date_val": "2014-07-28",
            "date_dereg": "2017-04-17",
            "lat_sub": "42.956389",
            "lon_sub": "-085.480889",
            "lat_frs": 42.95538,
            "lon_frs": -85.48007,
            "num_accidents": null,
            "latest_accident": null
          }
        },
        {
          "EPAFacilityID": "100000156314",
          "name": "Alto Storage Terminal",
          "city": "Alto",
          "address": "6050 Alden Nash Avenue",
          "lat_fac": 42.85607,
          "lon_fac": -85.3705,
          "names_prev": [
            "Alto Terminal",
            "Alto Underground Storage"
          ],
          "sub_last": {
            "id": 1000072237,
            "date_val": "2020-05-01",
            "date_dereg": null,
            "lat_sub": "42.855",
            "lon_sub": "-085.366",
            "lat_frs": 42.85607,
            "lon_frs": -85.3705,
            "num_accidents": null,
            "latest_accident": null
          }
        },
        {
          "EPAFacilityID": "100000017055",
          "name": "City of Grand Rapids Wastewater Treatment Plant",
          "city": "Grand Rapids",
          "address": "1300 Market Ave. SW",
          "lat_fac": 42.94795,
          "lon_fac": -85.70211,
          "names_prev": [
            "City of Grand Rapids, Wastewater Treatment Plant"
          ],
          "sub_last": {
            "id": 33474,
            "date_val": "2004-07-20",
            "date_dereg": "2005-05-09",
            "lat_sub": "42.948000",
            "lon_sub": "-085.700472",
            "lat_frs": 42.94795,
            "lon_frs": -85.70211,
            "num_accidents": null,
            "latest_accident": null
          }
        },
        {
          "EPAFacilityID": "100000107234",
          "name": "DFA Dairy Brands Fluid LLC dba Country Fresh LLC",
          "city": "Grand Rapids",
          "address": "2555 Buchanan Ave. S.W.",
          "lat_fac": 42.91816,
          "lon_fac": -85.67134,
          "names_prev": [
            "Country Fresh LLC",
            "Country Fresh, LLC",
            "Country Fresh Grand Rapids Division"
          ],
          "sub_last": {
            "id": 1000079882,
            "date_val": "2020-10-12",
            "date_dereg": null,
            "lat_sub": "42.917572",
            "lon_sub": "-085.671782",
            "lat_frs": 42.91816,
            "lon_frs": -85.67134,
            "num_accidents": null,
            "latest_accident": null
          }
        },
        {
          "EPAFacilityID": "100000115984",
          "name": "Gordon Food Service-Grand Rapids",
          "city": "Grand Rapids",
          "address": "333 50th",
          "lat_fac": 42.87351,
          "lon_fac": -85.67358,
          "names_prev": [
            "Gordon Food Service Grand Rapids Distribution Cent"
          ],
          "sub_last": {
            "id": 1000049716,
            "date_val": "2015-04-22",
            "date_dereg": "2018-01-09",
            "lat_sub": "42.878333",
            "lon_sub": "-085.678056",
            "lat_frs": 42.87351,
            "lon_frs": -85.67358,
            "num_accidents": null,
            "latest_accident": null
          }
        },
        {
          "EPAFacilityID": "100000015075",
          "name": "IBP Foods, inc.",
          "city": "Grand Rapids",
          "address": "2000 Oak Industrial Drive Northeast",
          "lat_fac": 42.97592,
          "lon_fac": -85.6168,
          "names_prev": [
            "Thorn Apple Valley, Inc.   Grand Rapids Division"
          ],
          "sub_last": {
            "id": 24589,
            "date_val": "2001-11-20",
            "date_dereg": "2002-04-22",
            "lat_sub": "42.976111",
            "lon_sub": "-85.617222",
            "lat_frs": 42.97592,
            "lon_frs": -85.6168,
            "num_accidents": null,
            "latest_accident": null
          }
        },
        {
          "EPAFacilityID": "100000194247",
          "name": "Michigan Turkey Producers",
          "city": "Grand Rapids",
          "address": "1100 Hall St",
          "lat_fac": null,
          "lon_fac": null,
          "names_prev": [],
          "sub_last": {
            "id": 1000089222,
            "date_val": "2020-08-07",
            "date_dereg": null,
            "lat_sub": "42.941389",
            "lon_sub": "-085.695278",
            "lat_frs": null,
            "lon_frs": null,
            "num_accidents": null,
            "latest_accident": null
          }
        },
        {
          "EPAFacilityID": "100000241838",
          "name": "Plainfield Township Water Department",
          "city": "GRAND RAPIDS",
          "address": "5220 WOODFIELD CT. NE",
          "lat_fac": null,
          "lon_fac": null,
          "names_prev": [],
          "sub_last": {
            "id": 1000078361,
            "date_val": "2019-04-29",
            "date_dereg": null,
            "lat_sub": "43.057800",
            "lon_sub": "-85.588200",
            "lat_frs": null,
            "lon_frs": null,
            "num_accidents": null,
            "latest_accident": null
          }
        },
        {
          "EPAFacilityID": "100000236489",
          "name": "Roskam Baking Company - S2",
          "city": "Grand Rapids",
          "address": "5565 Broadmoor Ave SE",
          "lat_fac": null,
          "lon_fac": null,
          "names_prev": [],
          "sub_last": {
            "id": 1000065423,
            "date_val": "2020-03-24",
            "date_dereg": null,
            "lat_sub": "42.859887",
            "lon_sub": "-85.549759",
            "lat_frs": null,
            "lon_frs": null,
            "num_accidents": null,
            "latest_accident": null
          }
        },
        {
          "EPAFacilityID": "100000060097",
          "name": "SpartanNash",
          "city": "Grand Rapids",
          "address": "850 76th Street SE",
          "lat_fac": 42.82242,
          "lon_fac": -85.68858,
          "names_prev": [
            "Spartan Stores Distribution, LLC",
            "Spartan Stores"
          ],
          "sub_last": {
            "id": 1000093392,
            "date_val": "2022-01-25",
            "date_dereg": null,
            "lat_sub": "42.820995",
            "lon_sub": "-085.689407",
            "lat_frs": 42.82242,
            "lon_frs": -85.68858,
            "num_accidents": null,
            "latest_accident": null
          }
        },
        {
          "EPAFacilityID": "100000094872",
          "name": "Sysco Grand Rapids, LLC",
          "city": "Grand Rapids",
          "address": "3700 Sysco Court S.E.",
          "lat_fac": 42.89677,
          "lon_fac": -85.53602,
          "names_prev": [
            "Sysco Food Services of Grand Rapids, LLC",
            "SYSCO FOOD SER.OF GR"
          ],
          "sub_last": {
            "id": 1000070519,
            "date_val": "2018-07-11",
            "date_dereg": null,
            "lat_sub": "42.894639",
            "lon_sub": "-85.538742",
            "lat_frs": 42.89677,
            "lon_frs": -85.53602,
            "num_accidents": null,
            "latest_accident": null
          }
        },
        {
          "EPAFacilityID": "100000227836",
          "name": "Valspar - Guardsman",
          "city": "Grand Rapids",
          "address": "4999 36th Street SE",
          "lat_fac": null,
          "lon_fac": null,
          "names_prev": [],
          "sub_last": {
            "id": 1000047557,
            "date_val": "2014-12-19",
            "date_dereg": "2021-01-22",
            "lat_sub": "42.89932",
            "lon_sub": "-85.54382",
            "lat_frs": null,
            "lon_frs": null,
            "num_accidents": null,
            "latest_accident": null
          }
        },
        {
          "EPAFacilityID": "100000124251",
          "name": "City of Grandville Wastewater Treatment Plant",
          "city": "Grandville",
          "address": "4747 Jenison Road",
          "lat_fac": 42.90817,
          "lon_fac": -85.77967,
          "names_prev": [],
          "sub_last": {
            "id": 11718,
            "date_val": "1999-07-13",
            "date_dereg": "2002-11-08",
            "lat_sub": "42.908167",
            "lon_sub": "-85.779667",
            "lat_frs": 42.90817,
            "lon_frs": -85.77967,
            "num_accidents": null,
            "latest_accident": null
          }
        },
        {
          "EPAFacilityID": "100000214412",
          "name": "Roskam Baking Company",
          "city": "Kentwood",
          "address": "5353 Broadmoor Ave SE",
          "lat_fac": null,
          "lon_fac": null,
          "names_prev": [],
          "sub_last": {
            "id": 1000093605,
            "date_val": "2021-05-07",
            "date_dereg": null,
            "lat_sub": "42.864220",
            "lon_sub": "-085.552720",
            "lat_frs": null,
            "lon_frs": null,
            "num_accidents": null,
            "latest_accident": null
          }
        },
        {
          "EPAFacilityID": "100000084687",
          "name": "City of Wyoming Clean Water Plant",
          "city": "Wyoming",
          "address": "2350 Ivanrest SW",
          "lat_fac": 42.91943,
          "lon_fac": -85.74403,
          "names_prev": [],
          "sub_last": {
            "id": 1000076480,
            "date_val": "2019-02-28",
            "date_dereg": null,
            "lat_sub": "42.922222",
            "lon_sub": "-085.741944",
            "lat_frs": 42.91943,
            "lon_frs": -85.74403,
            "num_accidents": null,
            "latest_accident": null
          }
        },