{
  "EPAFacilityID": "100000185587",
  "name": "SYSCO Ventura, Inc.",
  "state": "CA",
  "city": "Oxnard",
  "address": "3100 Sturgis Road",
  "zip": "93030",
  "county_fips": "06111",
  "lat_fac": 34.19458,
  "lon_fac": -119.16639,
  "company_1": "SYSCO Corporation",
  "company_2": null,
  "operator": "SYSCO Ventura, Inc",
  "submissions": [
    {
      "id": 1000073500,
      "date_rec": "2018-10-31",
      "date_val": "2018-10-31",
      "date_dereg": null,
      "lat_sub": "34.199923",
      "lon_sub": "-119.132922",
      "lat_frs": 34.19458,
      "lon_frs": -119.16639,
      "name": "SYSCO Ventura, Inc.",
      "company_1": "SYSCO Corporation",
      "company_2": null,
      "operator": "SYSCO Ventura, Inc"
    },
    {
      "id": 1000036704,
      "date_rec": "2013-10-30",
      "date_val": "2013-10-30",
      "date_dereg": null,
      "lat_sub": "34.199925",
      "lon_sub": "-119.132332",
      "lat_frs": 34.19458,
      "lon_frs": -119.16639,
      "name": "SYSCO Ventura, Inc.",
      "company_1": "SYSCO Corporation",
      "company_2": null,
      "operator": "SYSCO Ventura, Inc"
    },
    {
      "id": 52962,
      "date_rec": "2008-11-12",
      "date_val": "2008-11-12",
      "date_dereg": null,
      "lat_sub": "34.194600",
      "lon_sub": "-119.166400",
      "lat_frs": 34.19458,
      "lon_frs": -119.16639,
      "name": "SYSCO Food Services of Ventura, Inc.",
      "company_1": "SYSCO Corporation",
      "company_2": null,
      "operator": "SYSCO Food Services of Ventura, Inc"
    },
    {
      "id": 45287,
      "date_rec": "2006-03-28",
      "date_val": "2006-03-29",
      "date_dereg": null,
      "lat_sub": "34.194600",
      "lon_sub": "-119.166400",
      "lat_frs": 34.19458,
      "lon_frs": -119.16639,
      "name": "SYSCO Food Services of Ventura, Inc.",
      "company_1": "SYSCO Corporation",
      "company_2": null,
      "operator": "SYSCO Food Services of Ventura, Inc"
    },
    {
      "id": 39381,
      "date_rec": "2004-07-13",
      "date_val": "2004-08-31",
      "date_dereg": null,
      "lat_sub": "34.194600",
      "lon_sub": "-119.166400",
      "lat_frs": 34.19458,
      "lon_frs": -119.16639,
      "name": "Sysco Food Services of Ventura, Inc.",
      "company_1": "Sysco Corporation",
      "company_2": null,
      "operator": "Sysco Food Services of Ventura, Inc"
    },
    {
      "id": 29739,
      "date_rec": "2004-03-25",
      "date_val": "2004-03-26",
      "date_dereg": null,
      "lat_sub": "34.194583",
      "lon_sub": "-119.166389",
      "lat_frs": 34.19458,
      "lon_frs": -119.16639,
      "name": "Sysco Food Services of Ventura, Inc.",
      "company_1": "Sysco Corporation",
      "company_2": null,
      "operator": "Sysco Food Services of Ventura, Inc"
    }
  ],
  "names_prev": [
    "SYSCO Food Services of Ventura, Inc.",
    "Sysco Food Services of Ventura, Inc."
  ]
}