{
  "EPAFacilityID": "100000044533",
  "name": "SIMPLOT GROWER SOLUTIONS - COLUSA",
  "state": "CA",
  "city": "Colusa",
  "address": "2947 Highway 20",
  "zip": "95932",
  "county_fips": "06011",
  "lat_fac": 39.2376,
  "lon_fac": -122.0268,
  "company_1": "Simplot AB Retail, Inc.",
  "company_2": "dba Simplot Grower Solutions",
  "operator": "Simplot AB Retail",
  "submissions": [
    {
      "id": 1000080019,
      "date_rec": "2019-06-07",
      "date_val": "2021-04-28",
      "date_dereg": null,
      "lat_sub": "39.182603",
      "lon_sub": "-121.996900",
      "lat_frs": 39.2376,
      "lon_frs": -122.0268,
      "name": "SIMPLOT GROWER SOLUTIONS - COLUSA",
      "company_1": "Simplot AB Retail, Inc.",
      "company_2": "dba Simplot Grower Solutions",
      "operator": "Simplot AB Retail"
    },
    {
      "id": 1000044415,
      "date_rec": "2014-06-13",
      "date_val": "2014-06-13",
      "date_dereg": null,
      "lat_sub": "39.18255",
      "lon_sub": "-121.996917",
      "lat_frs": 39.2376,
      "lon_frs": -122.0268,
      "name": "SIMPLOT GROWER SOLUTIONS - COLUSA",
      "company_1": "J.R. SIMPLOT COMPANY",
      "company_2": null,
      "operator": "Simplot Grower Solutions"
    },
    {
      "id": 1000006055,
      "date_rec": "2009-06-12",
      "date_val": "2012-08-20",
      "date_dereg": null,
      "lat_sub": "39.18255",
      "lon_sub": "-121.996917",
      "lat_frs": 39.2376,
      "lon_frs": -122.0268,
      "name": "SIMPLOT GROWER SOLUTIONS - COLUSA",
      "company_1": "J.R. SIMPLOT COMPANY",
      "company_2": null,
      "operator": "Simplot Grower Solutions"
    },
    {
      "id": 33258,
      "date_rec": "2004-06-18",
      "date_val": "2008-06-03",
      "date_dereg": null,
      "lat_sub": "39.180557",
      "lon_sub": "-121.997223",
      "lat_frs": 39.2376,
      "lon_frs": -122.0268,
      "name": "COLUSA SIMPLOT GROWER SOLUTIONS",
      "company_1": "J.R. SIMPLOT COMPANY",
      "company_2": null,
      "operator": "Simplot Grower Solutions"
    },
    {
      "id": 3615,
      "date_rec": "1999-06-17",
      "date_val": "1999-06-23",
      "date_dereg": null,
      "lat_sub": "39.180556",
      "lon_sub": "-121.997222",
      "lat_frs": 39.2376,
      "lon_frs": -122.0268,
      "name": "Colusa Simplot Soilbuilders",
      "company_1": "J.R. Simplot Company dba Simplot Soilbuilders",
      "company_2": null,
      "operator": "Colusa Simplot Soilbuilders"
    }
  ],
  "names_prev": [
    "COLUSA SIMPLOT GROWER SOLUTIONS",
    "Colusa Simplot Soilbuilders"
  ]
}