{
  "EPAFacilityID": "100000161246",
  "name": "Rocky Ford Anhydrous Ammonia Plant",
  "state": "CO",
  "city": "Rocky Ford",
  "address": "2nd & Railroad",
  "zip": "81067",
  "county_fips": "08089",
  "lat_fac": 38.0353,
  "lon_fac": -103.7251,
  "company_1": "Rocky Ford Growers Cooperative Assocation",
  "company_2": null,
  "operator": "Rocky Ford Growers Cooperative Assn",
  "submissions": [
    {
      "id": 1000078838,
      "date_rec": "2019-05-08",
      "date_val": "2019-05-08",
      "date_dereg": null,
      "lat_sub": "38.057389",
      "lon_sub": "-103.731747",
      "lat_frs": 38.0353,
      "lon_frs": -103.7251,
      "name": "Rocky Ford Anhydrous Ammonia Plant",
      "company_1": "Rocky Ford Growers Cooperative Assocation",
      "company_2": null,
      "operator": "Rocky Ford Growers Cooperative Assn"
    },
    {
      "id": 1000041873,
      "date_rec": "2014-05-07",
      "date_val": "2014-05-07",
      "date_dereg": null,
      "lat_sub": "38.057366",
      "lon_sub": "-103.731705",
      "lat_frs": 38.0353,
      "lon_frs": -103.7251,
      "name": "Rocky Ford Anhydrous Ammonia Plant",
      "company_1": "Rocky Ford Growers Cooperative Assocation",
      "company_2": null,
      "operator": "Rocky Ford Growers Cooperative Assn"
    },
    {
      "id": 1000001756,
      "date_rec": "2009-05-21",
      "date_val": "2009-05-21",
      "date_dereg": null,
      "lat_sub": "38.055972",
      "lon_sub": "-103.728167",
      "lat_frs": 38.0353,
      "lon_frs": -103.7251,
      "name": "Rocky Ford Nh3 Plant",
      "company_1": "Rocky Ford Growers Cooperative Assocation",
      "company_2": null,
      "operator": "Rocky Ford Growers Cooperative Assn"
    },
    {
      "id": 34449,
      "date_rec": "2004-06-21",
      "date_val": "2004-07-26",
      "date_dereg": null,
      "lat_sub": "38.055972",
      "lon_sub": "-103.728167",
      "lat_frs": 38.0353,
      "lon_frs": -103.7251,
      "name": "Rocky Ford Nh3 Plant",
      "company_1": "Rocky Ford Growers Cooperative Assocation",
      "company_2": null,
      "operator": "Rocky Ford Growers Cooperative Assn"
    },
    {
      "id": 19567,
      "date_rec": "1999-12-15",
      "date_val": "2000-01-13",
      "date_dereg": null,
      "lat_sub": "38.055972",
      "lon_sub": "103.728167",
      "lat_frs": 38.0353,
      "lon_frs": -103.7251,
      "name": "Rocky Ford Growers Cooperative Association",
      "company_1": null,
      "company_2": null,
      "operator": "Irvin Low Ellis"
    },
    {
      "id": 18635,
      "date_rec": "1999-11-29",
      "date_val": "1999-11-30",
      "date_dereg": null,
      "lat_sub": "38.055972",
      "lon_sub": "103.728167",
      "lat_frs": 38.0353,
      "lon_frs": -103.7251,
      "name": "Rocky Ford Growers Cooperative Association",
      "company_1": null,
      "company_2": null,
      "operator": "Irvin Low Ellis"
    },
    {
      "id": 17366,
      "date_rec": "1999-08-31",
      "date_val": "1999-09-08",
      "date_dereg": null,
      "lat_sub": "38.058611",
      "lon_sub": "103.745278",
      "lat_frs": 38.0353,
      "lon_frs": -103.7251,
      "name": "Rocky Ford Growers Cooperative Association",
      "company_1": null,
      "company_2": null,
      "operator": "Irvin Lou Ellis"
    }
  ],
  "names_prev": [
    "Rocky Ford Nh3 Plant",
    "Rocky Ford Growers Cooperative Association"
  ]
}