{
  "EPAFacilityID": "100000124581",
  "name": "Cal West Cooling",
  "state": "CA",
  "city": "Oxnard",
  "address": "761 Commercial Avenue",
  "zip": "93030",
  "county_fips": "06111",
  "lat_fac": 34.19407,
  "lon_fac": -119.17374,
  "company_1": "Western Precooling Systems",
  "company_2": null,
  "operator": "Western Precooling Systems",
  "submissions": [
    {
      "id": 1000079511,
      "date_rec": "2019-06-24",
      "date_val": "2019-06-24",
      "date_dereg": null,
      "lat_sub": "34.193201",
      "lon_sub": "-119.173486",
      "lat_frs": 34.19407,
      "lon_frs": -119.17374,
      "num_accidents": null,
      "latest_accident": null,
      "name": "Cal West Cooling",
      "company_1": "Western Precooling Systems",
      "company_2": null,
      "operator": "Western Precooling Systems"
    },
    {
      "id": 1000044318,
      "date_rec": "2014-06-24",
      "date_val": "2014-06-26",
      "date_dereg": null,
      "lat_sub": "34.193630",
      "lon_sub": "-119.174019",
      "lat_frs": 34.19407,
      "lon_frs": -119.17374,
      "num_accidents": null,
      "latest_accident": null,
      "name": "Cal West Cooling",
      "company_1": "Western Precooling Systems",
      "company_2": null,
      "operator": "Western Precooling Systems"
    },
    {
      "id": 1000024523,
      "date_rec": "2011-11-07",
      "date_val": "2011-11-07",
      "date_dereg": null,
      "lat_sub": "34.193630",
      "lon_sub": "-119.174019",
      "lat_frs": 34.19407,
      "lon_frs": -119.17374,
      "num_accidents": null,
      "latest_accident": null,
      "name": "Cal West Cooling",
      "company_1": "Western Precooling Systems",
      "company_2": null,
      "operator": "Western Precooling Systems"
    },
    {
      "id": 31336,
      "date_rec": "2004-06-10",
      "date_val": "2004-07-01",
      "date_dereg": null,
      "lat_sub": "34.193630",
      "lon_sub": "-119.174019",
      "lat_frs": 34.19407,
      "lon_frs": -119.17374,
      "num_accidents": null,
      "latest_accident": null,
      "name": "Cal West Cooling",
      "company_1": "Western Precooling Systems",
      "company_2": null,
      "operator": "WESTERN PRECOOLING SYSTEMS"
    },
    {
      "id": 29787,
      "date_rec": "2004-04-06",
      "date_val": "2004-04-06",
      "date_dereg": null,
      "lat_sub": "33.1635",
      "lon_sub": "-119.636306",
      "lat_frs": 34.19407,
      "lon_frs": -119.17374,
      "num_accidents": null,
      "latest_accident": null,
      "name": "Cal West Cooling",
      "company_1": "Western Precooling Systems",
      "company_2": null,
      "operator": "Cal West Cooling"
    },
    {
      "id": 16823,
      "date_rec": "1999-08-25",
      "date_val": "1999-08-27",
      "date_dereg": null,
      "lat_sub": "34.194444",
      "lon_sub": "-119.1665",
      "lat_frs": 34.19407,
      "lon_frs": -119.17374,
      "num_accidents": null,
      "latest_accident": null,
      "name": "Statewide Cooling Co",
      "company_1": null,
      "company_2": null,
      "operator": "Statewide Cooling Co"
    },
    {
      "id": 11805,
      "date_rec": "1999-06-22",
      "date_val": "1999-07-13",
      "date_dereg": null,
      "lat_sub": "34.194444",
      "lon_sub": "-119.1665",
      "lat_frs": 34.19407,
      "lon_frs": -119.17374,
      "num_accidents": null,
      "latest_accident": null,
      "name": "Statewide Cooling Co  -  Dole",
      "company_1": null,
      "company_2": null,
      "operator": "Statewide Cooling Co"
    }
  ],
  "names_prev": [
    "Statewide Cooling Co",
    "Statewide Cooling Co  -  Dole"
  ]
}