{
  "abbr": "AK",
  "name": "Alaska",
  "counties": [
    {
      "fips": "02013",
      "name": "Aleutians East Borough",
      "facilities": [
        {
          "EPAFacilityID": "100000024289",
          "name": "Trident Seafoods Corporation-Akutan Plant",
          "city": "Akutan",
          "address": "73 Trident Way",
          "lat_fac": 54.13333,
          "lon_fac": -165.78611,
          "names_prev": [
            "Trident Seafoods Corporation, Akutan, Alaska",
            "Trident Seafoods Corporation  Akutan, Alaska"
          ],
          "sub_last": {
            "id": 1000065819,
            "date": "2021-11-23",
            "date_dereg": null,
            "lat_sub": "54.131871",
            "lon_sub": "-165.787091",
            "lat_frs": 54.13333,
            "lon_frs": -165.78611
          }
        },
        {
          "EPAFacilityID": "100000241874",
          "name": "Silver Bay Seafoods-False Pass",
          "city": "False Pass",
          "address": "100 Beach Front Rd",
          "lat_fac": null,
          "lon_fac": null,
          "names_prev": [],
          "sub_last": {
            "id": 1000079758,
            "date": "2019-05-31",
            "date_dereg": null,
            "lat_sub": "54.868415",
            "lon_sub": "-163.408736",
            "lat_frs": null,
            "lon_frs": null
          }
        },
        {
          "EPAFacilityID": "100000238922",
          "name": "Trident Seafoods Corporation - False Pass Seafoods",
          "city": "False Pass",
          "address": "101 Beach Road",
          "lat_fac": null,
          "lon_fac": null,
          "names_prev": [],
          "sub_last": {
            "id": 1000070004,
            "date": "2021-11-02",
            "date_dereg": null,
            "lat_sub": "54.8653",
            "lon_sub": "-163.4120",
            "lat_frs": null,
            "lon_frs": null
          }
        },
        {
          "EPAFacilityID": "100000143515",
          "name": "Peter Pan Seafoods Inc. - King Cove Plant",
          "city": "King Cove",
          "address": "500  Cannery Row",
          "lat_fac": 55.06111,
          "lon_fac": -162.31667,
          "names_prev": [],
          "sub_last": {
            "id": 1000085370,
            "date": "2020-02-20",
            "date_dereg": null,
            "lat_sub": "55.061111",
            "lon_sub": "-162.316667",
            "lat_frs": 55.06111,
            "lon_frs": -162.31667
          }
        },
        {
          "EPAFacilityID": "100000185836",
          "name": "Peter Pan Seafoods - Port Moller, AK",
          "city": "Port Moller",
          "address": "2200 Airport Way \u2022 Port Moller - Plant",
          "lat_fac": null,
          "lon_fac": null,
          "names_prev": [],
          "sub_last": {
            "id": 1000081154,
            "date": "2019-09-24",
            "date_dereg": null,
            "lat_sub": "55.986738",
            "lon_sub": "-160.574511",
            "lat_frs": null,
            "lon_frs": null
          }
        },
        {
          "EPAFacilityID": "100000024252",
          "name": "Trident Seafoods Corporation-Sand Point Plant",
          "city": "Sand Point",
          "address": "229 Main Street",
          "lat_fac": 55.2628,
          "lon_fac": -160.4618,
          "names_prev": [
            "Trident Seafoods Corporation Sand Point, Alaska",
            "Trident Seafoods Corporation   Sand Point, Alaska"
          ],
          "sub_last": {
            "id": 1000084584,
            "date": "2020-03-20",
            "date_dereg": null,
            "lat_sub": "55.335588",
            "lon_sub": "-160.502744",
            "lat_frs": 55.2628,
            "lon_frs": -160.4618
          }
        }
      ]
    },
    {
      "fips": "02016",
      "name": "Aleutians West Census Area",
      "facilities": [
        {
          "EPAFacilityID": "100000229326",
          "name": "Aleutian Propane Sales, Inc.",
          "city": "Dutch Harbor",
          "address": "156 Biorka Dr. \u2022 P.O. Box 920046",
          "lat_fac": null,
          "lon_fac": null,
          "names_prev": [],
          "sub_last": {
            "id": 1000049497,
            "date": "2015-05-04",
            "date_dereg": "2020-05-06",
            "lat_sub": "53.2253",
            "lon_sub": "-166.3",
            "lat_frs": null,
            "lon_frs": null
          }
        },
        {
          "EPAFacilityID": "100000054718",
          "name": "UniSea, Inc.",
          "city": "Dutch Harbor",
          "address": "88 Salmon Way",
          "lat_fac": 53.88143,
          "lon_fac": -166.55115,
          "names_prev": [
            "UniSea Inc.",
            "Dutch Harbor"
          ],
          "sub_last": {
            "id": 1000094508,
            "date": "2021-07-22",
            "date_dereg": null,
            "lat_sub": "53.881513",
            "lon_sub": "-166.551415",
            "lat_frs": 53.88143,
            "lon_frs": -166.55115
          }
        },
        {
          "EPAFacilityID": "100000152201",
          "name": "Westward Seafoods, Inc.",
          "city": "Dutch Harbor",
          "address": "Mile 1 Captain's Bay Road",
          "lat_fac": 53.85806,
          "lon_fac": -166.55333,
          "names_prev": [],
          "sub_last": {
            "id": 1000073200,
            "date": "2018-11-27",
            "date_dereg": null,
            "lat_sub": "53.858611",
            "lon_sub": "-166.552847",
            "lat_frs": 53.85806,
            "lon_frs": -166.55333
          }
        },
        {
          "EPAFacilityID": "100000023654",
          "name": "Trident Seafoods Corporation - St. Paul Plant",
          "city": "St Paul",
          "address": "1027 Harbor Road",
          "lat_fac": 57.0668,
          "lon_fac": -170.3487,
          "names_prev": [
            "Trident Seafoods Corporation - St. Paul, Alaska"
          ],
          "sub_last": {
            "id": 1000086792,
            "date": "2020-04-21",
            "date_dereg": null,
            "lat_sub": "57.124338",
            "lon_sub": "-170.283582",
            "lat_frs": 57.0668,
            "lon_frs": -170.3487
          }
        },
        {
          "EPAFacilityID": "100000013521",
          "name": "Alyeska Seafoods, Inc.",
          "city": "Unalaska",
          "address": "551 W. Broadway \u2022 PO Box 530",
          "lat_fac": 53.87761,
          "lon_fac": -166.53972,
          "names_prev": [],
          "sub_last": {
            "id": 1000099429,
            "date": "2022-01-31",
            "date_dereg": null,
            "lat_sub": "53.878656",
            "lon_sub": "-166.540183",
            "lat_frs": 53.87761,
            "lon_frs": -166.53972
          }
        },
        {
          "EPAFacilityID": "100000194773",
          "name": "Pyramid Water Treatment Plant",
          "city": "Unalaska",
          "address": "1300 Pyramid Creek Road",
          "lat_fac": null,
          "lon_fac": null,
          "names_prev": [],
          "sub_last": {
            "id": 1000089188,
            "date": "2020-08-10",
            "date_dereg": null,
            "lat_sub": "53.846821",
            "lon_sub": "-166.562988",
            "lat_frs": null,
            "lon_frs": null
          }
        }
      ]
    },
    {
      "fips": "02020",
      "name": "Anchorage Municipality",
      "facilities": [
        {
          "EPAFacilityID": "100000162691",
          "name": "Alaska Seafood International",
          "city": "Anchorage",
          "address": "6689 Seafood Drive",
          "lat_fac": 61.15933,
          "lon_fac": -149.90547,
          "names_prev": [],
          "sub_last": {
            "id": 17848,
            "date": "1999-10-13",
            "date_dereg": "2005-07-07",
            "lat_sub": "61.160583",
            "lon_sub": "-149.902722",
            "lat_frs": 61.15933,
            "lon_frs": -149.90547
          }
        },
        {
          "EPAFacilityID": "100000231466",
          "name": "George M. Sullivan Plant 2/2A",
          "city": "Anchorage",
          "address": "8900 Starview Drive",
          "lat_fac": null,
          "lon_fac": null,
          "names_prev": [],
          "sub_last": {
            "id": 1000090894,
            "date": "2022-02-17",
            "date_dereg": null,
            "lat_sub": "61.229614",
            "lon_sub": "-149.714355",
            "lat_frs": null,
            "lon_frs": null
          }
        },
        {
          "EPAFacilityID": "100000079201",
          "name": "Great Western Chemical Company - Anchorage",
          "city": "Anchorage",
          "address": "800 East Ship Creek Avenue",
          "lat_fac": 61.22203,
          "lon_fac": -149.86855,
          "names_prev": [],
          "sub_last": {
            "id": 6551,
            "date": "1999-07-02",
            "date_dereg": "2000-06-06",
            "lat_sub": "61.222778",
            "lon_sub": "-149.869167",
            "lat_frs": 61.22203,
            "lon_frs": -149.86855
          }
        },
        {
          "EPAFacilityID": "100000219051",
          "name": "International Station Power Plant",
          "city": "Anchorage",
          "address": "6075 Electron Drive",
          "lat_fac": null,
          "lon_fac": null,
          "names_prev": [],
          "sub_last": {
            "id": 1000065843,
            "date": "2017-09-15",
            "date_dereg": null,
            "lat_sub": "61.166667",
            "lon_sub": "-149.904444",
            "lat_frs": null,
            "lon_frs": null
          }
        },
        {
          "EPAFacilityID": "100000128792",
          "name": "John M. Asplund Wastewater Treatment Facility",
          "city": "Anchorage",
          "address": "2300 Hutson Drive",
          "lat_fac": 61.19337,
          "lon_fac": -149.8958,
          "names_prev": [],
          "sub_last": {
            "id": 1000036600,
            "date": "2013-10-01",
            "date_dereg": "2015-04-07",
            "lat_sub": "61.196333",
            "lon_sub": "-150.025611",
            "lat_frs": 61.19337,
            "lon_frs": -149.8958
          }
        },
        {
          "EPAFacilityID": "100000197985",
          "name": "Ocean Terminals Anchorage Storage Yard",
          "city": "Anchorage",
          "address": "501 E 92nd Avenue",
          "lat_fac": null,
          "lon_fac": null,
          "names_prev": [],
          "sub_last": {
            "id": 50803,
            "date": "2008-02-05",
            "date_dereg": "2010-10-06",
            "lat_sub": "61.137778",
            "lon_sub": "-149.874444",
            "lat_frs": null,
            "lon_frs": null
          }
        },
        {
          "EPAFacilityID": "100000237004",
          "name": "Sysco Alaska, Inc.",
          "city": "Anchorage",
          "address": "6601 Change Point Drive",
          "lat_fac": null,
          "lon_fac": null,
          "names_prev": [],
          "sub_last": {
            "id": 1000066677,
            "date": "2017-11-10",
            "date_dereg": null,
            "lat_sub": "61.161833",
            "lon_sub": "-149.904722",
            "lat_frs": null,
            "lon_frs": null
          }
        },
        {
          "EPAFacilityID": "100000218702",
          "name": "Univar Anchorage",
          "city": "Anchorage",
          "address": "590 East 100th Avenue",
          "lat_fac": null,
          "lon_fac": null,
          "names_prev": [],
          "sub_last": {
            "id": 1000066281,
            "date": "2019-08-01",
            "date_dereg": null,
            "lat_sub": "61.13000",
            "lon_sub": "-149.872778",
            "lat_frs": null,
            "lon_frs": null
          }
        }
      ]
    },
    {
      "fips": "02060",
      "name": "Bristol Bay Borough",
      "facilities": [
        {
          "EPAFacilityID": "100000217712",
          "name": "Leader Creek Fisheries, Inc.",
          "city": "Naknek",
          "address": "Mile Marker 3 AK Peninsula Highway \u2022 PO Box 449",
          "lat_fac": null,
          "lon_fac": null,
          "names_prev": [],
          "sub_last": {
            "id": 1000087163,
            "date": "2020-04-30",
            "date_dereg": null,
            "lat_sub": "58.746271",
            "lon_sub": "-156.946650",
            "lat_frs": null,
            "lon_frs": null
          }
        },
        {
          "EPAFacilityID": "100000227275",
          "name": "RED SALMON, A DIVISION OF NORTH PACIFIC SEAFOODS",
          "city": "NAKNEK",
          "address": "MILE 1.5 ALASKA PENINSULA HIGHWAY \u2022 PO Box 10",
          "lat_fac": null,
          "lon_fac": null,
          "names_prev": [],
          "sub_last": {
            "id": 1000086283,
            "date": "2020-04-06",
            "date_dereg": null,
            "lat_sub": "58.737755",
            "lon_sub": "-156.977857",
            "lat_frs": null,
            "lon_frs": null
          }
        },
        {
          "EPAFacilityID": "100000225151",
          "name": "Silver Bay Seafoods - Naknek",
          "city": "Naknek",
          "address": "622 Frontier Street \u2022 PO Box 622",
          "lat_fac": null,
          "lon_fac": null,
          "names_prev": [],
          "sub_last": {
            "id": 1000077109,
            "date": "2021-02-05",
            "date_dereg": null,
            "lat_sub": "58.743943",
            "lon_sub": "-156.953503",
            "lat_frs": null,
            "lon_frs": null
          }
        },
        {
          "EPAFacilityID": "100000208802",
          "name": "Trident Seafoods - North Naknek",
          "city": "Naknek",
          "address": "1/2 Mile Post Peninsula Highway",
          "lat_fac": null,
          "lon_fac": null,
          "names_prev": [],
          "sub_last": {
            "id": 1000080425,
            "date": "2022-02-10",
            "date_dereg": null,
            "lat_sub": "58.727486",
            "lon_sub": "-157.006863",
            "lat_frs": null,
            "lon_frs": null
          }
        }
      ]
    },
    {
      "fips": "02070",
      "name": "Dillingham Census Area",
      "facilities": [
        {
          "EPAFacilityID": "100000212147",
          "name": "Wood River",
          "city": "Dillingham",
          "address": "3700 Yako Road",
          "lat_fac": null,
          "lon_fac": null,
          "names_prev": [
            "Wood River Seafood Processing Facility"
          ],
          "sub_last": {
            "id": 1000084746,
            "date": "2022-01-12",
            "date_dereg": null,
            "lat_sub": "59.068386",
            "lon_sub": "-158.438692",
            "lat_frs": null,
            "lon_frs": null
          }
        },
        {
          "EPAFacilityID": "100000046407",
          "name": "Ekuk Fisheries LLC",
          "city": "Ekuk",
          "address": "202 Cannery Lane \u2022 P.O. Box 1150",
          "lat_fac": 58.81778,
          "lon_fac": -158.56111,
          "names_prev": [
            "Ekuk Fisheries LLP",
            "Ekuk Plant"
          ],
          "sub_last": {
            "id": 1000092550,
            "date": "2022-02-24",
            "date_dereg": null,
            "lat_sub": "58.817778",
            "lon_sub": "-158.561111",
            "lat_frs": 58.81778,
            "lon_frs": -158.56111
          }
        }
      ]
    },
    {
      "fips": "02090",
      "name": "Fairbanks North Star Borough",
      "facilities": [
        {
          "EPAFacilityID": "100000097691",
          "name": "Fort Knox Mine",
          "city": "Fairbanks",
          "address": "#1 Fort Knox Road",
          "lat_fac": 64.99722,
          "lon_fac": -147.33611,
          "names_prev": [],
          "sub_last": {
            "id": 1000006663,
            "date": "2009-06-23",
            "date_dereg": "2014-05-02",
            "lat_sub": "64.997222",
            "lon_sub": "-147.336111",
            "lat_frs": 64.99722,
            "lon_frs": -147.33611
          }
        },
        {
          "EPAFacilityID": "100000090527",
          "name": "Quadra Chemicals Western, Inc.-Fairbanks",
          "city": "Fairbanks",
          "address": "4199 South Lathrop Street",
          "lat_fac": 64.80333,
          "lon_fac": -147.74407,
          "names_prev": [
            "GW International - Fairbanks",
            "Great Western Chemical Company - Fairbanks"
          ],
          "sub_last": {
            "id": 23902,
            "date": "2001-08-08",
            "date_dereg": "2004-06-07",
            "lat_sub": "64.806111",
            "lon_sub": "-147.743611",
            "lat_frs": 64.80333,
            "lon_frs": -147.74407
          }
        },
        {
          "EPAFacilityID": "100000069864",
          "name": "Flint Hills Resources Alaska, LLC",
          "city": "North Pole",
          "address": "1100 H&H Lane",
          "lat_fac": 64.74626,
          "lon_fac": -147.34993,
          "names_prev": [
            "Williams Alaska Petroleum,Inc. North Pole Refinery"
          ],
          "sub_last": {
            "id": 1000056544,
            "date": "2016-03-29",
            "date_dereg": "2018-05-30",
            "lat_sub": "64.733374",
            "lon_sub": "-147.333469",
            "lat_frs": 64.74626,
            "lon_frs": -147.34993
          }
        },
        {
          "EPAFacilityID": "100000233348",
          "name": "Petro Star - North Pole Refinery",
          "city": "North Pole",
          "address": "1200 H&H Lane",
          "lat_fac": null,
          "lon_fac": null,
          "names_prev": [],
          "sub_last": {
            "id": 1000090262,
            "date": "2020-11-04",
            "date_dereg": null,
            "lat_sub": "64.735467",
            "lon_sub": "-147.344725",
            "lat_frs": null,
            "lon_frs": null
          }
        }
      ]
    },
    {
      "fips": "02100",
      "name": "Haines Borough",
      "facilities": [
        {
          "EPAFacilityID": "100000057779",
          "name": "Excursion Inlet Plant",
          "city": "Excursion Inlet",
          "address": "101 Coho Way",
          "lat_fac": 58.42361,
          "lon_fac": -135.46667,
          "names_prev": [],
          "sub_last": {
            "id": 1000088824,
            "date": "2020-07-28",
            "date_dereg": null,
            "lat_sub": "58.250000",
            "lon_sub": "-135.263000",
            "lat_frs": 58.42361,
            "lon_frs": -135.46667
          }
        }
      ]
    },
    {
      "fips": "02122",
      "name": "Kenai Peninsula Borough",
      "facilities": [
        {
          "EPAFacilityID": "100000150034",
          "name": "Agrium Kenai Nitrogen Operations",
          "city": "Kenai",
          "address": "MILE 21 KENAI SPUR HIGHWAY \u2022 PO BOX 575",
          "lat_fac": 60.67444,
          "lon_fac": -151.37917,
          "names_prev": [
            "ALASKA NITROGEN PRODUCS LLC"
          ],
          "sub_last": {
            "id": 49608,
            "date": "2007-08-29",
            "date_dereg": "2009-05-08",
            "lat_sub": "60.674444",
            "lon_sub": "-151.379167",
            "lat_frs": 60.67444,
            "lon_frs": -151.37917
          }
        },
        {
          "EPAFacilityID": "100000142357",
          "name": "Marathon Kenai Refinery",
          "city": "Kenai",
          "address": "54741 Energy Way \u2022 Mile 22 Kenai Spur Highway",
          "lat_fac": 60.68333,
          "lon_fac": -151.36667,
          "names_prev": [
            "Kenai Refinery"
          ],
          "sub_last": {
            "id": 1000082334,
            "date": "2021-11-04",
            "date_dereg": null,
            "lat_sub": "60.410950",
            "lon_sub": "-151.221100",
            "lat_frs": 60.68333,
            "lon_frs": -151.36667
          }
        },
        {
          "EPAFacilityID": "100000083036",
          "name": "Swanson River Plant",
          "city": "Kenai",
          "address": "Mile 15, Swanson River Road",
          "lat_fac": 60.6463,
          "lon_fac": -151.173,
          "names_prev": [
            "Hilcorp Alaska, LLC Swanson River Plant",
            "Swanson River Field Plant # 10",
            "Unocal  - Swanson River Field Plant # 10"
          ],
          "sub_last": {
            "id": 1000080396,
            "date": "2021-12-09",
            "date_dereg": null,
            "lat_sub": "60.729512",
            "lon_sub": "-150.860674",
            "lat_frs": 60.6463,
            "lon_frs": -151.173
          }
        },
        {
          "EPAFacilityID": "100000156724",
          "name": "Seward Fisheries",
          "city": "Seward",
          "address": "601 Port Avenue",
          "lat_fac": 60.12209,
          "lon_fac": -149.43566,
          "names_prev": [
            "Seward Fisheries, Inc."
          ],
          "sub_last": {
            "id": 33754,
            "date": "2004-07-22",
            "date_dereg": "2007-10-12",
            "lat_sub": "60.121111",
            "lon_sub": "-149.436389",
            "lat_frs": 60.12209,
            "lon_frs": -149.43566
          }
        }
      ]
    },
    {
      "fips": "02130",
      "name": "Ketchikan Gateway Borough",
      "facilities": [
        {
          "EPAFacilityID": "100000173974",
          "name": "AGS Ketchikan",
          "city": "Ketchikan",
          "address": "980 Stedman Street \u2022 PO Box 5240",
          "lat_fac": 55.33617,
          "lon_fac": -131.63092,
          "names_prev": [
            "Ketchikan"
          ],
          "sub_last": {
            "id": 1000070482,
            "date": "2018-06-19",
            "date_dereg": null,
            "lat_sub": "55.336389",
            "lon_sub": "-131.631111",
            "lat_frs": 55.33617,
            "lon_frs": -131.63092
          }
        },
        {
          "EPAFacilityID": "100000035678",
          "name": "EC Phillips and Son Inc., Ketchikan",
          "city": "Ketchikan",
          "address": "1775 Tongass Ave",
          "lat_fac": 55.35058,
          "lon_fac": -131.67222,
          "names_prev": [
            "E C Phillips & Son"
          ],
          "sub_last": {
            "id": 1000083808,
            "date": "2020-01-14",
            "date_dereg": null,
            "lat_sub": "55.350000",
            "lon_sub": "-131.666667",
            "lat_frs": 55.35058,
            "lon_frs": -131.67222
          }
        },
        {
          "EPAFacilityID": "100000061336",
          "name": "Ketchikan Chlorination Plant",
          "city": "Ketchikan",
          "address": "1029 Fair Street",
          "lat_fac": 55.34688,
          "lon_fac": -131.64069,
          "names_prev": [],
          "sub_last": {
            "id": 5177,
            "date": "1999-06-29",
            "date_dereg": "2004-05-25",
            "lat_sub": "55.35",
            "lon_sub": "-131.623333",
            "lat_frs": 55.34688,
            "lon_frs": -131.64069
          }
        },
        {
          "EPAFacilityID": "100000217598",
          "name": "Trident Seafoods-Ketchikan Plant",
          "city": "Ketchikan",
          "address": "720 Stedman St.",
          "lat_fac": null,
          "lon_fac": null,
          "names_prev": [
            "Trident Seafoods-Ketchikan, Alaska"
          ],
          "sub_last": {
            "id": 1000095365,
            "date": "2021-09-07",
            "date_dereg": null,
            "lat_sub": "55.338084",
            "lon_sub": "-131.636021",
            "lat_frs": null,
            "lon_frs": null
          }
        }
      ]
    },
    {
      "fips": "02150",
      "name": "Kodiak Island Borough",
      "facilities": [
        {
          "EPAFacilityID": "100000148592",
          "name": "Alaska Pacific Seafoods",
          "city": "Kodiak",
          "address": "627 Shelikof Ave.",
          "lat_fac": 57.79427,
          "lon_fac": -152.41047,
          "names_prev": [
            "Alaska Pacific Seafoods, Inc."
          ],
          "sub_last": {
            "id": 1000067682,
            "date": "2018-01-24",
            "date_dereg": null,
            "lat_sub": "57.784789",
            "lon_sub": "-152.420212",
            "lat_frs": 57.79427,
            "lon_frs": -152.41047
          }
        },
        {
          "EPAFacilityID": "100000171574",
          "name": "Cook Inlet Processing",
          "city": "Kodiak",
          "address": "1011 Gibson Cove Rd",
          "lat_fac": 57.77995,
          "lon_fac": -152.43983,
          "names_prev": [],
          "sub_last": {
            "id": 22007,
            "date": "2000-10-05",
            "date_dereg": "2006-03-21",
            "lat_sub": "57.778056",
            "lon_sub": "-152.448611",
            "lat_frs": 57.77995,
            "lon_frs": -152.43983
          }
        },
        {
          "EPAFacilityID": "100000176132",
          "name": "OBI Seafoods - Kodiak",
          "city": "Kodiak",
          "address": "621 Shelikof St.",
          "lat_fac": 57.79517,
          "lon_fac": -152.40832,
          "names_prev": [
            "Ocean Beauty Seafoods-Kodiak Division",
            "Ocean Beauty Seafoods, Kodiak Division",
            "Ocean Beauty Seafoods, Inc. - Kodiak Division",
            "Ocean Beauty Seafoods inc. - Kodiak Division",
            "Ocean Beauty Seafoods Inc.- Kodiak Division"
          ],
          "sub_last": {
            "id": 1000092565,
            "date": "2021-12-09",
            "date_dereg": null,
            "lat_sub": "57.785333",
            "lon_sub": "-152.420717",
            "lat_frs": 57.79517,
            "lon_frs": -152.40832
          }
        },
        {
          "EPAFacilityID": "100000181304",
          "name": "SILVER BAY SEAFOODS - KODIAK, LLC",
          "city": "KODIAK",
          "address": "517 SHELIKOF STREET",
          "lat_fac": 57.78889,
          "lon_fac": -152.41108,
          "names_prev": [
            "I.S.A. PLANT #2"
          ],
          "sub_last": {
            "id": 1000066338,
            "date": "2021-04-12",
            "date_dereg": null,
            "lat_sub": "57.786235",
            "lon_sub": "-152.418030",
            "lat_frs": 57.78889,
            "lon_frs": -152.41108
          }
        },
        {
          "EPAFacilityID": "100000165849",
          "name": "Trident Seafoods Corporation-Pillar Mountain Plant",
          "city": "Kodiak",
          "address": "521 Shelikof Avenue",
          "lat_fac": 57.79457,
          "lon_fac": -152.40941,
          "names_prev": [
            "Westward Seafoods, Inc.",
            "Western Alaska Fisheries, Inc."
          ],
          "sub_last": {
            "id": 1000080493,
            "date": "2021-08-10",
            "date_dereg": null,
            "lat_sub": "57.785850",
            "lon_sub": "-152.417727",
            "lat_frs": 57.79457,
            "lon_frs": -152.40941
          }
        },
        {
          "EPAFacilityID": "100000052747",
          "name": "Trident Seafoods Corporation-Star of Kodiak Plant",
          "city": "Kodiak",
          "address": "111 W. Marine Way",
          "lat_fac": 57.7855,
          "lon_fac": -152.83783,
          "names_prev": [
            "Trident Seafoods Corporation Kodiak Plant",
            "TYSON FOODS, INC. KODIAK, AK."
          ],
          "sub_last": {
            "id": 1000088617,
            "date": "2020-07-08",
            "date_dereg": null,
            "lat_sub": "57.786513",
            "lon_sub": "-152.406067",
            "lat_frs": 57.7855,
            "lon_frs": -152.83783
          }
        }
      ]
    },
    {
      "fips": "02170",
      "name": "Matanuska-Susitna Borough",
      "facilities": [
        {
          "EPAFacilityID": "100000241954",
          "name": "Airgas Palmer",
          "city": "Palmer",
          "address": "60 Commercial Dr",
          "lat_fac": null,
          "lon_fac": null,
          "names_prev": [],
          "sub_last": {
            "id": 1000079337,
            "date": "2019-05-19",
            "date_dereg": null,
            "lat_sub": "61.3516",
            "lon_sub": "-149.0726",
            "lat_frs": null,
            "lon_frs": null
          }
        }
      ]
    },
    {
      "fips": "02185",
      "name": "North Slope Borough",
      "facilities": [
        {
          "EPAFacilityID": "100000231297",
          "name": "Point Thomson Production Facility",
          "city": "North Slope Borough",
          "address": "Point Thomson Unit",
          "lat_fac": null,
          "lon_fac": null,
          "names_prev": [],
          "sub_last": {
            "id": 1000091332,
            "date": "2022-01-28",
            "date_dereg": null,
            "lat_sub": "70.2",
            "lon_sub": "-146.3",
            "lat_frs": null,
            "lon_frs": null
          }
        },
        {
          "EPAFacilityID": "100000241801",
          "name": "Central Compression Plant (CCP)",
          "city": "Prudhoe Bay",
          "address": "Off West Dock Road, approximately \u2022 1.6 miles north of Oxbow Road",
          "lat_fac": null,
          "lon_fac": null,
          "names_prev": [],
          "sub_last": {
            "id": 1000078017,
            "date": "2020-11-16",
            "date_dereg": null,
            "lat_sub": "70.319945",
            "lon_sub": "-148.502042",
            "lat_frs": null,
            "lon_frs": null
          }
        },
        {
          "EPAFacilityID": "100000212003",
          "name": "Central Gas Facility (CGF)",
          "city": "Prudhoe Bay",
          "address": "Off West Dock Road",
          "lat_fac": null,
          "lon_fac": null,
          "names_prev": [],
          "sub_last": {
            "id": 1000077210,
            "date": "2021-12-28",
            "date_dereg": null,
            "lat_sub": "70.320731",
            "lon_sub": "-148.526217",
            "lat_frs": null,
            "lon_frs": null
          }
        },
        {
          "EPAFacilityID": "100000177471",
          "name": "Endicott Production Facility",
          "city": "Prudhoe Bay",
          "address": "Endicott Island \u2022 North Slope",
          "lat_fac": 70.35353,
          "lon_fac": -147.95992,
          "names_prev": [
            "Endicott Operations"
          ],
          "sub_last": {
            "id": 1000083208,
            "date": "2021-10-28",
            "date_dereg": null,
            "lat_sub": "70.353528",
            "lon_sub": "-147.959917",
            "lat_frs": 70.35353,
            "lon_frs": -147.95992
          }
        },
        {
          "EPAFacilityID": "100000211996",
          "name": "Lisburne Production Center (LPC)",
          "city": "Prudhoe Bay",
          "address": "Off West Dock Road, approximately \u2022 1.2 miles south of Oxbow Road",
          "lat_fac": null,
          "lon_fac": null,
          "names_prev": [],
          "sub_last": {
            "id": 1000077590,
            "date": "2021-12-17",
            "date_dereg": null,
            "lat_sub": "70.286519",
            "lon_sub": "-148.436800",
            "lat_frs": null,
            "lon_frs": null
          }
        },
        {
          "EPAFacilityID": "100000244121",
          "name": "Northstar Production Facility",
          "city": "Prudhoe Bay",
          "address": "Northstar Island \u2022 North Slope",
          "lat_fac": null,
          "lon_fac": null,
          "names_prev": [],
          "sub_last": {
            "id": 1000086783,
            "date": "2021-10-28",
            "date_dereg": null,
            "lat_sub": "70.483332",
            "lon_sub": "-148.683338",
            "lat_frs": null,
            "lon_frs": null
          }
        }
      ]
    },
    {
      "fips": "02201",
      "name": "(Former) Prince of Wales-Outer Ketchikan Census Area",
      "facilities": [
        {
          "EPAFacilityID": "100000208704",
          "name": "Silver Bay Seafoods - Craig",
          "city": "Craig",
          "address": "111 JT Brown Street \u2022 PO Box 808",
          "lat_fac": null,
          "lon_fac": null,
          "names_prev": [],
          "sub_last": {
            "id": 1000063683,
            "date": "2021-02-05",
            "date_dereg": null,
            "lat_sub": "55.488070",
            "lon_sub": "-133.140943",
            "lat_frs": null,
            "lon_frs": null
          }
        }
      ]
    },
    {
      "fips": "02220",
      "name": "Sitka City and Borough",
      "facilities": [
        {
          "EPAFacilityID": "100000218052",
          "name": "Silver Bay Seafoods - Sitka",
          "city": "Sitka",
          "address": "4400 Sawmill Creek Road, Suite B",
          "lat_fac": null,
          "lon_fac": null,
          "names_prev": [],
          "sub_last": {
            "id": 1000088182,
            "date": "2021-02-05",
            "date_dereg": null,
            "lat_sub": "57.044886",
            "lon_sub": "-135.231403",
            "lat_frs": null,
            "lon_frs": null
          }
        },
        {
          "EPAFacilityID": "100000182811",
          "name": "Sitka Sound Seafoods",
          "city": "Sitka",
          "address": "329 Katlian Street",
          "lat_fac": 57.05232,
          "lon_fac": -135.34175,
          "names_prev": [],
          "sub_last": {
            "id": 1000082123,
            "date": "2019-08-22",
            "date_dereg": null,
            "lat_sub": "57.052722",
            "lon_sub": "-135.335056",
            "lat_frs": 57.05232,
            "lon_frs": -135.34175
          }
        }
      ]
    },
    {
      "fips": "02232",
      "name": "(Former) Skagway-Hoonah-Angoon Census Area",
      "facilities": [
        {
          "EPAFacilityID": "100000160504",
          "name": "PELICAN SEAFOODS",
          "city": "PELICAN",
          "address": "1 SALMON WAY",
          "lat_fac": 58.12473,
          "lon_fac": -135.64923,
          "names_prev": [],
          "sub_last": {
            "id": 42508,
            "date": "2005-04-01",
            "date_dereg": "2014-05-16",
            "lat_sub": "58.966667",
            "lon_sub": "-136.225000",
            "lat_frs": 58.12473,
            "lon_frs": -135.64923
          }
        }
      ]
    },
    {
      "fips": "02261",
      "name": "Valdez-Cordova Census Area",
      "facilities": [
        {
          "EPAFacilityID": "100000221887",
          "name": "Copper River Seafoods - Cordova",
          "city": "Cordova",
          "address": "300 Cannery Row \u2022 PO Box 158",
          "lat_fac": null,
          "lon_fac": null,
          "names_prev": [],
          "sub_last": {
            "id": 1000070481,
            "date": "2018-06-19",
            "date_dereg": null,
            "lat_sub": "60.553745",
            "lon_sub": "-145.757945",
            "lat_frs": null,
            "lon_frs": null
          }
        },
        {
          "EPAFacilityID": "100000225437",
          "name": "OBI Seafoods, LLC - Cordova",
          "city": "Cordova",
          "address": "313 Jim Poor Avenue",
          "lat_fac": null,
          "lon_fac": null,
          "names_prev": [
            "Ocean Beauty Seafoods, LLC - Cordova"
          ],
          "sub_last": {
            "id": 1000093683,
            "date": "2021-05-08",
            "date_dereg": null,
            "lat_sub": "60.548153",
            "lon_sub": "-145.765700",
            "lat_frs": null,
            "lon_frs": null
          }
        },
        {
          "EPAFacilityID": "100000207705",
          "name": "Trident Seafoods - North Cordova",
          "city": "Cordova",
          "address": "301 Jim Poor Ave",
          "lat_fac": null,
          "lon_fac": null,
          "names_prev": [],
          "sub_last": {
            "id": 1000077839,
            "date": "2019-04-18",
            "date_dereg": null,
            "lat_sub": "60.549081",
            "lon_sub": "-145.764827",
            "lat_frs": null,
            "lon_frs": null
          }
        },
        {
          "EPAFacilityID": "100000212888",
          "name": "Petro Star Valdez Refinery",
          "city": "Valdez",
          "address": "2.5 Mile Dayville Road \u2022 P.O. Box 3389",
          "lat_fac": null,
          "lon_fac": null,
          "names_prev": [],
          "sub_last": {
            "id": 1000090136,
            "date": "2020-10-09",
            "date_dereg": null,
            "lat_sub": "61.08276",
            "lon_sub": "-146.25017",
            "lat_frs": null,
            "lon_frs": null
          }
        },
        {
          "EPAFacilityID": "100000218123",
          "name": "Silver Bay Seafoods - Valdez",
          "city": "Valdez",
          "address": "209 S Harbor Drive",
          "lat_fac": null,
          "lon_fac": null,
          "names_prev": [],
          "sub_last": {
            "id": 1000093567,
            "date": "2021-05-06",
            "date_dereg": null,
            "lat_sub": "61.123333",
            "lon_sub": "-146.345833",
            "lat_frs": null,
            "lon_frs": null
          }
        }
      ]
    },
    {
      "fips": "02280",
      "name": "(Former) Wrangell-Petersburg Census Area ",
      "facilities": [
        {
          "EPAFacilityID": "100000113003",
          "name": "OBI Seafoods - Petersburg",
          "city": "Petersburg",
          "address": "411 N Nordic Drive",
          "lat_fac": 56.80535,
          "lon_fac": -132.96358,
          "names_prev": [
            "Petersburg Fisheries, Inc."
          ],
          "sub_last": {
            "id": 1000068100,
            "date": "2020-07-15",
            "date_dereg": null,
            "lat_sub": "56.814722",
            "lon_sub": "-132.954444",
            "lat_frs": 56.80535,
            "lon_frs": -132.96358
          }
        },
        {
          "EPAFacilityID": "100000209179",
          "name": "Trident Seafoods Corporation-Wrangell Plant",
          "city": "Wrangell",
          "address": "641 Shakes Street",
          "lat_fac": null,
          "lon_fac": null,
          "names_prev": [
            "Trident Seafoods Corp. Wrangell Alaska"
          ],
          "sub_last": {
            "id": 1000088950,
            "date": "2020-07-28",
            "date_dereg": null,
            "lat_sub": "56.467183",
            "lon_sub": "-132.381416",
            "lat_frs": null,
            "lon_frs": null
          }
        }
      ]
    }
  ]
}