{
  "abbr": "DC",
  "name": "District of Columbia",
  "counties": [
    {
      "fips": "11001",
      "name": "District of Columbia",
      "facilities": [
        {
          "EPAFacilityID": "100000053808",
          "name": "Blue Plains Wastewater Treatment Plant",
          "city": "Washington",
          "address": "5000 Overlook Avenue, S.W.",
          "lat_fac": 38.81361,
          "lon_fac": -77.0275,
          "names_prev": [],
          "sub_last": {
            "id": 10598,
            "date_val": "1999-06-24",
            "date_dereg": "2003-09-08",
            "lat_sub": "38.82375",
            "lon_sub": "-77.017972",
            "lat_frs": 38.81361,
            "lon_frs": -77.0275,
            "num_accidents": 1,
            "latest_accident": "1995-12-09"
          }
        },
        {
          "EPAFacilityID": "100000146656",
          "name": "Dalecarlia Water Treatment Plant",
          "city": "Washington",
          "address": "5900 MacArthur Boulevard, NW",
          "lat_fac": 38.93778,
          "lon_fac": -77.11389,
          "names_prev": [],
          "sub_last": {
            "id": 1000007504,
            "date_val": "2009-06-18",
            "date_dereg": "2011-10-06",
            "lat_sub": "38.938200",
            "lon_sub": "-077.113900",
            "lat_frs": 38.93778,
            "lon_frs": -77.11389,
            "num_accidents": null,
            "latest_accident": null
          }
        },
        {
          "EPAFacilityID": "100000135007",
          "name": "McMillan Water Treatment Plant",
          "city": "Washington",
          "address": "2500 First Street, NW",
          "lat_fac": 38.92221,
          "lon_fac": -77.01229,
          "names_prev": [],
          "sub_last": {
            "id": 1000005837,
            "date_val": "2009-06-18",
            "date_dereg": "2010-12-15",
            "lat_sub": "38.924500",
            "lon_sub": "-077.013400",
            "lat_frs": 38.92221,
            "lon_frs": -77.01229,
            "num_accidents": null,
            "latest_accident": null
          }
        },
        {
          "EPAFacilityID": "100000179193",
          "name": "Washington DC Processing and Distribution Center",
          "city": "Washington",
          "address": "900 Brentwood Road",
          "lat_fac": 38.9172,
          "lon_fac": -76.99401,
          "names_prev": [],
          "sub_last": {
            "id": 26007,
            "date_val": "2002-06-19",
            "date_dereg": "2003-09-03",
            "lat_sub": "38.916472",
            "lon_sub": "-76.994583",
            "lat_frs": 38.9172,
            "lon_frs": -76.99401,
            "num_accidents": null,
            "latest_accident": null
          }
        }
      ]
    }
  ]
}