{
  "abbr": "IL",
  "name": "Illinois",
  "counties": [
    {
      "fips": "17001",
      "name": "Adams County",
      "facilities": [
        {
          "EPAFacilityID": "100000004005",
          "name": "Camp Point, IL 412",
          "city": "Camp Point",
          "address": "PO Box 191 \u2022 101 South Hampshire Street",
          "lat_fac": 40.0224,
          "lon_fac": -91.0849,
          "names_prev": [
            "Camp Point, IL",
            "Lee Fertilizer, Inc. Camp Point Facility",
            "Lee Fertilizer Inc., Camp Point Facility"
          ],
          "sub_last": {
            "id": 55299,
            "date_val": "2010-01-13",
            "date_dereg": "2013-09-09",
            "lat_sub": "40.041083",
            "lon_sub": "-091.061694",
            "lat_frs": 40.0224,
            "lon_frs": -91.0849,
            "num_accidents": null,
            "latest_accident": null
          }
        },
        {
          "EPAFacilityID": "100000007501",
          "name": "Columbus, IL 411 Satellite",
          "city": "Columbus",
          "address": "501 North Franklin Street",
          "lat_fac": 39.9321,
          "lon_fac": -91.359,
          "names_prev": [
            "Columbus, IL 412",
            "Columbus, IL",
            "Lee Fertilizer, Inc. Columbus Facility",
            "Lee Fertilizer, Inc., Columbus Facility"
          ],
          "sub_last": {
            "id": 1000091854,
            "date_val": "2021-03-08",
            "date_dereg": null,
            "lat_sub": "39.992112",
            "lon_sub": "-091.147884",
            "lat_frs": 39.9321,
            "lon_frs": -91.359,
            "num_accidents": null,
            "latest_accident": null
          }
        },
        {
          "EPAFacilityID": "100000005031",
          "name": "Golden, IL 412",
          "city": "Golden",
          "address": "East Third Street",
          "lat_fac": 40.1317,
          "lon_fac": -91.0413,
          "names_prev": [
            "Golden, IL",
            "Lee Fertilizer, Inc. Golden Facility",
            "Lee Fertilizer, Inc., Golden Facility"
          ],
          "sub_last": {
            "id": 55736,
            "date_val": "2010-01-11",
            "date_dereg": "2011-06-14",
            "lat_sub": "40.113583",
            "lon_sub": "-091.014694",
            "lat_frs": 40.1317,
            "lon_frs": -91.0413,
            "num_accidents": null,
            "latest_accident": null
          }
        },
        {
          "EPAFacilityID": "100000078989",
          "name": "Prairieland FS, Inc. - Golden",
          "city": "Golden",
          "address": "908 Prairie Mills Road",
          "lat_fac": 40.1317,
          "lon_fac": -91.0413,
          "names_prev": [
            "Two Rivers FS, Inc. - Golden",
            "ADAMS FS, INC. GOLDEN"
          ],
          "sub_last": {
            "id": 1000077730,
            "date_val": "2019-05-24",
            "date_dereg": null,
            "lat_sub": "40.105000",
            "lon_sub": "-091.013889",
            "lat_frs": 40.1317,
            "lon_frs": -91.0413,
            "num_accidents": null,
            "latest_accident": null
          }
        },
        {
          "EPAFacilityID": "100000087684",
          "name": "Prairieland FS, Inc. - Kingston",
          "city": "Liberty",
          "address": "2551 Highway 104",
          "lat_fac": 39.8893,
          "lon_fac": -91.0399,
          "names_prev": [
            "Two Rivers FS, Inc. - Kingston",
            "ADAMS FS, INC. KINGSTON"
          ],
          "sub_last": {
            "id": 1000039626,
            "date_val": "2014-03-19",
            "date_dereg": "2014-09-23",
            "lat_sub": "39.823056",
            "lon_sub": "-091.019444",
            "lat_frs": 39.8893,
            "lon_frs": -91.0399,
            "num_accidents": null,
            "latest_accident": null
          }
        },
        {
          "EPAFacilityID": "100000197182",
          "name": "Prairieland  FS, Inc. - Paloma",
          "city": "Paloma",
          "address": "1644 US Highway 24",
          "lat_fac": null,
          "lon_fac": null,
          "names_prev": [],
          "sub_last": {
            "id": 1000077746,
            "date_val": "2019-05-24",
            "date_dereg": null,
            "lat_sub": "40.013428",
            "lon_sub": "-091.112927",
            "lat_frs": null,
            "lon_frs": null,
            "num_accidents": null,
            "latest_accident": null
          }
        },
        {
          "EPAFacilityID": "100000084188",
          "name": "Prairieland FS, Inc. - Paloma",
          "city": "Paloma",
          "address": "1644 US Highway 24",
          "lat_fac": 40.05095,
          "lon_fac": -91.22447,
          "names_prev": [
            "Two Rivers FS, Inc. - Paloma",
            "ADAMS FS, INC. PALOMA"
          ],
          "sub_last": {
            "id": 1000039758,
            "date_val": "2014-03-19",
            "date_dereg": null,
            "lat_sub": "40.009167",
            "lon_sub": "-091.191389",
            "lat_frs": 40.05095,
            "lon_frs": -91.22447,
            "num_accidents": null,
            "latest_accident": null
          }
        },
        {
          "EPAFacilityID": "100000100302",
          "name": "Payson, IL",
          "city": "Payson",
          "address": "523 Highway 96 South",
          "lat_fac": 39.83269,
          "lon_fac": -91.264,
          "names_prev": [
            "Payson, IL Satellite",
            "Bunte Trucking",
            "Bunte Truck Service"
          ],
          "sub_last": {
            "id": 1000077435,
            "date_val": "2019-06-07",
            "date_dereg": null,
            "lat_sub": "39.832756",
            "lon_sub": "-091.264353",
            "lat_frs": 39.83269,
            "lon_frs": -91.264,
            "num_accidents": null,
            "latest_accident": null
          }
        },
        {
          "EPAFacilityID": "100000079096",
          "name": "Prairieland FS, Inc. - Payson",
          "city": "Payson",
          "address": "1706 N 550th Ave",
          "lat_fac": 39.807,
          "lon_fac": -91.2876,
          "names_prev": [
            "Two Rivers FS, Inc. - Payson",
            "ADAMS FS, INC. PAYSON"
          ],
          "sub_last": {
            "id": 1000078980,
            "date_val": "2019-05-10",
            "date_dereg": null,
            "lat_sub": "39.836111",
            "lon_sub": "-091.184722",
            "lat_frs": 39.807,
            "lon_frs": -91.2876,
            "num_accidents": null,
            "latest_accident": null
          }
        },
        {
          "EPAFacilityID": "100000007912",
          "name": "City of Quincy Wastewater Treatment Facility",
          "city": "Quincy",
          "address": "700 W. Lock & Dam Road",
          "lat_fac": 39.90655,
          "lon_fac": -91.40907,
          "names_prev": [
            "City of Quincy, Wastewater Treatment Facility"
          ],
          "sub_last": {
            "id": 1000077669,
            "date_val": "2021-05-19",
            "date_dereg": null,
            "lat_sub": "39.902600",
            "lon_sub": "-091.426498",
            "lat_frs": 39.90655,
            "lon_frs": -91.40907,
            "num_accidents": null,
            "latest_accident": null
          }
        },
        {
          "EPAFacilityID": "100000007921",
          "name": "City of Quincy, Water Department Filtration Facili",
          "city": "Quincy",
          "address": "110 North Front Street",
          "lat_fac": 39.93209,
          "lon_fac": -91.41483,
          "names_prev": [],
          "sub_last": {
            "id": 1000081832,
            "date_val": "2019-10-11",
            "date_dereg": null,
            "lat_sub": "39.936667",
            "lon_sub": "-091.416667",
            "lat_frs": 39.93209,
            "lon_frs": -91.41483,
            "num_accidents": null,
            "latest_accident": null
          }
        },
        {
          "EPAFacilityID": "100000141777",
          "name": "G.S. Robins and Company (04 Quincy)",
          "city": "Quincy",
          "address": "2808 Ellington Road",
          "lat_fac": 39.9791,
          "lon_fac": -91.37064,
          "names_prev": [],
          "sub_last": {
            "id": 1000007633,
            "date_val": "2009-06-15",
            "date_dereg": "2010-04-13",
            "lat_sub": "39.981417",
            "lon_sub": "-091.367306",
            "lat_frs": 39.9791,
            "lon_frs": -91.37064,
            "num_accidents": null,
            "latest_accident": null
          }
        },
        {
          "EPAFacilityID": "100000189958",
          "name": "Stratas Foods LLC",
          "city": "Quincy",
          "address": "2731 Refinery Road",
          "lat_fac": null,
          "lon_fac": null,
          "names_prev": [
            "Archer Daniels Midland Quincy Packaging Plant"
          ],
          "sub_last": {
            "id": 1000092390,
            "date_val": "2021-02-18",
            "date_dereg": null,
            "lat_sub": "39.899722",
            "lon_sub": "-91.413333",
            "lat_frs": null,
            "lon_frs": null,
            "num_accidents": null,
            "latest_accident": null
          }
        },
        {
          "EPAFacilityID": "100000119891",
          "name": "Prairieland FS, Inc. - Ursa",
          "city": "Ursa",
          "address": "867 Hwy 61",
          "lat_fac": 40.081,
          "lon_fac": -91.3844,
          "names_prev": [
            "Two Rivers FS, Inc. - Ursa",
            "ADAMS FS, INC. URSA"
          ],
          "sub_last": {
            "id": 1000077744,
            "date_val": "2019-05-24",
            "date_dereg": null,
            "lat_sub": "40.086944",
            "lon_sub": "-091.344444",
            "lat_frs": 40.081,
            "lon_frs": -91.3844,
            "num_accidents": null,
            "latest_accident": null
          }
        }
      ]
    },
    {
      "fips": "17003",
      "name": "Alexander County",
      "facilities": [
        {
          "EPAFacilityID": "100000067759",
          "name": "Burkart Foam, Inc.",
          "city": "Cairo",
          "address": "36th & Scyamore",
          "lat_fac": 37.01528,
          "lon_fac": -89.18083,
          "names_prev": [],
          "sub_last": {
            "id": 5272,
            "date_val": "1999-06-29",
            "date_dereg": "2006-07-19",
            "lat_sub": "37.015278",
            "lon_sub": "-89.180833",
            "lat_frs": 37.01528,
            "lon_frs": -89.18083,
            "num_accidents": null,
            "latest_accident": null
          }
        },
        {
          "EPAFacilityID": "100000186318",
          "name": "Illinois American Water - Cairo Treatment Plant",
          "city": "Cairo",
          "address": "4100 Ohio",
          "lat_fac": null,
          "lon_fac": null,
          "names_prev": [],
          "sub_last": {
            "id": 31340,
            "date_val": "2004-07-01",
            "date_dereg": "2009-05-12",
            "lat_sub": "37.020278",
            "lon_sub": "-089.180278",
            "lat_frs": null,
            "lon_frs": null,
            "num_accidents": null,
            "latest_accident": null
          }
        }
      ]
    },
    {
      "fips": "17005",
      "name": "Bond County",
      "facilities": [
        {
          "EPAFacilityID": "100000232429",
          "name": "Greenville, IL",
          "city": "Greenville",
          "address": "1390 Ginkgo Avenue",
          "lat_fac": null,
          "lon_fac": null,
          "names_prev": [
            "Effingham Equity"
          ],
          "sub_last": {
            "id": 1000077871,
            "date_val": "2019-09-26",
            "date_dereg": null,
            "lat_sub": "38.795299",
            "lon_sub": "-089.372524",
            "lat_frs": null,
            "lon_frs": null,
            "num_accidents": null,
            "latest_accident": null
          }
        },
        {
          "EPAFacilityID": "100000143604",
          "name": "SOUTH CENTRAL FS, INC GREENVILLE",
          "city": "GREENVILLE",
          "address": "RT 40 \u2022 1715 East City Route 40",
          "lat_fac": 38.8923,
          "lon_fac": -89.402,
          "names_prev": [],
          "sub_last": {
            "id": 1000096753,
            "date_val": "2021-10-11",
            "date_dereg": null,
            "lat_sub": "38.881944",
            "lon_sub": "-089.380833",
            "lat_frs": 38.8923,
            "lon_frs": -89.402,
            "num_accidents": null,
            "latest_accident": null
          }
        },
        {
          "EPAFacilityID": "100000191801",
          "name": "South Central FS, Inc Mulberry Grove",
          "city": "Mulberry Grove",
          "address": "621 South Maple Street",
          "lat_fac": null,
          "lon_fac": null,
          "names_prev": [
            "Mulberry Grove, IL"
          ],
          "sub_last": {
            "id": 1000026319,
            "date_val": "2013-05-27",
            "date_dereg": "2017-01-19",
            "lat_sub": "38.919724",
            "lon_sub": "-089.269722",
            "lat_frs": null,
            "lon_frs": null,
            "num_accidents": null,
            "latest_accident": null
          }
        },
        {
          "EPAFacilityID": "100000030655",
          "name": "Top Ag Cooperative Inc Pierron Location",
          "city": "Pierron",
          "address": "P.O. Box 1025 \u2022 820 Pacatte Street",
          "lat_fac": 38.78056,
          "lon_fac": -89.59111,
          "names_prev": [
            "Trenton Cooperative Equity Exchange Pierron Branch",
            "Trenton Coop-Pierron Branch"
          ],
          "sub_last": {
            "id": 1000077667,
            "date_val": "2019-04-17",
            "date_dereg": null,
            "lat_sub": "38.780556",
            "lon_sub": "-089.591111",
            "lat_frs": 38.78056,
            "lon_frs": -89.59111,
            "num_accidents": null,
            "latest_accident": null
          }
        },
        {
          "EPAFacilityID": "100000214779",
          "name": "CHS Inc - Shipman Pocahontas",
          "city": "Pocahontas",
          "address": "168 State Rt. 140",
          "lat_fac": null,
          "lon_fac": null,
          "names_prev": [],
          "sub_last": {
            "id": 1000083902,
            "date_val": "2019-11-22",
            "date_dereg": null,
            "lat_sub": "38.88616",
            "lon_sub": "-89.60854",
            "lat_frs": null,
            "lon_frs": null,
            "num_accidents": null,
            "latest_accident": null
          }
        }
      ]
    },
    {
      "fips": "17007",
      "name": "Boone County",
      "facilities": [
        {
          "EPAFacilityID": "100000061844",
          "name": "Americold, Belvidere",
          "city": "Belvidere",
          "address": "6765 Imron Drive",
          "lat_fac": 42.25154,
          "lon_fac": -88.88276,
          "names_prev": [
            "Americold- Belvidere",
            "Atlas Cold Storage - Belvidere",
            "Belvidere Cold Storage"
          ],
          "sub_last": {
            "id": 1000078307,
            "date_val": "2019-05-03",
            "date_dereg": null,
            "lat_sub": "42.251528",
            "lon_sub": "-088.882500",
            "lat_frs": 42.25154,
            "lon_frs": -88.88276,
            "num_accidents": null,
            "latest_accident": null
          }
        },
        {
          "EPAFacilityID": "100000103121",
          "name": "CONSERV FS, INC (GENOA RD)",
          "city": "BELVIDERE",
          "address": "7559 DEWANE RD",
          "lat_fac": 42.2607,
          "lon_fac": -88.852,
          "names_prev": [
            "LAKE-COOK FARM SUPPLY DBA CONSERV FS (GENOA RD)",
            "RIVERVIEW FS, INC. (GENOA RD)"
          ],
          "sub_last": {
            "id": 1000046912,
            "date_val": "2014-10-06",
            "date_dereg": "2017-09-12",
            "lat_sub": "42.189339",
            "lon_sub": "-088.794894",
            "lat_frs": 42.2607,
            "lon_frs": -88.852,
            "num_accidents": null,
            "latest_accident": null
          }
        },
        {
          "EPAFacilityID": "100000135267",
          "name": "DFA Dairy Brands Ice Cream, LLC dba Midwest Ice Cr",
          "city": "Belvidere",
          "address": "630 Meadow Street",
          "lat_fac": 42.26078,
          "lon_fac": -88.83608,
          "names_prev": [
            "Midwest Ice Cream Company",
            "Dean Foods - Belvidere, Illinois"
          ],
          "sub_last": {
            "id": 1000078961,
            "date_val": "2021-08-20",
            "date_dereg": null,
            "lat_sub": "42.261413",
            "lon_sub": "-088.836582",
            "lat_frs": 42.26078,
            "lon_frs": -88.83608,
            "num_accidents": null,
            "latest_accident": null
          }
        },
        {
          "EPAFacilityID": "100000021219",
          "name": "General Mills - Belvidere",
          "city": "Belvidere",
          "address": "915 East Pleasant Street",
          "lat_fac": 42.26171,
          "lon_fac": -88.8308,
          "names_prev": [
            "The Pillsbury Company - Belvidere"
          ],
          "sub_last": {
            "id": 1000088562,
            "date_val": "2022-02-23",
            "date_dereg": null,
            "lat_sub": "42.262383",
            "lon_sub": "-088.832275",
            "lat_frs": 42.26171,
            "lon_frs": -88.8308,
            "num_accidents": null,
            "latest_accident": null
          }
        },
        {
          "EPAFacilityID": "100000102293",
          "name": "RIVERVIEW FS, INC. (Belvidere Facility)",
          "city": "BELVIDERE",
          "address": "1111 MCKINLEY AVE",
          "lat_fac": 42.27197,
          "lon_fac": -88.84155,
          "names_prev": [],
          "sub_last": {
            "id": 15345,
            "date_val": "1999-07-27",
            "date_dereg": "2004-05-26",
            "lat_sub": "42.271944",
            "lon_sub": "-88.841111",
            "lat_frs": 42.27197,
            "lon_frs": -88.84155,
            "num_accidents": null,
            "latest_accident": null
          }
        },
        {
          "EPAFacilityID": "100000046498",
          "name": "Tanner Industries, Inc.",
          "city": "Belvidere",
          "address": "2223 Hawkey Drive",
          "lat_fac": 42.24828,
          "lon_fac": -88.89961,
          "names_prev": [],
          "sub_last": {
            "id": 1000078884,
            "date_val": "2019-06-05",
            "date_dereg": null,
            "lat_sub": "42.248889",
            "lon_sub": "-088.899722",
            "lat_frs": 42.24828,
            "lon_frs": -88.89961,
            "num_accidents": null,
            "latest_accident": null
          }
        },
        {
          "EPAFacilityID": "100000102275",
          "name": "CONSERV FS, INC (POPLAR GROVE)",
          "city": "CALEDONIA",
          "address": "14937 IL RT 76",
          "lat_fac": 42.37032,
          "lon_fac": -88.85131,
          "names_prev": [
            "LAKE-COOK FARM SUPPLY DBA CONSERV FS (POPLAR GROVE",
            "RIVERVIEW FS, INC. (POPLAR GROVE FACILITY)"
          ],
          "sub_last": {
            "id": 1000079822,
            "date_val": "2021-07-19",
            "date_dereg": null,
            "lat_sub": "42.369632",
            "lon_sub": "-088.850682",
            "lat_frs": 42.37032,
            "lon_frs": -88.85131,
            "num_accidents": null,
            "latest_accident": null
          }
        }
      ]
    },
    {
      "fips": "17009",
      "name": "Brown County",
      "facilities": [
        {
          "EPAFacilityID": "100000090279",
          "name": "DOT Foods Inc., (Mt. Sterling)",
          "city": "Mount Sterling",
          "address": "1 Dot Way",
          "lat_fac": 39.97697,
          "lon_fac": -90.75903,
          "names_prev": [],
          "sub_last": {
            "id": 1000085991,
            "date_val": "2020-07-15",
            "date_dereg": null,
            "lat_sub": "39.977764",
            "lon_sub": "-90.756245",
            "lat_frs": 39.97697,
            "lon_frs": -90.75903,
            "num_accidents": 1,
            "latest_accident": "2012-10-23"
          }
        },
        {
          "EPAFacilityID": "100000087853",
          "name": "Mt Sterling, IL 411",
          "city": "Mt Sterling",
          "address": "547 US 24 1050 North Avenue \u2022 PO Box 191",
          "lat_fac": 39.994,
          "lon_fac": -90.7135,
          "names_prev": [
            "Mt. Sterling, IL 411",
            "Mt. Sterling, IL",
            "Crop Production Services"
          ],
          "sub_last": {
            "id": 1000091859,
            "date_val": "2021-03-08",
            "date_dereg": null,
            "lat_sub": "39.996401",
            "lon_sub": "-090.808600",
            "lat_frs": 39.994,
            "lon_frs": -90.7135,
            "num_accidents": null,
            "latest_accident": null
          }
        },
        {
          "EPAFacilityID": "100000048637",
          "name": "Prairieland FS, Inc. - Mt. Sterling",
          "city": "Mt. Sterling",
          "address": "104 West Railroad",
          "lat_fac": 39.98095,
          "lon_fac": -90.76768,
          "names_prev": [
            "Two Rivers FS, Inc. - Mt. Sterling",
            "Schuyler-Brown FS NH3"
          ],
          "sub_last": {
            "id": 1000077035,
            "date_val": "2019-05-24",
            "date_dereg": null,
            "lat_sub": "39.980833",
            "lon_sub": "-090.769444",
            "lat_frs": 39.98095,
            "lon_frs": -90.76768,
            "num_accidents": null,
            "latest_accident": null
          }
        },
        {
          "EPAFacilityID": "100000038158",
          "name": "Timewell, IL Satellite",
          "city": "Timewell",
          "address": "Old Route 24 West",
          "lat_fac": 40.0091,
          "lon_fac": -90.8575,
          "names_prev": [
            "Timewell, IL",
            "Perry Feed and Fertilizer,Inc."
          ],
          "sub_last": {
            "id": 1000040466,
            "date_val": "2014-06-09",
            "date_dereg": "2019-06-25",
            "lat_sub": "40.008750",
            "lon_sub": "-090.883662",
            "lat_frs": 40.0091,
            "lon_frs": -90.8575,
            "num_accidents": null,
            "latest_accident": null
          }
        }
      ]
    },
    {
      "fips": "17011",
      "name": "Bureau County",
      "facilities": [
        {
          "EPAFacilityID": "100000201337",
          "name": "Bureau Service Co. DBA Ag View FS, Inc. Buda",
          "city": "Buda",
          "address": "7226 IL. Rt. 40",
          "lat_fac": null,
          "lon_fac": null,
          "names_prev": [],
          "sub_last": {
            "id": 1000090402,
            "date_val": "2020-10-22",
            "date_dereg": null,
            "lat_sub": "41.150735",
            "lon_sub": "-089.405520",
            "lat_frs": null,
            "lon_frs": null,
            "num_accidents": null,
            "latest_accident": null
          }
        },
        {
          "EPAFacilityID": "100000016644",
          "name": "Bureau Service Company - Cherry NH3",
          "city": "Cherry",
          "address": "711 N. Main",
          "lat_fac": 41.43331,
          "lon_fac": -89.21444,
          "names_prev": [],
          "sub_last": {
            "id": 15522,
            "date_val": "1999-08-05",
            "date_dereg": "2004-02-24",
            "lat_sub": "41.433306",
            "lon_sub": "-89.214444",
            "lat_frs": 41.43331,
            "lon_frs": -89.21444,
            "num_accidents": null,
            "latest_accident": null
          }
        },
        {
          "EPAFacilityID": "100000059376",
          "name": "Bureau Service Co. d/b/a Ag View FS - Wheatland",
          "city": "Henry",
          "address": "1892 1825E St.",
          "lat_fac": 41.315,
          "lon_fac": -89.545,
          "names_prev": [
            "Bureau Service Company - Wheatland"
          ],
          "sub_last": {
            "id": 1000086130,
            "date_val": "2020-12-14",
            "date_dereg": null,
            "lat_sub": "41.176028",
            "lon_sub": "-089.504472",
            "lat_frs": 41.315,
            "lon_frs": -89.545,
            "num_accidents": null,
            "latest_accident": null
          }
        },
        {
          "EPAFacilityID": "100000021825",
          "name": "La Moille, IL",
          "city": "La Moille",
          "address": "28987 Highway 92",
          "lat_fac": 41.54311,
          "lon_fac": -89.29672,
          "names_prev": [
            "Van Orin Cooperative Company (La Moille)"
          ],
          "sub_last": {
            "id": 1000077440,
            "date_val": "2019-06-04",
            "date_dereg": null,
            "lat_sub": "41.542064",
            "lon_sub": "-089.296067",
            "lat_frs": 41.54311,
            "lon_frs": -89.29672,
            "num_accidents": null,
            "latest_accident": null
          }
        },
        {
          "EPAFacilityID": "100000054763",
          "name": "Bureau Service Co d/b/a Ag View FS, Inc - LaMoille",
          "city": "LaMoille",
          "address": "26634 3200 East Street",
          "lat_fac": 41.53889,
          "lon_fac": -89.17611,
          "names_prev": [
            "Bureau Service Company - LaMoille"
          ],
          "sub_last": {
            "id": 1000091364,
            "date_val": "2020-12-21",
            "date_dereg": null,
            "lat_sub": "41.534472",
            "lon_sub": "-089.238806",
            "lat_frs": 41.53889,
            "lon_frs": -89.17611,
            "num_accidents": null,
            "latest_accident": null
          }
        },
        {
          "EPAFacilityID": "100000020853",
          "name": "Malden, IL",
          "city": "Malden",
          "address": "24998 1900 North Avenue",
          "lat_fac": 41.42281,
          "lon_fac": -89.37556,
          "names_prev": [
            "Van Orin Cooperative Oil Company (Malden)"
          ],
          "sub_last": {
            "id": 1000077439,
            "date_val": "2019-06-04",
            "date_dereg": null,
            "lat_sub": "41.421120",
            "lon_sub": "-089.375855",
            "lat_frs": 41.42281,
            "lon_frs": -89.37556,
            "num_accidents": null,
            "latest_accident": null
          }
        },
        {
          "EPAFacilityID": "100000019357",
          "name": "Bureau Service Co. d/b/a Ag View FS, Inc. - Ohio",
          "city": "Ohio",
          "address": "28462 2300 East Street",
          "lat_fac": 41.55417,
          "lon_fac": -89.4075,
          "names_prev": [
            "Bureau Service Company - Ohio"
          ],
          "sub_last": {
            "id": 1000091363,
            "date_val": "2020-12-17",
            "date_dereg": null,
            "lat_sub": "41.559361",
            "lon_sub": "-089.413056",
            "lat_frs": 41.55417,
            "lon_frs": -89.4075,
            "num_accidents": null,
            "latest_accident": null
          }
        },
        {
          "EPAFacilityID": "100000245166",
          "name": "River Valley Cooperative Kasbeer",
          "city": "Ohio",
          "address": "20712 2600 N. Ave.",
          "lat_fac": null,
          "lon_fac": null,
          "names_prev": [],
          "sub_last": {
            "id": 1000089543,
            "date_val": "2020-10-12",
            "date_dereg": null,
            "lat_sub": "41.522570",
            "lon_sub": "-89.462120",
            "lat_frs": null,
            "lon_frs": null,
            "num_accidents": null,
            "latest_accident": null
          }
        },
        {
          "EPAFacilityID": "100000040742",
          "name": "Bureau Service Co d/b/a Ag View FS - Princeton Ag",
          "city": "Princeton",
          "address": "22069 US Hwy 34",
          "lat_fac": 41.36389,
          "lon_fac": -89.38417,
          "names_prev": [
            "Bureau Service Company - Princeton Ag Center - NH3"
          ],
          "sub_last": {
            "id": 1000091423,
            "date_val": "2020-12-22",
            "date_dereg": null,
            "lat_sub": "41.406056",
            "lon_sub": "-089.430056",
            "lat_frs": 41.36389,
            "lon_frs": -89.38417,
            "num_accidents": null,
            "latest_accident": null
          }
        },
        {
          "EPAFacilityID": "100000055575",
          "name": "City of Princeton, Water Treatment Plant",
          "city": "Princeton",
          "address": "20 E. Putnam St.",
          "lat_fac": 41.375,
          "lon_fac": -89.46361,
          "names_prev": [],
          "sub_last": {
            "id": 1000039378,
            "date_val": "2014-03-03",
            "date_dereg": "2018-12-03",
            "lat_sub": "41.376000",
            "lon_sub": "-089.464111",
            "lat_frs": 41.375,
            "lon_frs": -89.46361,
            "num_accidents": null,
            "latest_accident": null
          }
        },
        {
          "EPAFacilityID": "100000026018",
          "name": "Bureau Service Co. d/b/a Ag View FS, Inc Sheffield",
          "city": "Sheffield",
          "address": "107 W. Main St.",
          "lat_fac": 41.36944,
          "lon_fac": -89.73167,
          "names_prev": [
            "Bureau Service Company - Sheffield"
          ],
          "sub_last": {
            "id": 1000090512,
            "date_val": "2020-10-22",
            "date_dereg": null,
            "lat_sub": "41.365389",
            "lon_sub": "-089.732889",
            "lat_frs": 41.36944,
            "lon_frs": -89.73167,
            "num_accidents": null,
            "latest_accident": null
          }
        },
        {
          "EPAFacilityID": "100000131797",
          "name": "Garfield Stier Co.",
          "city": "Sheffield",
          "address": "West North Railroad St.",
          "lat_fac": 41.36639,
          "lon_fac": -89.74361,
          "names_prev": [],
          "sub_last": {
            "id": 1000023043,
            "date_val": "2012-07-05",
            "date_dereg": "2017-08-14",
            "lat_sub": "41.216040",
            "lon_sub": "-089.443660",
            "lat_frs": 41.36639,
            "lon_frs": -89.74361,
            "num_accidents": null,
            "latest_accident": null
          }
        },
        {
          "EPAFacilityID": "100000036212",
          "name": "Sheffield, IL 3538",
          "city": "Sheffield",
          "address": "20182 IL Highway 40",
          "lat_fac": 41.44031,
          "lon_fac": -89.68383,
          "names_prev": [
            "Michlig AgriCenter (Rt. 40)",
            "Michlig Agricenter"
          ],
          "sub_last": {
            "id": 1000092161,
            "date_val": "2021-03-08",
            "date_dereg": null,
            "lat_sub": "41.443153",
            "lon_sub": "-089.683053",
            "lat_frs": 41.44031,
            "lon_frs": -89.68383,
            "num_accidents": null,
            "latest_accident": null
          }
        },
        {
          "EPAFacilityID": "100000032065",
          "name": "Bureau Service Company - Tiskilwa",
          "city": "Tiskilwa",
          "address": "E Main Street",
          "lat_fac": 41.29278,
          "lon_fac": -89.50333,
          "names_prev": [],
          "sub_last": {
            "id": 15525,
            "date_val": "1999-08-05",
            "date_dereg": "2006-02-03",
            "lat_sub": "41.292778",
            "lon_sub": "-89.503333",
            "lat_frs": 41.29278,
            "lon_frs": -89.50333,
            "num_accidents": null,
            "latest_accident": null
          }
        },
        {
          "EPAFacilityID": "100000041787",
          "name": "Bureau Service Co. d/b/a Ag View FS, Inc. - Walnut",
          "city": "Walnut",
          "address": "500 W. North St.",
          "lat_fac": 41.50417,
          "lon_fac": -89.68036,
          "names_prev": [
            "Bureau Service Company - Walnut"
          ],
          "sub_last": {
            "id": 1000091422,
            "date_val": "2020-12-22",
            "date_dereg": null,
            "lat_sub": "41.560556",
            "lon_sub": "-089.599750",
            "lat_frs": 41.50417,
            "lon_frs": -89.68036,
            "num_accidents": null,
            "latest_accident": null
          }
        },
        {
          "EPAFacilityID": "100000008163",
          "name": "Walnut, IL 3539 Satellite",
          "city": "Walnut",
          "address": "28411 1600 East Street",
          "lat_fac": 41.56564,
          "lon_fac": -89.55378,
          "names_prev": [
            "Michlig AgriCenter (Walnut Br.)",
            "Michlig AgriCenter, Inc",
            "T. W. AG SERVICES, INC."
          ],
          "sub_last": {
            "id": 1000092162,
            "date_val": "2021-03-08",
            "date_dereg": null,
            "lat_sub": "41.559228",
            "lon_sub": "-089.552257",
            "lat_frs": 41.56564,
            "lon_frs": -89.55378,
            "num_accidents": null,
            "latest_accident": null
          }
        }
      ]
    },
    {
      "fips": "17013",
      "name": "Calhoun County",
      "facilities": [
        {
          "EPAFacilityID": "100000021166",
          "name": "Tri County FS, Inc.-Hardin",
          "city": "Hardin",
          "address": "County Highway # 1, South",
          "lat_fac": 39.11222,
          "lon_fac": -90.61694,
          "names_prev": [
            "Tri County FS, Inc."
          ],
          "sub_last": {
            "id": 1000078310,
            "date_val": "2019-05-13",
            "date_dereg": null,
            "lat_sub": "39.112500",
            "lon_sub": "-090.616944",
            "lat_frs": 39.11222,
            "lon_frs": -90.61694,
            "num_accidents": null,
            "latest_accident": null
          }
        }
      ]
    },
    {
      "fips": "17015",
      "name": "Carroll County",
      "facilities": [
        {
          "EPAFacilityID": "100000214323",
          "name": "Allen Rahn Farm",
          "city": "Chadwick",
          "address": "24746 IL Rt. 40",
          "lat_fac": null,
          "lon_fac": null,
          "names_prev": [],
          "sub_last": {
            "id": 1000088444,
            "date_val": "2020-06-29",
            "date_dereg": null,
            "lat_sub": "42.0235",
            "lon_sub": "-89.9002",
            "lat_frs": null,
            "lon_frs": null,
            "num_accidents": null,
            "latest_accident": null
          }
        },
        {
          "EPAFacilityID": "100000030995",
          "name": "CARROLL SERVICE COMPANY-LANARK PLANT",
          "city": "Lanark",
          "address": "505 W  ILLINOIS RTE 64",
          "lat_fac": 42.126,
          "lon_fac": -89.834,
          "names_prev": [],
          "sub_last": {
            "id": 25623,
            "date_val": "2002-04-29",
            "date_dereg": "2002-11-01",
            "lat_sub": "42.096667",
            "lon_sub": "-89.839167",
            "lat_frs": 42.126,
            "lon_frs": -89.834,
            "num_accidents": null,
            "latest_accident": null
          }
        },
        {
          "EPAFacilityID": "100000182429",
          "name": "CARROLL SERVICE COMPANY-LANARK WEST PLANT",
          "city": "Lanark",
          "address": "24751 IL HWY 52",
          "lat_fac": 41.45059,
          "lon_fac": -86.16203,
          "names_prev": [
            "CARROLL SERVICE COMPANY@LANARK GRAIN FACILITY"
          ],
          "sub_last": {
            "id": 1000072487,
            "date_val": "2018-08-30",
            "date_dereg": null,
            "lat_sub": "42.096667",
            "lon_sub": "-089.845278",
            "lat_frs": 41.45059,
            "lon_frs": -86.16203,
            "num_accidents": null,
            "latest_accident": null
          }
        },
        {
          "EPAFacilityID": "100000116082",
          "name": "Lanark, IL 716",
          "city": "Lanark",
          "address": "25885 SR 72",
          "lat_fac": 42.15547,
          "lon_fac": -89.82281,
          "names_prev": [
            "Lanark, IL 883",
            "LANARK"
          ],
          "sub_last": {
            "id": 1000092044,
            "date_val": "2021-03-08",
            "date_dereg": null,
            "lat_sub": "42.154609",
            "lon_sub": "-089.822951",
            "lat_frs": 42.15547,
            "lon_frs": -89.82281,
            "num_accidents": null,
            "latest_accident": null
          }
        },
        {
          "EPAFacilityID": "100000069757",
          "name": "CARROLL SERVICE CO. MILLEDGEVILLE WEST PLANT 1",
          "city": "Milledgeville",
          "address": "2325 South Otter Creek Drive",
          "lat_fac": 41.97024,
          "lon_fac": -89.78363,
          "names_prev": [
            "CARROLL SERVICE CO. MILLEDGEVILLE WEST PLANT",
            "Terra International, Inc. (Milledgeville, IL.)"
          ],
          "sub_last": {
            "id": 1000075443,
            "date_val": "2019-01-14",
            "date_dereg": null,
            "lat_sub": "41.964167",
            "lon_sub": "-089.783056",
            "lat_frs": 41.97024,
            "lon_frs": -89.78363,
            "num_accidents": null,
            "latest_accident": null
          }
        },
        {
          "EPAFacilityID": "100000034134",
          "name": "CARROLL SERVICE COMPANY-MILLEDGEVILLE EAST",
          "city": "Milledgeville",
          "address": "28947 Elkhorn Rd",
          "lat_fac": 41.96417,
          "lon_fac": -89.7825,
          "names_prev": [
            "CARROLL SERVICE COMPANY-MILLEDGEVILLE PLANT"
          ],
          "sub_last": {
            "id": 1000072489,
            "date_val": "2018-08-30",
            "date_dereg": null,
            "lat_sub": "41.961389",
            "lon_sub": "-089.745000",
            "lat_frs": 41.96417,
            "lon_frs": -89.7825,
            "num_accidents": null,
            "latest_accident": null
          }
        },
        {
          "EPAFacilityID": "100000036427",
          "name": "CARROLL SERVICE COMPANY-ARGO FAY PLANT",
          "city": "THOMSON",
          "address": "15080 Argo Fay Rte",
          "lat_fac": 41.98302,
          "lon_fac": -90.03416,
          "names_prev": [],
          "sub_last": {
            "id": 1000075447,
            "date_val": "2019-01-14",
            "date_dereg": null,
            "lat_sub": "41.982222",
            "lon_sub": "-090.034167",
            "lat_frs": 41.98302,
            "lon_frs": -90.03416,
            "num_accidents": null,
            "latest_accident": null
          }
        },
        {
          "EPAFacilityID": "100000077524",
          "name": "Danisco USA, Inc.",
          "city": "Thomson",
          "address": "10994 Three Mile Road",
          "lat_fac": 42.00257,
          "lon_fac": -90.11076,
          "names_prev": [
            "Danisco Cultor America, Inc.",
            "Cultor Food Science, Inc."
          ],
          "sub_last": {
            "id": 1000080306,
            "date_val": "2019-06-26",
            "date_dereg": "2020-03-26",
            "lat_sub": "42.002500",
            "lon_sub": "-090.110833",
            "lat_frs": 42.00257,
            "lon_frs": -90.11076,
            "num_accidents": null,
            "latest_accident": null
          }
        }
      ]
    },
    {
      "fips": "17017",
      "name": "Cass County",
      "facilities": [
        {
          "EPAFacilityID": "100000089085",
          "name": "Sunrise Ag Service Co. - Arenzville",
          "city": "Arenzville",
          "address": "501 West Main",
          "lat_fac": 39.87742,
          "lon_fac": -90.37722,
          "names_prev": [
            "Cass County Service Co. Arendsville"
          ],
          "sub_last": {
            "id": 27167,
            "date_val": "2002-12-03",
            "date_dereg": "2003-08-20",
            "lat_sub": "39.877417",
            "lon_sub": "-90.377222",
            "lat_frs": 39.87742,
            "lon_frs": -90.37722,
            "num_accidents": null,
            "latest_accident": null
          }
        },
        {
          "EPAFacilityID": "100000110006",
          "name": "Sunrise Ag Service Co. -Arenzville West",
          "city": "Arenzville",
          "address": "10334 County Hwy #9",
          "lat_fac": 39.87881,
          "lon_fac": -90.38806,
          "names_prev": [
            "Cass County Service Co. Arendsville West Plant"
          ],
          "sub_last": {
            "id": 27166,
            "date_val": "2002-12-03",
            "date_dereg": "2003-08-20",
            "lat_sub": "39.878806",
            "lon_sub": "-90.388056",
            "lat_frs": 39.87881,
            "lon_frs": -90.38806,
            "num_accidents": null,
            "latest_accident": null
          }
        },
        {
          "EPAFacilityID": "100000051258",
          "name": "Brandt Agronomic Services LLC Ashland Plant",
          "city": "Ashland",
          "address": "Rt. 123 & Rt. 125 \u2022 PO Box 560",
          "lat_fac": 39.89236,
          "lon_fac": -90.00869,
          "names_prev": [
            "BRANDT CONSOLIDATED, INC Ashland Plant"
          ],
          "sub_last": {
            "id": 1000093744,
            "date_val": "2021-05-19",
            "date_dereg": null,
            "lat_sub": "39.892521",
            "lon_sub": "-090.00075",
            "lat_frs": 39.89236,
            "lon_frs": -90.00869,
            "num_accidents": null,
            "latest_accident": null
          }
        },
        {
          "EPAFacilityID": "100000043561",
          "name": "JBS Beardstown, IL Pork Facility",
          "city": "Beardstown",
          "address": "8295 Arenzville Road",
          "lat_fac": 39.99306,
          "lon_fac": -90.40417,
          "names_prev": [
            "Cargill Meat Solutions Corporation",
            "Cargill Meat Solutions, Beardstown",
            "Excel Corporation"
          ],
          "sub_last": {
            "id": 1000092949,
            "date_val": "2021-03-30",
            "date_dereg": null,
            "lat_sub": "39.993100",
            "lon_sub": "-090.404200",
            "lat_frs": 39.99306,
            "lon_frs": -90.40417,
            "num_accidents": null,
            "latest_accident": null
          }
        },
        {
          "EPAFacilityID": "100000025796",
          "name": "Bluff Springs, IL",
          "city": "Bluff Springs",
          "address": "7517 South Bluff Springs Road",
          "lat_fac": 39.98703,
          "lon_fac": -90.34619,
          "names_prev": [
            "Sunrise Ag Service Co.-Bluff Springs",
            "Bluff Springs Farmers Elevator Co."
          ],
          "sub_last": {
            "id": 1000080525,
            "date_val": "2021-08-20",
            "date_dereg": null,
            "lat_sub": "39.988001",
            "lon_sub": "-090.346435",
            "lat_frs": 39.98703,
            "lon_frs": -90.34619,
            "num_accidents": null,
            "latest_accident": null
          }
        },
        {
          "EPAFacilityID": "100000222644",
          "name": "Meredosia, IL 411 Satellite",
          "city": "Meredosia",
          "address": "Rte 67 & Morgan Cass County Line Rd",
          "lat_fac": null,
          "lon_fac": null,
          "names_prev": [],
          "sub_last": {
            "id": 1000092181,
            "date_val": "2021-03-08",
            "date_dereg": null,
            "lat_sub": "39.877345",
            "lon_sub": "-90.503778",
            "lat_frs": null,
            "lon_frs": null,
            "num_accidents": null,
            "latest_accident": null
          }
        },
        {
          "EPAFacilityID": "100000086694",
          "name": "Linclon Land FS, Inc. Newmansville NH/3",
          "city": "Petersburg",
          "address": "Newmansville Black Top",
          "lat_fac": 40.0214,
          "lon_fac": -89.8484,
          "names_prev": [],
          "sub_last": {
            "id": 6956,
            "date_val": "1999-07-02",
            "date_dereg": "2000-11-13",
            "lat_sub": "40.003611",
            "lon_sub": "-90.033889",
            "lat_frs": 40.0214,
            "lon_frs": -89.8484,
            "num_accidents": null,
            "latest_accident": null
          }
        },
        {
          "EPAFacilityID": "100000180617",
          "name": "Brandt Agronomic Services LLC  Virginia NH3",
          "city": "Virginia",
          "address": "21363 Il. Rt. 125 East",
          "lat_fac": 39.93994,
          "lon_fac": -90.20044,
          "names_prev": [
            "Brandt Consolidated, Inc  Virginia NH3"
          ],
          "sub_last": {
            "id": 1000093806,
            "date_val": "2021-05-19",
            "date_dereg": null,
            "lat_sub": "39.939944",
            "lon_sub": "-090.200444",
            "lat_frs": 39.93994,
            "lon_frs": -90.20044,
            "num_accidents": null,
            "latest_accident": null
          }
        },
        {
          "EPAFacilityID": "100000025064",
          "name": "Sunrise Ag Service Co.-Virginia East Plant",
          "city": "Virginia",
          "address": "20428 Gridley Rd.",
          "lat_fac": 39.95317,
          "lon_fac": -90.19883,
          "names_prev": [
            "Bluff Springs Farmers Elevator Co. Virginia Br."
          ],
          "sub_last": {
            "id": 27169,
            "date_val": "2002-12-03",
            "date_dereg": "2003-08-20",
            "lat_sub": "39.953167",
            "lon_sub": "-90.198833",
            "lat_frs": 39.95317,
            "lon_frs": -90.19883,
            "num_accidents": null,
            "latest_accident": null
          }
        },
        {
          "EPAFacilityID": "100000242873",
          "name": "Virginia East",
          "city": "Virginia",
          "address": "20354 Gridley Road",
          "lat_fac": null,
          "lon_fac": null,
          "names_prev": [],
          "sub_last": {
            "id": 1000084108,
            "date_val": "2019-12-30",
            "date_dereg": null,
            "lat_sub": "39.951961",
            "lon_sub": "-90.199632",
            "lat_frs": null,
            "lon_frs": null,
            "num_accidents": null,
            "latest_accident": null
          }
        },
        {
          "EPAFacilityID": "100000110042",
          "name": "Virginia, IL",
          "city": "Virginia",
          "address": "20264 Gridley Road",
          "lat_fac": 39.95167,
          "lon_fac": -90.20361,
          "names_prev": [
            "Sunrise Ag Service Co. - Virginia",
            "Cass County Service Company, Virginia"
          ],
          "sub_last": {
            "id": 1000080439,
            "date_val": "2019-06-13",
            "date_dereg": "2020-07-21",
            "lat_sub": "39.951944",
            "lon_sub": "-090.204444",
            "lat_frs": 39.95167,
            "lon_frs": -90.20361,
            "num_accidents": null,
            "latest_accident": null
          }
        }
      ]
    },
    {
      "fips": "17019",
      "name": "Champaign County",
      "facilities": [
        {
          "EPAFacilityID": "100000062665",
          "name": "ACH Food Companies, Inc. - Champaign, Illinois",
          "city": "Champaign",
          "address": "710 N. Mattis Avenue",
          "lat_fac": 40.12247,
          "lon_fac": -88.27653,
          "names_prev": [
            "AC HUMKO - Champaign, Illinois"
          ],
          "sub_last": {
            "id": 47162,
            "date_val": "2008-11-11",
            "date_dereg": "2010-08-26",
            "lat_sub": "40.124167",
            "lon_sub": "-088.273889",
            "lat_frs": 40.12247,
            "lon_frs": -88.27653,
            "num_accidents": 1,
            "latest_accident": "2005-09-28"
          }
        },
        {
          "EPAFacilityID": "100000161479",
          "name": "Bush Ag. Supply Inc.",
          "city": "Champaign",
          "address": "401 Tilton Street",
          "lat_fac": 39.9489,
          "lon_fac": -88.4375,
          "names_prev": [],
          "sub_last": {
            "id": 18408,
            "date_val": "1999-10-25",
            "date_dereg": "2006-06-09",
            "lat_sub": "39.946083",
            "lon_sub": "88.449778",
            "lat_frs": 39.9489,
            "lon_frs": -88.4375,
            "num_accidents": null,
            "latest_accident": null
          }
        },
        {
          "EPAFacilityID": "100000238003",
          "name": "II-VI EpiWorks",
          "city": "Champaign",
          "address": "1606 Rion Drive",
          "lat_fac": null,
          "lon_fac": null,
          "names_prev": [],
          "sub_last": {
            "id": 1000068087,
            "date_val": "2018-04-27",
            "date_dereg": null,
            "lat_sub": "40.159701",
            "lon_sub": "-88.271424",
            "lat_frs": null,
            "lon_frs": null,
            "num_accidents": null,
            "latest_accident": null
          }
        },
        {
          "EPAFacilityID": "100000019614",
          "name": "Illini FS - Leverett NH3",
          "city": "Champaign",
          "address": "1806 E. Leverett Rd.",
          "lat_fac": 40.2492,
          "lon_fac": -88.2705,
          "names_prev": [
            "Illini FS, Inc. - Leverett NH3"
          ],
          "sub_last": {
            "id": 1000079251,
            "date_val": "2019-05-20",
            "date_dereg": null,
            "lat_sub": "40.190278",
            "lon_sub": "-088.208056",
            "lat_frs": 40.2492,
            "lon_frs": -88.2705,
            "num_accidents": null,
            "latest_accident": null
          }
        },
        {
          "EPAFacilityID": "100000020078",
          "name": "Illini FS - Rising NH3",
          "city": "Champaign",
          "address": "3508 Rising Road",
          "lat_fac": 40.15045,
          "lon_fac": -88.3338,
          "names_prev": [
            "Illini FS, Inc. - Rising NH3"
          ],
          "sub_last": {
            "id": 1000079245,
            "date_val": "2019-05-20",
            "date_dereg": null,
            "lat_sub": "40.156938",
            "lon_sub": "-088.332039",
            "lat_frs": 40.15045,
            "lon_frs": -88.3338,
            "num_accidents": null,
            "latest_accident": null
          }
        },
        {
          "EPAFacilityID": "100000026223",
          "name": "Illinois American Water - Champaign West Plant",
          "city": "Champaign",
          "address": "1609 N. Mattis Ave.",
          "lat_fac": 40.13229,
          "lon_fac": -88.27693,
          "names_prev": [
            "Champaign- West Plant"
          ],
          "sub_last": {
            "id": 1000024078,
            "date_val": "2012-11-26",
            "date_dereg": "2016-08-17",
            "lat_sub": "40.132222",
            "lon_sub": "-088.277222",
            "lat_frs": 40.13229,
            "lon_frs": -88.27693,
            "num_accidents": null,
            "latest_accident": null
          }
        },
        {
          "EPAFacilityID": "100000064734",
          "name": "Kraft Heinz Foods Company",
          "city": "Champaign",
          "address": "1701 West Bradley Avenue",
          "lat_fac": 40.12734,
          "lon_fac": -88.27314,
          "names_prev": [
            "Kraft Foods Group, Inc.",
            "Kraft Foods - Champaign",
            "Kraft Foods, Inc.",
            "Kraft Foods, Inc., Champaign"
          ],
          "sub_last": {
            "id": 1000097775,
            "date_val": "2022-01-10",
            "date_dereg": null,
            "lat_sub": "40.125833",
            "lon_sub": "-088.271667",
            "lat_frs": 40.12734,
            "lon_frs": -88.27314,
            "num_accidents": null,
            "latest_accident": null
          }
        },
        {
          "EPAFacilityID": "100000238879",
          "name": "MPLX Champaign LP Terminal",
          "city": "Champaign",
          "address": "511 South Staley Road",
          "lat_fac": null,
          "lon_fac": null,
          "names_prev": [],
          "sub_last": {
            "id": 1000070286,
            "date_val": "2019-10-14",
            "date_dereg": null,
            "lat_sub": "40.110531",
            "lon_sub": "-88.319125",
            "lat_frs": null,
            "lon_frs": null,
            "num_accidents": null,
            "latest_accident": null
          }
        },
        {
          "EPAFacilityID": "100000193195",
          "name": "UNFI ? Champaign, IL",
          "city": "Champaign",
          "address": "3001 Apollo Dr.",
          "lat_fac": null,
          "lon_fac": null,
          "names_prev": [
            "W. Newell & Company"
          ],
          "sub_last": {
            "id": 1000094415,
            "date_val": "2021-06-29",
            "date_dereg": null,
            "lat_sub": "40.150233",
            "lon_sub": "-088.232445",
            "lat_frs": null,
            "lon_frs": null,
            "num_accidents": null,
            "latest_accident": null
          }
        },
        {
          "EPAFacilityID": "100000216483",
          "name": "Dewey, IL",
          "city": "Dewey",
          "address": "3056 County Road 950 East",
          "lat_fac": null,
          "lon_fac": null,
          "names_prev": [],
          "sub_last": {
            "id": 1000077484,
            "date_val": "2019-09-24",
            "date_dereg": null,
            "lat_sub": "40.319381",
            "lon_sub": "-088.278934",
            "lat_frs": null,
            "lon_frs": null,
            "num_accidents": null,
            "latest_accident": null
          }
        },
        {
          "EPAFacilityID": "100000068829",
          "name": "Illini FS - Dewey NH3",
          "city": "Dewey",
          "address": "1009 CR 3000 N",
          "lat_fac": 40.31103,
          "lon_fac": -88.25361,
          "names_prev": [
            "Illini FS, Inc. - Dewey NH3",
            "Terra International, Inc.-Dewey, IL"
          ],
          "sub_last": {
            "id": 1000063968,
            "date_val": "2019-05-20",
            "date_dereg": null,
            "lat_sub": "40.310359",
            "lon_sub": "-088.268427",
            "lat_frs": 40.31103,
            "lon_frs": -88.25361,
            "num_accidents": 2,
            "latest_accident": "2015-11-11"
          }
        },
        {
          "EPAFacilityID": "100000019213",
          "name": "Illini FS, Inc. - Fisher NH3",
          "city": "Fisher",
          "address": "3133 County Road 600 E",
          "lat_fac": 40.33016,
          "lon_fac": -88.34668,
          "names_prev": [],
          "sub_last": {
            "id": 1587,
            "date_val": "1999-06-07",
            "date_dereg": "2002-06-19",
            "lat_sub": "40.328333",
            "lon_sub": "-88.3475",
            "lat_frs": 40.33016,
            "lon_frs": -88.34668,
            "num_accidents": null,
            "latest_accident": null
          }
        },
        {
          "EPAFacilityID": "100000068543",
          "name": "Illini FS, Inc. - Fisher NH3 (Foosland)",
          "city": "Fisher",
          "address": "3051 County Road 100 East",
          "lat_fac": 40.30703,
          "lon_fac": -88.44063,
          "names_prev": [
            "Terra International, Inc.-Fisher, IL"
          ],
          "sub_last": {
            "id": 21401,
            "date_val": "2000-06-06",
            "date_dereg": "2002-06-19",
            "lat_sub": "40.318333",
            "lon_sub": "-88.442222",
            "lat_frs": 40.30703,
            "lon_frs": -88.44063,
            "num_accidents": null,
            "latest_accident": null
          }
        },
        {
          "EPAFacilityID": "100000088665",
          "name": "Farmers Ag Service, Inc.",
          "city": "Gifford",
          "address": "301 S. Park Street",
          "lat_fac": 40.30969,
          "lon_fac": -88.01667,
          "names_prev": [
            "Farmers Ag Service Inc."
          ],
          "sub_last": {
            "id": 1000093971,
            "date_val": "2021-05-28",
            "date_dereg": null,
            "lat_sub": "40.305776",
            "lon_sub": "-088.018514",
            "lat_frs": 40.30969,
            "lon_frs": -88.01667,
            "num_accidents": null,
            "latest_accident": null
          }
        },
        {
          "EPAFacilityID": "100000138228",
          "name": "Allerton Supply Company Inc. (Homer)",
          "city": "Homer",
          "address": "1050 N 2600 E. County Road",
          "lat_fac": 40.0365,
          "lon_fac": -87.9775,
          "names_prev": [
            "Allerton Supply Company Inc.     (Homer location)"
          ],
          "sub_last": {
            "id": 1000079996,
            "date_val": "2020-10-02",
            "date_dereg": null,
            "lat_sub": "40.036500",
            "lon_sub": "-087.977500",
            "lat_frs": 40.0365,
            "lon_frs": -87.9775,
            "num_accidents": null,
            "latest_accident": null
          }
        },
        {
          "EPAFacilityID": "100000079782",
          "name": "Ivesdale, IL",
          "city": "Ivesdale",
          "address": "PO Box 200 \u2022 505 Johnson Street",
          "lat_fac": 39.94514,
          "lon_fac": -88.45607,
          "names_prev": [
            "United Prairie, LLC"
          ],
          "sub_last": {
            "id": 1000040259,
            "date_val": "2014-06-09",
            "date_dereg": "2014-07-16",
            "lat_sub": "39.946317",
            "lon_sub": "-088.449386",
            "lat_frs": 39.94514,
            "lon_frs": -88.45607,
            "num_accidents": null,
            "latest_accident": null
          }
        },
        {
          "EPAFacilityID": "100000226187",
          "name": "Ivesdale, IL Satellite",
          "city": "Ivesdale",
          "address": "901 Johnson Street",
          "lat_fac": null,
          "lon_fac": null,
          "names_prev": [],
          "sub_last": {
            "id": 1000077506,
            "date_val": "2021-09-09",
            "date_dereg": null,
            "lat_sub": "39.946259",
            "lon_sub": "-088.449445",
            "lat_frs": null,
            "lon_frs": null,
            "num_accidents": null,
            "latest_accident": null
          }
        },
        {
          "EPAFacilityID": "100000156751",
          "name": "Illini FS - Penfield NH3",
          "city": "Penfield",
          "address": "2472 County Road 2700 East",
          "lat_fac": 40.2694,
          "lon_fac": -87.98353,
          "names_prev": [
            "Illini FS, Inc. - Penfield NH3",
            "Terra International, Inc. - Penfield, IL"
          ],
          "sub_last": {
            "id": 1000079249,
            "date_val": "2019-05-20",
            "date_dereg": null,
            "lat_sub": "40.236111",
            "lon_sub": "-087.948333",
            "lat_frs": 40.2694,
            "lon_frs": -87.98353,
            "num_accidents": null,
            "latest_accident": null
          }
        },
        {
          "EPAFacilityID": "100000140974",
          "name": "Allerton Supply Company Inc. (Bongard location)",
          "city": "Philo",
          "address": "1845 County Rd 300 E",
          "lat_fac": 39.924,
          "lon_fac": -88.114,
          "names_prev": [
            "Allerton Supply Company Inc.  (Bongard location)"
          ],
          "sub_last": {
            "id": 1000080020,
            "date_val": "2020-10-01",
            "date_dereg": "2021-04-23",
            "lat_sub": "39.923583",
            "lon_sub": "-088.114139",
            "lat_frs": 39.924,
            "lon_frs": -88.114,
            "num_accidents": null,
            "latest_accident": null
          }
        },
        {
          "EPAFacilityID": "100000065476",
          "name": "Cargill Inc. - Bongard",
          "city": "Philo",
          "address": "1852 Co. Rd  300 N.",
          "lat_fac": 39.55511,
          "lon_fac": -88.67189,
          "names_prev": [],
          "sub_last": {
            "id": 10795,
            "date_val": "1999-06-29",
            "date_dereg": "2011-12-14",
            "lat_sub": "39.555111",
            "lon_sub": "-88.671889",
            "lat_frs": 39.55511,
            "lon_frs": -88.67189,
            "num_accidents": null,
            "latest_accident": null
          }
        },
        {
          "EPAFacilityID": "100000100151",
          "name": "Conair Corporation - Rantoul Plant",
          "city": "Rantoul",
          "address": "205 Shelhouse Drive",
          "lat_fac": 40.31307,
          "lon_fac": -88.20065,
          "names_prev": [
            "CONAIR Corporation"
          ],
          "sub_last": {
            "id": 1000077563,
            "date_val": "2019-06-25",
            "date_dereg": null,
            "lat_sub": "40.315214",
            "lon_sub": "-088.202809",
            "lat_frs": 40.31307,
            "lon_frs": -88.20065,
            "num_accidents": null,
            "latest_accident": null
          }
        },
        {
          "EPAFacilityID": "100000184374",
          "name": "Rantoul Foods",
          "city": "Rantoul",
          "address": "205 Turner Road",
          "lat_fac": null,
          "lon_fac": null,
          "names_prev": [
            "Meadowbrook Farms"
          ],
          "sub_last": {
            "id": 1000090905,
            "date_val": "2020-11-12",
            "date_dereg": null,
            "lat_sub": "40.314778",
            "lon_sub": "-088.210833",
            "lat_frs": null,
            "lon_frs": null,
            "num_accidents": null,
            "latest_accident": null
          }
        },
        {
          "EPAFacilityID": "100000093383",
          "name": "Farmers Ag Service, Inc.",
          "city": "Royal",
          "address": "301 N. RR",
          "lat_fac": 40.19997,
          "lon_fac": -87.97275,
          "names_prev": [
            "UAP/Richter"
          ],
          "sub_last": {
            "id": 1000086284,
            "date_val": "2020-04-02",
            "date_dereg": null,
            "lat_sub": "40.19596",
            "lon_sub": "-87.97025",
            "lat_frs": 40.19997,
            "lon_frs": -87.97275,
            "num_accidents": null,
            "latest_accident": null
          }
        },
        {
          "EPAFacilityID": "100000019259",
          "name": "Illini FS - Sadorus NH3",
          "city": "Sadorus",
          "address": "302 E. Market",
          "lat_fac": 39.96718,
          "lon_fac": -88.34425,
          "names_prev": [
            "Illini FS, Inc. - Sadorus NH3"
          ],
          "sub_last": {
            "id": 1000079401,
            "date_val": "2019-05-22",
            "date_dereg": null,
            "lat_sub": "39.967794",
            "lon_sub": "-088.341532",
            "lat_frs": 39.96718,
            "lon_frs": -88.34425,
            "num_accidents": null,
            "latest_accident": null
          }
        },
        {
          "EPAFacilityID": "100000099332",
          "name": "Sidney, IL 3518",
          "city": "Sidney",
          "address": "1907 County Road 1000 North",
          "lat_fac": 40.01319,
          "lon_fac": -88.06031,
          "names_prev": [
            "UAP Distribution Inc",
            "UAP Richter",
            "UAP/Richter"
          ],
          "sub_last": {
            "id": 1000092141,
            "date_val": "2021-04-29",
            "date_dereg": null,
            "lat_sub": "40.025212",
            "lon_sub": "-088.104103",
            "lat_frs": 40.01319,
            "lon_frs": -88.06031,
            "num_accidents": null,
            "latest_accident": null
          }
        },
        {
          "EPAFacilityID": "100000019758",
          "name": "Illini FS - Tolono NH3",
          "city": "Tolono",
          "address": "Route 45 South",
          "lat_fac": 39.9813,
          "lon_fac": -88.24669,
          "names_prev": [
            "Illini FS, Inc. - Tolono NH3"
          ],
          "sub_last": {
            "id": 1000043539,
            "date_val": "2014-06-04",
            "date_dereg": "2018-06-27",
            "lat_sub": "39.984722",
            "lon_sub": "-088.262500",
            "lat_frs": 39.9813,
            "lon_frs": -88.24669,
            "num_accidents": null,
            "latest_accident": null
          }
        },
        {
          "EPAFacilityID": "100000080128",
          "name": "Tolono, IL",
          "city": "Tolono",
          "address": "929 A County Road 700 North",
          "lat_fac": 39.9794,
          "lon_fac": -88.2571,
          "names_prev": [
            "United Prairie, LLC"
          ],
          "sub_last": {
            "id": 1000077265,
            "date_val": "2021-10-29",
            "date_dereg": null,
            "lat_sub": "39.979702",
            "lon_sub": "-088.286926",
            "lat_frs": 39.9794,
            "lon_frs": -88.2571,
            "num_accidents": null,
            "latest_accident": null
          }
        },
        {
          "EPAFacilityID": "100000026296",
          "name": "Illinois American Water - Urbana East Plant",
          "city": "Urbana",
          "address": "601 N. Lincoln Avenue",
          "lat_fac": 40.11661,
          "lon_fac": -88.21935,
          "names_prev": [
            "Urbana - East Plant"
          ],
          "sub_last": {
            "id": 1000046424,
            "date_val": "2014-09-04",
            "date_dereg": null,
            "lat_sub": "40.117500",
            "lon_sub": "-088.219444",
            "lat_frs": 40.11661,
            "lon_frs": -88.21935,
            "num_accidents": null,
            "latest_accident": null
          }
        },
        {
          "EPAFacilityID": "100000047095",
          "name": "UNFI ? Champaign DC",
          "city": "Urbana",
          "address": "2611 N Lincoln Ave",
          "lat_fac": 40.13675,
          "lon_fac": -88.21988,
          "names_prev": [
            "Champaign Distribution Center"
          ],
          "sub_last": {
            "id": 1000094340,
            "date_val": "2021-06-24",
            "date_dereg": null,
            "lat_sub": "40.140012",
            "lon_sub": "-088.221817",
            "lat_frs": 40.13675,
            "lon_frs": -88.21988,
            "num_accidents": null,
            "latest_accident": null
          }
        }
      ]
    },
    {
      "fips": "17021",
      "name": "Christian County",
      "facilities": [
        {
          "EPAFacilityID": "100000102649",
          "name": "Christian County Farmer Supply Co.-Tovey (Kincaid)",
          "city": "KINCAID",
          "address": "400 Commonwealth Ave",
          "lat_fac": 39.58583,
          "lon_fac": -89.41361,
          "names_prev": [
            "TOVEY PLANT (KINCAID)"
          ],
          "sub_last": {
            "id": 1000076980,
            "date_val": "2019-03-18",
            "date_dereg": null,
            "lat_sub": "39.589716",
            "lon_sub": "-089.4209",
            "lat_frs": 39.58583,
            "lon_frs": -89.41361,
            "num_accidents": null,
            "latest_accident": null
          }
        },
        {
          "EPAFacilityID": "100000178755",
          "name": "Kincaid Generation, L.L.C.",
          "city": "Kincaid",
          "address": "4 Miles W. of Kincaid on Route 104",
          "lat_fac": 39.59106,
          "lon_fac": -89.49814,
          "names_prev": [],
          "sub_last": {
            "id": 1000062657,
            "date_val": "2020-12-10",
            "date_dereg": null,
            "lat_sub": "39.590584",
            "lon_sub": "-89.498075",
            "lat_frs": 39.59106,
            "lon_frs": -89.49814,
            "num_accidents": null,
            "latest_accident": null
          }
        },
        {
          "EPAFacilityID": "100000102952",
          "name": "Christian County Farmers Supply Co-Morrisonville",
          "city": "MORRISONVILLE",
          "address": "498 North 500 East Road",
          "lat_fac": 39.41667,
          "lon_fac": -89.43333,
          "names_prev": [
            "MORRISONVILE PLANT"
          ],
          "sub_last": {
            "id": 1000077129,
            "date_val": "2019-03-21",
            "date_dereg": null,
            "lat_sub": "39.420291",
            "lon_sub": "-089.43852",
            "lat_frs": 39.41667,
            "lon_frs": -89.43333,
            "num_accidents": null,
            "latest_accident": null
          }
        },
        {
          "EPAFacilityID": "100000115369",
          "name": "Morrisonville, IL 678 (Vanderville)",
          "city": "Morrisonville",
          "address": "1258 E 520 N",
          "lat_fac": 39.3906,
          "lon_fac": -89.4576,
          "names_prev": [
            "VANDERVILLE"
          ],
          "sub_last": {
            "id": 46485,
            "date_val": "2006-09-11",
            "date_dereg": "2009-06-05",
            "lat_sub": "39.424722",
            "lon_sub": "-089.296944",
            "lat_frs": 39.3906,
            "lon_frs": -89.4576,
            "num_accidents": null,
            "latest_accident": null
          }
        },
        {
          "EPAFacilityID": "100000116322",
          "name": "Morrisonville, IL 720",
          "city": "Morrisonville",
          "address": "205 Vandeveer Street",
          "lat_fac": 39.42,
          "lon_fac": -89.4434,
          "names_prev": [
            "Morrisonville, IL 678",
            "MORRISONVILLE"
          ],
          "sub_last": {
            "id": 55499,
            "date_val": "2010-03-31",
            "date_dereg": "2010-04-30",
            "lat_sub": "39.415611",
            "lon_sub": "-089.458306",
            "lat_frs": 39.42,
            "lon_frs": -89.4434,
            "num_accidents": null,
            "latest_accident": null
          }
        },
        {
          "EPAFacilityID": "100000210942",
          "name": "Morrisonville, IL 720",
          "city": "Morrisonville",
          "address": "450 East 400 North Road",
          "lat_fac": null,
          "lon_fac": null,
          "names_prev": [],
          "sub_last": {
            "id": 1000092045,
            "date_val": "2021-03-12",
            "date_dereg": null,
            "lat_sub": "39.405787",
            "lon_sub": "-89.449530",
            "lat_frs": null,
            "lon_frs": null,
            "num_accidents": null,
            "latest_accident": null
          }
        },
        {
          "EPAFacilityID": "100000049501",
          "name": "Moweaqua, IL 3286",
          "city": "Moweaqua",
          "address": "2628 East 1500 North Road",
          "lat_fac": 39.56667,
          "lon_fac": -89.03675,
          "names_prev": [
            "Moweaqua, IL 3286 Satellite",
            "Moweaqua, IL",
            "PC LTD-Radford Branch"
          ],
          "sub_last": {
            "id": 1000091885,
            "date_val": "2021-11-30",
            "date_dereg": null,
            "lat_sub": "39.566324",
            "lon_sub": "-089.037340",
            "lat_frs": 39.56667,
            "lon_frs": -89.03675,
            "num_accidents": null,
            "latest_accident": null
          }
        },
        {
          "EPAFacilityID": "100000022281",
          "name": "Brandt Agronomic Services LLC  Mt. Auburn",
          "city": "Mt. Auburn",
          "address": "Box 110 \u2022 600 South Augar Ave.",
          "lat_fac": 39.76142,
          "lon_fac": -89.25736,
          "names_prev": [
            "Brandt Consolidated Inc, Mt. Auburn",
            "Hardy Fertilizer Company"
          ],
          "sub_last": {
            "id": 1000093793,
            "date_val": "2021-05-19",
            "date_dereg": null,
            "lat_sub": "39.7585",
            "lon_sub": "-089.2604",
            "lat_frs": 39.76142,
            "lon_frs": -89.25736,
            "num_accidents": null,
            "latest_accident": null
          }
        },
        {
          "EPAFacilityID": "100000147487",
          "name": "Cameron's anhydrous ammonia",
          "city": "owaneco",
          "address": "825n 2000 east rd.",
          "lat_fac": 39.47106,
          "lon_fac": -89.16456,
          "names_prev": [],
          "sub_last": {
            "id": 1000095268,
            "date_val": "2021-08-09",
            "date_dereg": null,
            "lat_sub": "39.471056",
            "lon_sub": "-089.164556",
            "lat_frs": 39.47106,
            "lon_frs": -89.16456,
            "num_accidents": null,
            "latest_accident": null
          }
        },
        {
          "EPAFacilityID": "100000103194",
          "name": "Christian County Farmer Supply-Millersville",
          "city": "OWANECO",
          "address": "686 IL ROUTE 29",
          "lat_fac": 39.44722,
          "lon_fac": -89.16003,
          "names_prev": [
            "MILLERSVILLE PLANT"
          ],
          "sub_last": {
            "id": 1000077086,
            "date_val": "2019-03-20",
            "date_dereg": null,
            "lat_sub": "39.448441",
            "lon_sub": "-089.155949",
            "lat_frs": 39.44722,
            "lon_frs": -89.16003,
            "num_accidents": null,
            "latest_accident": null
          }
        },
        {
          "EPAFacilityID": "100000103112",
          "name": "Christian County Farmers Supply-Dunkel",
          "city": "Pana",
          "address": "793 North 2500 East Road",
          "lat_fac": 39.46361,
          "lon_fac": -89.06361,
          "names_prev": [
            "DUNKEL PLANT - CCFS"
          ],
          "sub_last": {
            "id": 1000077082,
            "date_val": "2019-03-19",
            "date_dereg": null,
            "lat_sub": "39.463286",
            "lon_sub": "-089.063654",
            "lat_frs": 39.46361,
            "lon_frs": -89.06361,
            "num_accidents": null,
            "latest_accident": null
          }
        },
        {
          "EPAFacilityID": "100000103014",
          "name": "Christian County Farmers Supply-Pana",
          "city": "PANA",
          "address": "378 N 2400 East Road",
          "lat_fac": 39.40528,
          "lon_fac": -89.08111,
          "names_prev": [
            "PANA PLANT"
          ],
          "sub_last": {
            "id": 1000000338,
            "date_val": "2009-04-23",
            "date_dereg": "2014-04-14",
            "lat_sub": "39.404722",
            "lon_sub": "-089.080278",
            "lat_frs": 39.40528,
            "lon_frs": -89.08111,
            "num_accidents": null,
            "latest_accident": null
          }
        },
        {
          "EPAFacilityID": "100000005601",
          "name": "Harbach, Nixon & Willson, Inc.",
          "city": "Pana",
          "address": "376 N. 2400 E. \u2022 P.O. Box 232",
          "lat_fac": 39.40492,
          "lon_fac": -89.06692,
          "names_prev": [
            "Harbach,Nixon & Willson, Inc."
          ],
          "sub_last": {
            "id": 1000076888,
            "date_val": "2019-03-14",
            "date_dereg": null,
            "lat_sub": "39.399053",
            "lon_sub": "-089.082819",
            "lat_frs": 39.40492,
            "lon_frs": -89.06692,
            "num_accidents": null,
            "latest_accident": null
          }
        },
        {
          "EPAFacilityID": "100000154753",
          "name": "Pana, IL",
          "city": "Pana",
          "address": "367 North 2500th East Road",
          "lat_fac": 39.3995,
          "lon_fac": -89.06367,
          "names_prev": [
            "Effingham Equity",
            "EFFINGHAM EQUITY",
            "EFFINGHAM EQUITY - PANA"
          ],
          "sub_last": {
            "id": 1000077880,
            "date_val": "2019-10-21",
            "date_dereg": null,
            "lat_sub": "39.399529",
            "lon_sub": "-089.063670",
            "lat_frs": 39.3995,
            "lon_frs": -89.06367,
            "num_accidents": null,
            "latest_accident": null
          }
        },
        {
          "EPAFacilityID": "100000168276",
          "name": "Rosamond, IL Satellite",
          "city": "Rosamond",
          "address": "1864 State Route 16",
          "lat_fac": 39.36764,
          "lon_fac": -89.18386,
          "names_prev": [
            "Effingham Equity",
            "Rosemond, IL Satellite",
            "M & J Fertilizer"
          ],
          "sub_last": {
            "id": 1000077882,
            "date_val": "2019-10-21",
            "date_dereg": null,
            "lat_sub": "39.367689",
            "lon_sub": "-089.183884",
            "lat_frs": 39.36764,
            "lon_frs": -89.18386,
            "num_accidents": null,
            "latest_accident": null
          }
        },
        {
          "EPAFacilityID": "100000103078",
          "name": "Christian County Farmers Supply-Stonington",
          "city": "STONINGTON",
          "address": "5 STATE ROUTE 48",
          "lat_fac": 39.63333,
          "lon_fac": -89.19806,
          "names_prev": [
            "STONINGTON PLANT"
          ],
          "sub_last": {
            "id": 1000077118,
            "date_val": "2019-03-25",
            "date_dereg": null,
            "lat_sub": "39.632872",
            "lon_sub": "-089.19894",
            "lat_frs": 39.63333,
            "lon_frs": -89.19806,
            "num_accidents": null,
            "latest_accident": null
          }
        },
        {
          "EPAFacilityID": "100000142277",
          "name": "Stonington Fertilizer, Inc",
          "city": "Stonington",
          "address": "1707 E. 1800 North Rd \u2022 PO Box 260",
          "lat_fac": 39.6125,
          "lon_fac": -89.20722,
          "names_prev": [
            "STONINGTON  FERTILIZER, INC."
          ],
          "sub_last": {
            "id": 1000082684,
            "date_val": "2019-09-26",
            "date_dereg": null,
            "lat_sub": "39.61289",
            "lon_sub": "-089.21358",
            "lat_frs": 39.6125,
            "lon_frs": -89.20722,
            "num_accidents": null,
            "latest_accident": null
          }
        },
        {
          "EPAFacilityID": "100000242542",
          "name": "Taylorville Water Treatment Plant",
          "city": "Taylorville",
          "address": "2021 Lincoln Trail",
          "lat_fac": null,
          "lon_fac": null,
          "names_prev": [],
          "sub_last": {
            "id": 1000081627,
            "date_val": "2019-12-17",
            "date_dereg": null,
            "lat_sub": "39.552821",
            "lon_sub": "-89.270686",
            "lat_frs": null,
            "lon_frs": null,
            "num_accidents": null,
            "latest_accident": null
          }
        }
      ]
    },
    {
      "fips": "17023",
      "name": "Clark County",
      "facilities": [
        {
          "EPAFacilityID": "100000035151",
          "name": "Casey, IL",
          "city": "Casey",
          "address": "PO Box 235 \u2022 403 S Central Avenue",
          "lat_fac": 39.29565,
          "lon_fac": -87.9926,
          "names_prev": [
            "Huisinga Grain, Inc."
          ],
          "sub_last": {
            "id": 37775,
            "date_val": "2004-08-18",
            "date_dereg": "2009-03-18",
            "lat_sub": "39.295250",
            "lon_sub": "-087.998917",
            "lat_frs": 39.29565,
            "lon_frs": -87.9926,
            "num_accidents": null,
            "latest_accident": null
          }
        },
        {
          "EPAFacilityID": "100000181368",
          "name": "Casey, IL",
          "city": "Casey",
          "address": "13355 N 180th Street",
          "lat_fac": 39.33919,
          "lon_fac": -87.97986,
          "names_prev": [
            "Casey, IL Satellite",
            "Willow Hill Grain, Inc."
          ],
          "sub_last": {
            "id": 1000040644,
            "date_val": "2015-12-07",
            "date_dereg": "2015-12-22",
            "lat_sub": "39.340440",
            "lon_sub": "-087.980887",
            "lat_frs": 39.33919,
            "lon_frs": -87.97986,
            "num_accidents": null,
            "latest_accident": null
          }
        },
        {
          "EPAFacilityID": "100000148896",
          "name": "DOUG KLINE CROP dba K Z CROP SERVICE, INC",
          "city": "Casey",
          "address": "1603 East Main",
          "lat_fac": 39.25417,
          "lon_fac": -87.96309,
          "names_prev": [
            "DOUG KLINE CROP SERVICE INC.",
            "Doug Kline Crop Service Inc."
          ],
          "sub_last": {
            "id": 1000038101,
            "date_val": "2013-12-27",
            "date_dereg": null,
            "lat_sub": "39.305278",
            "lon_sub": "-087.981111",
            "lat_frs": 39.25417,
            "lon_frs": -87.96309,
            "num_accidents": null,
            "latest_accident": null
          }
        },
        {
          "EPAFacilityID": "100000176276",
          "name": "Helena Agri-Enterprises, LLC - Casey, IL Facility",
          "city": "Casey",
          "address": "601 West Main Street",
          "lat_fac": 39.295,
          "lon_fac": -88.00267,
          "names_prev": [
            "Helena Chemical Company - Casey, IL",
            "Casey, IL",
            "Casey Fertilizer Co., Inc."
          ],
          "sub_last": {
            "id": 1000062767,
            "date_val": "2018-07-30",
            "date_dereg": null,
            "lat_sub": "39.295538",
            "lon_sub": "-088.002622",
            "lat_frs": 39.295,
            "lon_frs": -88.00267,
            "num_accidents": null,
            "latest_accident": null
          }
        },
        {
          "EPAFacilityID": "100000234622",
          "name": "Helena Agri-Enterprises, LLC - Casey, IL Satellite",
          "city": "Casey",
          "address": "13349 North 1800th Street",
          "lat_fac": null,
          "lon_fac": null,
          "names_prev": [
            "Casey, IL Satellite"
          ],
          "sub_last": {
            "id": 1000097781,
            "date_val": "2021-11-22",
            "date_dereg": null,
            "lat_sub": "39.340472",
            "lon_sub": "-087.980894",
            "lat_frs": null,
            "lon_frs": null,
            "num_accidents": null,
            "latest_accident": null
          }
        },
        {
          "EPAFacilityID": "100000192622",
          "name": "Champaign Asphalt Co. LLC Marshall",
          "city": "Marshall",
          "address": "19300 N. State Highway 1",
          "lat_fac": null,
          "lon_fac": null,
          "names_prev": [
            "Ashford Industries Marshall"
          ],
          "sub_last": {
            "id": 43611,
            "date_val": "2005-08-17",
            "date_dereg": "2011-07-15",
            "lat_sub": "39.235694",
            "lon_sub": "-087.691330",
            "lat_frs": null,
            "lon_frs": null,
            "num_accidents": null,
            "latest_accident": null
          }
        },
        {
          "EPAFacilityID": "100000074554",
          "name": "Marshall, IL",
          "city": "Marshall",
          "address": "16990 North Second Street",
          "lat_fac": 39.48364,
          "lon_fac": -87.71553,
          "names_prev": [
            "Effingham Equity",
            "EFFINGHAM EQUITY",
            "EFFINGHAM EQUITY - MARSHALL"
          ],
          "sub_last": {
            "id": 1000077875,
            "date_val": "2021-09-20",
            "date_dereg": null,
            "lat_sub": "39.400250",
            "lon_sub": "-087.707235",
            "lat_frs": 39.48364,
            "lon_frs": -87.71553,
            "num_accidents": null,
            "latest_accident": null
          }
        },
        {
          "EPAFacilityID": "100000036463",
          "name": "Helena Agri-Enterprises, LLC - Martinsville, IL",
          "city": "Martinsville",
          "address": "9666 East Angling Road",
          "lat_fac": 39.29561,
          "lon_fac": -87.83002,
          "names_prev": [
            "Helena Chemical Company - Martinsville, IL",
            "Martinsville, IL",
            "Miller Fertilizer, Inc.",
            "MILLER FERTILIZER CO."
          ],
          "sub_last": {
            "id": 1000081648,
            "date_val": "2019-08-01",
            "date_dereg": null,
            "lat_sub": "39.295599",
            "lon_sub": "-087.831967",
            "lat_frs": 39.29561,
            "lon_frs": -87.83002,
            "num_accidents": null,
            "latest_accident": null
          }
        },
        {
          "EPAFacilityID": "100000019525",
          "name": "Illini FS - Martinsville NH3",
          "city": "Martinsville",
          "address": "13791 N Cline Orchard Rd",
          "lat_fac": 39.34891,
          "lon_fac": -87.83489,
          "names_prev": [
            "Illini FS, Inc. - Martinsville NH3"
          ],
          "sub_last": {
            "id": 1000079483,
            "date_val": "2019-05-22",
            "date_dereg": null,
            "lat_sub": "39.349193",
            "lon_sub": "-87.836012",
            "lat_frs": 39.34891,
            "lon_frs": -87.83489,
            "num_accidents": 1,
            "latest_accident": "2018-04-27"
          }
        },
        {
          "EPAFacilityID": "100000099378",
          "name": "West Union, IL",
          "city": "West Union",
          "address": "309 Darwin Street",
          "lat_fac": 39.31558,
          "lon_fac": -87.61931,
          "names_prev": [
            "Bunker Hill Supply Company"
          ],
          "sub_last": {
            "id": 1000040617,
            "date_val": "2014-06-13",
            "date_dereg": "2015-01-14",
            "lat_sub": "39.285527",
            "lon_sub": "-087.613924",
            "lat_frs": 39.31558,
            "lon_frs": -87.61931,
            "num_accidents": null,
            "latest_accident": null
          }
        },
        {
          "EPAFacilityID": "100000210808",
          "name": "West Union, IL 1400",
          "city": "West Union",
          "address": "7847 North State Highway 1",
          "lat_fac": null,
          "lon_fac": null,
          "names_prev": [
            "West Union, IL"
          ],
          "sub_last": {
            "id": 1000092228,
            "date_val": "2021-03-19",
            "date_dereg": null,
            "lat_sub": "39.264803",
            "lon_sub": "-87.669843",
            "lat_frs": null,
            "lon_frs": null,
            "num_accidents": null,
            "latest_accident": null
          }
        },
        {
          "EPAFacilityID": "100000175856",
          "name": "Westfield, IL",
          "city": "Westfield",
          "address": "620 East State Street",
          "lat_fac": 39.456,
          "lon_fac": -87.9895,
          "names_prev": [
            "Littlejohn Grain, Inc.",
            "Westfield Grain & Fertilizer, Inc.",
            "Westfield Grain and Fertilizer, Inc."
          ],
          "sub_last": {
            "id": 1000056191,
            "date_val": "2016-03-08",
            "date_dereg": "2016-09-30",
            "lat_sub": "39.455738",
            "lon_sub": "-087.989474",
            "lat_frs": 39.456,
            "lon_frs": -87.9895,
            "num_accidents": null,
            "latest_accident": null
          }
        }
      ]
    },
    {
      "fips": "17025",
      "name": "Clay County",
      "facilities": [
        {
          "EPAFacilityID": "100000117919",
          "name": "Clay City, IL 704",
          "city": "Clay City",
          "address": "101 Park Avenue SE",
          "lat_fac": 38.6494,
          "lon_fac": -88.3446,
          "names_prev": [
            "Clay City, IL 663",
            "CLAY CITY"
          ],
          "sub_last": {
            "id": 1000040630,
            "date_val": "2014-06-10",
            "date_dereg": "2016-05-03",
            "lat_sub": "38.679111",
            "lon_sub": "-088.352694",
            "lat_frs": 38.6494,
            "lon_frs": -88.3446,
            "num_accidents": null,
            "latest_accident": null
          }
        },
        {
          "EPAFacilityID": "100000148663",
          "name": "SOUTH CENTRAL FS  / CLAY CITY",
          "city": "CLAY CITY",
          "address": "3219 GREENBRIER LANE",
          "lat_fac": 38.65077,
          "lon_fac": -88.34435,
          "names_prev": [
            "EFFINGHAM CLAY SERVICE COMPANY / CLAY CITY",
            "Effingham Clay Service Company - Clay City"
          ],
          "sub_last": {
            "id": 1000005017,
            "date_val": "2011-10-05",
            "date_dereg": "2013-06-10",
            "lat_sub": "38.676944",
            "lon_sub": "-088.392500",
            "lat_frs": 38.65077,
            "lon_frs": -88.34435,
            "num_accidents": null,
            "latest_accident": null
          }
        },
        {
          "EPAFacilityID": "100000231769",
          "name": "Flora, IL 704",
          "city": "Flora",
          "address": "56 Industrial Parkway",
          "lat_fac": null,
          "lon_fac": null,
          "names_prev": [],
          "sub_last": {
            "id": 1000092231,
            "date_val": "2021-03-09",
            "date_dereg": null,
            "lat_sub": "38.665988",
            "lon_sub": "-088.458114",
            "lat_frs": null,
            "lon_frs": null,
            "num_accidents": null,
            "latest_accident": null
          }
        },
        {
          "EPAFacilityID": "100000186773",
          "name": "Sherwin-Williams Co. - Flora",
          "city": "Flora",
          "address": "14 Industrial Park",
          "lat_fac": null,
          "lon_fac": null,
          "names_prev": [],
          "sub_last": {
            "id": 1000079646,
            "date_val": "2019-05-30",
            "date_dereg": null,
            "lat_sub": "38.670000",
            "lon_sub": "-088.461389",
            "lat_frs": null,
            "lon_frs": null,
            "num_accidents": null,
            "latest_accident": null
          }
        },
        {
          "EPAFacilityID": "100000216777",
          "name": "South Central FS, Inc , Flora",
          "city": "Flora",
          "address": "11109 Old Hwy 50",
          "lat_fac": null,
          "lon_fac": null,
          "names_prev": [],
          "sub_last": {
            "id": 1000099786,
            "date_val": "2022-02-10",
            "date_dereg": null,
            "lat_sub": "38.671696",
            "lon_sub": "-88.454892",
            "lat_frs": null,
            "lon_frs": null,
            "num_accidents": null,
            "latest_accident": null
          }
        },
        {
          "EPAFacilityID": "100000116938",
          "name": "Louisville, IL 703",
          "city": "Louisville",
          "address": "1417 Kinmundy Road",
          "lat_fac": 38.8248,
          "lon_fac": -88.4857,
          "names_prev": [
            "Louisville, IL 639",
            "LOUISVILLE"
          ],
          "sub_last": {
            "id": 1000040635,
            "date_val": "2014-06-10",
            "date_dereg": "2015-11-16",
            "lat_sub": "38.766569",
            "lon_sub": "-088.519413",
            "lat_frs": 38.8248,
            "lon_frs": -88.4857,
            "num_accidents": null,
            "latest_accident": null
          }
        },
        {
          "EPAFacilityID": "100000148672",
          "name": "SOUTH CENTRAL FS  / LOUISVILLE",
          "city": "LOUISVILLE",
          "address": "902 CHESTNUT STREET",
          "lat_fac": 38.77249,
          "lon_fac": -88.51284,
          "names_prev": [
            "EFFINGHAM CLAY SERVICE COMPANY / LOUISVILLE",
            "Effingham Clay Service Company Louisville, IL"
          ],
          "sub_last": {
            "id": 1000006144,
            "date_val": "2011-10-05",
            "date_dereg": "2013-06-10",
            "lat_sub": "38.771389",
            "lon_sub": "-088.510833",
            "lat_frs": 38.77249,
            "lon_frs": -88.51284,
            "num_accidents": null,
            "latest_accident": null
          }
        }
      ]
    },
    {
      "fips": "17027",
      "name": "Clinton County",
      "facilities": [
        {
          "EPAFacilityID": "100000086364",
          "name": "Gateway FS, Inc - Breese",
          "city": "Breese",
          "address": "50 North Mine Street",
          "lat_fac": 38.6075,
          "lon_fac": -89.51667,
          "names_prev": [
            "AgriPride FS, Inc Breese",
            "AGRIPRIDE FS,INC.-BREESE",
            "AGRIPRIDE FS, INC - BREESE",
            "AGRIPRIDE FS, INC. BREESE"
          ],
          "sub_last": {
            "id": 1000095705,
            "date_val": "2021-08-26",
            "date_dereg": null,
            "lat_sub": "38.607500",
            "lon_sub": "-089.516667",
            "lat_frs": 38.6075,
            "lon_frs": -89.51667,
            "num_accidents": null,
            "latest_accident": null
          }
        },
        {
          "EPAFacilityID": "100000115476",
          "name": "Carlyle, IL 718",
          "city": "Carlyle",
          "address": "18929 Stolletown Road",
          "lat_fac": 38.69566,
          "lon_fac": -89.44676,
          "names_prev": [
            "Carlyle, IL 700",
            "STOLLETOWN"
          ],
          "sub_last": {
            "id": 1000091969,
            "date_val": "2021-03-11",
            "date_dereg": null,
            "lat_sub": "38.695887",
            "lon_sub": "-089.447317",
            "lat_frs": 38.69566,
            "lon_frs": -89.44676,
            "num_accidents": null,
            "latest_accident": null
          }
        },
        {
          "EPAFacilityID": "100000185514",
          "name": "Gateway FS, Inc. - Ferrin",
          "city": "CARLYLE",
          "address": "12805 FERRIN ROAD",
          "lat_fac": 38.60631,
          "lon_fac": -89.23356,
          "names_prev": [
            "AGRIPRIDE FS,INC.-FERRIN",
            "AGRIPRIDE FS, INC- FERRIN"
          ],
          "sub_last": {
            "id": 1000095707,
            "date_val": "2021-08-26",
            "date_dereg": null,
            "lat_sub": "38.608333",
            "lon_sub": "-089.233056",
            "lat_frs": 38.60631,
            "lon_frs": -89.23356,
            "num_accidents": null,
            "latest_accident": null
          }
        },
        {
          "EPAFacilityID": "100000116457",
          "name": "New Baden, IL 717",
          "city": "New Baden",
          "address": "1510 Bottom Road",
          "lat_fac": 38.45859,
          "lon_fac": -89.67567,
          "names_prev": [
            "New Baden, IL 597",
            "NEW MEMPHIS"
          ],
          "sub_last": {
            "id": 1000091975,
            "date_val": "2021-03-15",
            "date_dereg": null,
            "lat_sub": "38.458408",
            "lon_sub": "-089.674434",
            "lat_frs": 38.45859,
            "lon_frs": -89.67567,
            "num_accidents": null,
            "latest_accident": null
          }
        },
        {
          "EPAFacilityID": "100000064823",
          "name": "Saint Rose, IL",
          "city": "Saint Rose",
          "address": "8307 Main Street",
          "lat_fac": 38.68388,
          "lon_fac": -89.54865,
          "names_prev": [
            "EFFINGHAM EQUITY",
            "Kohlbrecher Truck Service Inc."
          ],
          "sub_last": {
            "id": 1000077907,
            "date_val": "2019-06-12",
            "date_dereg": null,
            "lat_sub": "38.685927",
            "lon_sub": "-089.549629",
            "lat_frs": 38.68388,
            "lon_frs": -89.54865,
            "num_accidents": null,
            "latest_accident": null
          }
        },
        {
          "EPAFacilityID": "100000030619",
          "name": "Top Ag Cooperative Inc - Trenton Location",
          "city": "Trenton",
          "address": "401 East Kentucky Street",
          "lat_fac": 38.60219,
          "lon_fac": -89.67769,
          "names_prev": [
            "Top Ag Cooperative Inc Trenton Location",
            "Trenton Cooperative Equity Exchange Trenton Branch",
            "Trenton Cooperative Equity Exchange Trenton",
            "TRENTON COOPERATIVE EQUITY EXCHANGE"
          ],
          "sub_last": {
            "id": 1000074527,
            "date_val": "2019-04-17",
            "date_dereg": null,
            "lat_sub": "38.602194",
            "lon_sub": "-089.677694",
            "lat_frs": 38.60219,
            "lon_frs": -89.67769,
            "num_accidents": null,
            "latest_accident": null
          }
        }
      ]
    },
    {
      "fips": "17029",
      "name": "Coles County",
      "facilities": [
        {
          "EPAFacilityID": "100000007404",
          "name": "SOUTH CENTRAL FS / ASHMORE",
          "city": "ASHMORE",
          "address": "EAST ROUTE 16",
          "lat_fac": 39.53544,
          "lon_fac": -88.01964,
          "names_prev": [
            "EFFINGHAM CLAY SERVICE COMPANY / ASHMORE",
            "Ashmore Ammonia"
          ],
          "sub_last": {
            "id": 1000079765,
            "date_val": "2019-05-31",
            "date_dereg": null,
            "lat_sub": "39.535448",
            "lon_sub": "-88.019722",
            "lat_frs": 39.53544,
            "lon_frs": -88.01964,
            "num_accidents": null,
            "latest_accident": null
          }
        },
        {
          "EPAFacilityID": "100000165304",
          "name": "Charleston",
          "city": "Charleston",
          "address": "2600 McKinley",
          "lat_fac": 39.47491,
          "lon_fac": -88.154,
          "names_prev": [],
          "sub_last": {
            "id": 19502,
            "date_val": "2000-01-11",
            "date_dereg": "2005-10-31",
            "lat_sub": "39.466944",
            "lon_sub": "-88.143056",
            "lat_frs": 39.47491,
            "lon_frs": -88.154,
            "num_accidents": null,
            "latest_accident": null
          }
        },
        {
          "EPAFacilityID": "100000007235",
          "name": "Charleston Ammonia",
          "city": "Charleston",
          "address": "4670 West State Street",
          "lat_fac": 39.50486,
          "lon_fac": -88.24172,
          "names_prev": [],
          "sub_last": {
            "id": 22759,
            "date_val": "2001-02-14",
            "date_dereg": "2004-06-28",
            "lat_sub": "39.504861",
            "lon_sub": "-88.241722",
            "lat_frs": 39.50486,
            "lon_frs": -88.24172,
            "num_accidents": null,
            "latest_accident": null
          }
        },