{
  "abbr": "NJ",
  "name": "New Jersey",
  "counties": [
    {
      "fips": "34003",
      "name": "Bergen County",
      "facilities": [
        {
          "EPAFacilityID": "100000103871",
          "name": "Manhattan Products, Inc.",
          "city": "Carlstadt",
          "address": "333 Starke Road",
          "lat_fac": 40.83378,
          "lon_fac": -74.07474,
          "names_prev": [],
          "sub_last": {
            "id": 8230,
            "date_val": "1999-07-08",
            "date_dereg": "2002-11-21",
            "lat_sub": "40.833333",
            "lon_sub": "-74.074639",
            "lat_frs": 40.83378,
            "lon_frs": -74.07474,
            "num_accidents": null,
            "latest_accident": null
          }
        },
        {
          "EPAFacilityID": "100000072208",
          "name": "FXI, Inc. - East Rutherford",
          "city": "East Rutherford",
          "address": "13 Manor Road",
          "lat_fac": 40.82558,
          "lon_fac": -74.08856,
          "names_prev": [
            "FXI",
            "FXI Foamex Innovations",
            "Foamex",
            "General Foam -East Rutherford, LLC"
          ],
          "sub_last": {
            "id": 1000088763,
            "date_val": "2020-07-20",
            "date_dereg": null,
            "lat_sub": "40.825833",
            "lon_sub": "-074.090556",
            "lat_frs": 40.82558,
            "lon_frs": -74.08856,
            "num_accidents": null,
            "latest_accident": null
          }
        },
        {
          "EPAFacilityID": "100000118892",
          "name": "Matheson Tri-Gas, Inc.",
          "city": "East Rutherford",
          "address": "932 Paterson Plank Road",
          "lat_fac": 40.83166,
          "lon_fac": -74.08763,
          "names_prev": [
            "Matheson Gas Products"
          ],
          "sub_last": {
            "id": 22211,
            "date_val": "2000-12-12",
            "date_dereg": "2002-08-08",
            "lat_sub": "40.832028",
            "lon_sub": "-74.087278",
            "lat_frs": 40.83166,
            "lon_frs": -74.08763,
            "num_accidents": null,
            "latest_accident": null
          }
        },
        {
          "EPAFacilityID": "100000091303",
          "name": "SANDVIK COROMANT COMPANY",
          "city": "FAIR LAWN",
          "address": "1702 NEVINS ROAD",
          "lat_fac": 40.94824,
          "lon_fac": -74.12955,
          "names_prev": [],
          "sub_last": {
            "id": 45050,
            "date_val": "2006-03-06",
            "date_dereg": "2006-10-05",
            "lat_sub": "40.948222",
            "lon_sub": "-074.129556",
            "lat_frs": 40.94824,
            "lon_frs": -74.12955,
            "num_accidents": null,
            "latest_accident": null
          }
        },
        {
          "EPAFacilityID": "100000108331",
          "name": "United Water NJ Haworth Water Treatment Plant",
          "city": "Haworth",
          "address": "200 Lake Shore Drive",
          "lat_fac": 40.95972,
          "lon_fac": -74.01556,
          "names_prev": [],
          "sub_last": {
            "id": 1000004294,
            "date_val": "2009-06-17",
            "date_dereg": "2012-06-11",
            "lat_sub": "40.959917",
            "lon_sub": "-074.013250",
            "lat_frs": 40.95972,
            "lon_frs": -74.01556,
            "num_accidents": null,
            "latest_accident": null
          }
        },
        {
          "EPAFacilityID": "100000032591",
          "name": "Bergen County Utilities Authority",
          "city": "Little Ferry",
          "address": "Foot of Mehrhof Road",
          "lat_fac": 40.83689,
          "lon_fac": -74.03322,
          "names_prev": [],
          "sub_last": {
            "id": 14798,
            "date_val": "1999-07-26",
            "date_dereg": "2000-06-21",
            "lat_sub": "40.845694",
            "lon_sub": "-74.041806",
            "lat_frs": 40.83689,
            "lon_frs": -74.03322,
            "num_accidents": null,
            "latest_accident": null
          }
        },
        {
          "EPAFacilityID": "100000093178",
          "name": "Woodbridge-INOAC Technical Products",
          "city": "Moonachie",
          "address": "100 Carol Place",
          "lat_fac": 40.83722,
          "lon_fac": -74.04889,
          "names_prev": [
            "Crest Foam Industries Incorporated - NJRMP version",
            "Crest Foam Industries Incorporated - USEPA RMP ver",
            "Crest Foam Industries Incorporated"
          ],
          "sub_last": {
            "id": 1000082282,
            "date_val": "2019-09-04",
            "date_dereg": null,
            "lat_sub": "40.837222",
            "lon_sub": "-074.048889",
            "lat_frs": 40.83722,
            "lon_frs": -74.04889,
            "num_accidents": null,
            "latest_accident": null
          }
        },
        {
          "EPAFacilityID": "100000241758",
          "name": "Wurth International Trading America, Inc.",
          "city": "Ramsey",
          "address": "91 Grant Street",
          "lat_fac": null,
          "lon_fac": null,
          "names_prev": [],
          "sub_last": {
            "id": 1000078522,
            "date_val": "2019-06-26",
            "date_dereg": null,
            "lat_sub": "41.077113",
            "lon_sub": "-74.144521",
            "lat_frs": null,
            "lon_frs": null,
            "num_accidents": null,
            "latest_accident": null
          }
        },
        {
          "EPAFacilityID": "100000132117",
          "name": "Bestfoods-Ridgefield",
          "city": "Ridgefield",
          "address": "1 Railroad Avenue",
          "lat_fac": 40.83327,
          "lon_fac": -74.01169,
          "names_prev": [],
          "sub_last": {
            "id": 12400,
            "date_val": "1999-07-15",
            "date_dereg": "2008-02-07",
            "lat_sub": "40.832778",
            "lon_sub": "74.012028",
            "lat_frs": 40.83327,
            "lon_frs": -74.01169,
            "num_accidents": null,
            "latest_accident": null
          }
        },
        {
          "EPAFacilityID": "100000157616",
          "name": "Pfister Chemical Inc.",
          "city": "Ridgefield",
          "address": "1200 Linden Avenue",
          "lat_fac": 40.8434,
          "lon_fac": -74.0087,
          "names_prev": [],
          "sub_last": {
            "id": 20737,
            "date_val": "2000-03-07",
            "date_dereg": "2002-06-21",
            "lat_sub": "40.842778",
            "lon_sub": "-74.009722",
            "lat_frs": 40.8434,
            "lon_frs": -74.0087,
            "num_accidents": null,
            "latest_accident": null
          }
        },
        {
          "EPAFacilityID": "100000042615",
          "name": "Farmland Dairies",
          "city": "Wallington",
          "address": "520 Main Avenue \u2022 P.O. Box 3340",
          "lat_fac": 40.86083,
          "lon_fac": -74.09847,
          "names_prev": [
            "Farmland Dairies, LLC",
            "Farmland Dairies Inc. - Northeast Business Unit",
            "Farmland Dairies Inc."
          ],
          "sub_last": {
            "id": 55913,
            "date_val": "2009-09-09",
            "date_dereg": "2014-03-19",
            "lat_sub": "40.860278",
            "lon_sub": "-074.098056",
            "lat_frs": 40.86083,
            "lon_frs": -74.09847,
            "num_accidents": null,
            "latest_accident": null
          }
        }
      ]
    },
    {
      "fips": "34005",
      "name": "Burlington County",
      "facilities": [
        {
          "EPAFacilityID": "100000046345",
          "name": "Burlington Generating Station",
          "city": "Burlington",
          "address": "West Broad And Devlin Avenue \u2022 MC110",
          "lat_fac": 40.078,
          "lon_fac": -74.87528,
          "names_prev": [],
          "sub_last": {
            "id": 26653,
            "date_val": "2002-09-24",
            "date_dereg": "2002-12-03",
            "lat_sub": "40.075917",
            "lon_sub": "-74.879694",
            "lat_frs": 40.078,
            "lon_frs": -74.87528,
            "num_accidents": null,
            "latest_accident": null
          }
        },
        {
          "EPAFacilityID": "100000127597",
          "name": "Colorite Specialty Resins",
          "city": "Burlington",
          "address": "35 Beverly Road",
          "lat_fac": 40.06985,
          "lon_fac": -74.87948,
          "names_prev": [
            "Colorite Polymers"
          ],
          "sub_last": {
            "id": 1000004465,
            "date_val": "2009-06-18",
            "date_dereg": "2009-10-16",
            "lat_sub": "40.070000",
            "lon_sub": "-074.880000",
            "lat_frs": 40.06985,
            "lon_frs": -74.87948,
            "num_accidents": null,
            "latest_accident": null
          }
        },
        {
          "EPAFacilityID": "100000164895",
          "name": "Hoeganaes Corporation",
          "city": "Cinnaminson",
          "address": "1001 Taylors Lane",
          "lat_fac": 40.02442,
          "lon_fac": -74.98419,
          "names_prev": [],
          "sub_last": {
            "id": 35960,
            "date_val": "2004-08-05",
            "date_dereg": "2009-10-05",
            "lat_sub": "40.022222",
            "lon_sub": "-074.986111",
            "lat_frs": 40.02442,
            "lon_frs": -74.98419,
            "num_accidents": null,
            "latest_accident": null
          }
        },
        {
          "EPAFacilityID": "100000153095",
          "name": "Delaware River Regional Water Treatment Plant",
          "city": "Delran",
          "address": "213 Carriage Lane",
          "lat_fac": 40.01376,
          "lon_fac": -74.97289,
          "names_prev": [],
          "sub_last": {
            "id": 1000039499,
            "date_val": "2017-05-22",
            "date_dereg": "2017-12-29",
            "lat_sub": "40.013958",
            "lon_sub": "-074.972778",
            "lat_frs": 40.01376,
            "lon_frs": -74.97289,
            "num_accidents": null,
            "latest_accident": null
          }
        },
        {
          "EPAFacilityID": "100000185177",
          "name": "DFA Dairy Brands Fluid, LLC dba Tuscan Dairy",
          "city": "Florence",
          "address": "117 Cumberland Blvd.",
          "lat_fac": 40.10556,
          "lon_fac": -74.79,
          "names_prev": [
            "Garelick Farms, LLC-Florence",
            "Garelick Farms"
          ],
          "sub_last": {
            "id": 1000075440,
            "date_val": "2020-10-26",
            "date_dereg": null,
            "lat_sub": "40.105556",
            "lon_sub": "-074.790000",
            "lat_frs": 40.10556,
            "lon_frs": -74.79,
            "num_accidents": null,
            "latest_accident": null
          }
        },
        {
          "EPAFacilityID": "100000151444",
          "name": "Huntsman Advanced Materials Americas, LLC.",
          "city": "Maple Shade",
          "address": "2980 Rte 73 North",
          "lat_fac": 39.95719,
          "lon_fac": -74.98816,
          "names_prev": [
            "CVC Specialty Chemicals, Inc.",
            "CVC Specialty Chemicals, Inc. - Maple Shade Plant"
          ],
          "sub_last": {
            "id": 1000076894,
            "date_val": "2021-11-09",
            "date_dereg": null,
            "lat_sub": "39.958916",
            "lon_sub": "-074.987890",
            "lat_frs": 39.95719,
            "lon_frs": -74.98816,
            "num_accidents": 4,
            "latest_accident": "2019-06-10"
          }
        },
        {
          "EPAFacilityID": "100000017616",
          "name": "National Casein - Riverton, NJ",
          "city": "Riverton",
          "address": "P.O. Box 226 \u2022 401 Martha's Lane",
          "lat_fac": 40.01361,
          "lon_fac": -75.00917,
          "names_prev": [],
          "sub_last": {
            "id": 1000012930,
            "date_val": "2010-03-22",
            "date_dereg": "2012-01-26",
            "lat_sub": "40.013717",
            "lon_sub": "-075.009228",
            "lat_frs": 40.01361,
            "lon_frs": -75.00917,
            "num_accidents": null,
            "latest_accident": null
          }
        }
      ]
    },
    {
      "fips": "34007",
      "name": "Camden County",
      "facilities": [
        {
          "EPAFacilityID": "100000064262",
          "name": "CAMDEN COGEN, LP",
          "city": "CAMDEN",
          "address": "570 CHELTON",
          "lat_fac": 39.91822,
          "lon_fac": -75.11814,
          "names_prev": [],
          "sub_last": {
            "id": 22156,
            "date_val": "2000-12-05",
            "date_dereg": "2002-07-23",
            "lat_sub": "39.9175",
            "lon_sub": "-75.119167",
            "lat_frs": 39.91822,
            "lon_frs": -75.11814,
            "num_accidents": null,
            "latest_accident": null
          }
        },
        {
          "EPAFacilityID": "100000085828",
          "name": "State Metal Industries, Inc.",
          "city": "Camden",
          "address": "941 South Second St. \u2022 P.O. Box 1407",
          "lat_fac": 39.93337,
          "lon_fac": -75.12759,
          "names_prev": [
            "State Metal Industries"
          ],
          "sub_last": {
            "id": 1000075538,
            "date_val": "2019-01-25",
            "date_dereg": null,
            "lat_sub": "39.933611",
            "lon_sub": "-075.128333",
            "lat_frs": 39.93337,
            "lon_frs": -75.12759,
            "num_accidents": 1,
            "latest_accident": "2018-05-15"
          }
        },
        {
          "EPAFacilityID": "100000040528",
          "name": "Camden Water - Morris-Delair Water Treatment Plant",
          "city": "Pennsauken",
          "address": "9800 Zimmerman Ave.",
          "lat_fac": 39.9866,
          "lon_fac": -75.04681,
          "names_prev": [
            "Camden Water L.L.C. - Morris-Delair WaterTreatment"
          ],
          "sub_last": {
            "id": 31177,
            "date_val": "2004-06-30",
            "date_dereg": "2006-11-01",
            "lat_sub": "39.988056",
            "lon_sub": "-075.050278",
            "lat_frs": 39.9866,
            "lon_frs": -75.04681,
            "num_accidents": null,
            "latest_accident": null
          }
        },
        {
          "EPAFacilityID": "100000186764",
          "name": "DuPont Pennsauken Plant",
          "city": "Pennsauken",
          "address": "1500 John Tipton Blvd",
          "lat_fac": null,
          "lon_fac": null,
          "names_prev": [
            "DDP Specialty Electronics Materials, Inc.",
            "Dow Chemical Pennsauken Site"
          ],
          "sub_last": {
            "id": 1000083064,
            "date_val": "2019-10-16",
            "date_dereg": null,
            "lat_sub": "39.982667",
            "lon_sub": "-075.040611",
            "lat_frs": null,
            "lon_frs": null,
            "num_accidents": null,
            "latest_accident": null
          }
        }
      ]
    },
    {
      "fips": "34009",
      "name": "Cape May County",
      "facilities": [
        {
          "EPAFacilityID": "100000237889",
          "name": "Lund's Fisheries Inc.",
          "city": "Cape May",
          "address": "997 Ocean Drive",
          "lat_fac": null,
          "lon_fac": null,
          "names_prev": [],
          "sub_last": {
            "id": 1000067786,
            "date_val": "2020-04-30",
            "date_dereg": null,
            "lat_sub": "38.957453",
            "lon_sub": "-074.876243",
            "lat_frs": null,
            "lon_frs": null,
            "num_accidents": null,
            "latest_accident": null
          }
        },
        {
          "EPAFacilityID": "100000011925",
          "name": "Wildwood/Lower Region",
          "city": "Rio Grande",
          "address": "2701 Route 47 South",
          "lat_fac": 38.94583,
          "lon_fac": -74.83333,
          "names_prev": [
            "Wildwood Lower WTF"
          ],
          "sub_last": {
            "id": 1000061860,
            "date_val": "2017-07-11",
            "date_dereg": "2021-03-19",
            "lat_sub": "38.999167",
            "lon_sub": "-074.853333",
            "lat_frs": 38.94583,
            "lon_frs": -74.83333,
            "num_accidents": null,
            "latest_accident": null
          }
        }
      ]
    },
    {
      "fips": "34011",
      "name": "Cumberland County",
      "facilities": [
        {
          "EPAFacilityID": "100000216394",
          "name": "South Jersey Terminal",
          "city": "Bridgeton",
          "address": "1709 South Burlington Road",
          "lat_fac": null,
          "lon_fac": null,
          "names_prev": [],
          "sub_last": {
            "id": 1000091336,
            "date_val": "2020-12-18",
            "date_dereg": null,
            "lat_sub": "39.457063",
            "lon_sub": "-75.203352",
            "lat_frs": null,
            "lon_frs": null,
            "num_accidents": null,
            "latest_accident": null
          }
        },
        {
          "EPAFacilityID": "100000006771",
          "name": "The Glass Group Millville Operations",
          "city": "Millville",
          "address": "1300 Wheaton Avenue",
          "lat_fac": 39.41081,
          "lon_fac": -75.03441,
          "names_prev": [
            "Wheaton USA Inc."
          ],
          "sub_last": {
            "id": 33383,
            "date_val": "2004-07-21",
            "date_dereg": "2006-03-29",
            "lat_sub": "39.407778",
            "lon_sub": "-075.034444",
            "lat_frs": 39.41081,
            "lon_frs": -75.03441,
            "num_accidents": null,
            "latest_accident": null
          }
        },
        {
          "EPAFacilityID": "100000017279",
          "name": "SEABROOK BROTHERS & SONS INC.",
          "city": "SEABROOK",
          "address": "85 FINLEY ROAD",
          "lat_fac": 39.48747,
          "lon_fac": -75.25617,
          "names_prev": [],
          "sub_last": {
            "id": 1000093458,
            "date_val": "2021-04-22",
            "date_dereg": null,
            "lat_sub": "39.487778",
            "lon_sub": "-075.220000",
            "lat_frs": 39.48747,
            "lon_frs": -75.25617,
            "num_accidents": null,
            "latest_accident": null
          }
        },
        {
          "EPAFacilityID": "100000174063",
          "name": "Bridor",
          "city": "Vineland",
          "address": "2260 Industrial Way",
          "lat_fac": null,
          "lon_fac": null,
          "names_prev": [
            "Bridor USA",
            "Bridor USA, Inc",
            "Pastridor USA LLC"
          ],
          "sub_last": {
            "id": 1000086863,
            "date_val": "2020-04-30",
            "date_dereg": null,
            "lat_sub": "39.515134",
            "lon_sub": "-075.065652",
            "lat_frs": null,
            "lon_frs": null,
            "num_accidents": null,
            "latest_accident": null
          }
        },
        {
          "EPAFacilityID": "100000092847",
          "name": "Casa Di Bertacchi Corporation",
          "city": "Vineland",
          "address": "1910 Gallagher Drive",
          "lat_fac": 39.53793,
          "lon_fac": -75.05901,
          "names_prev": [
            "Casa Di Bertacchi"
          ],
          "sub_last": {
            "id": 1000078958,
            "date_val": "2019-05-10",
            "date_dereg": null,
            "lat_sub": "39.538056",
            "lon_sub": "-075.059167",
            "lat_frs": 39.53793,
            "lon_frs": -75.05901,
            "num_accidents": null,
            "latest_accident": null
          }
        }
      ]
    },
    {
      "fips": "34013",
      "name": "Essex County",
      "facilities": [
        {
          "EPAFacilityID": "100000192999",
          "name": "New York Terminals, LLC (USEPA)",
          "city": "Elizabeth",
          "address": "534 South Front Street",
          "lat_fac": null,
          "lon_fac": null,
          "names_prev": [],
          "sub_last": {
            "id": 44160,
            "date_val": "2005-11-04",
            "date_dereg": "2008-11-07",
            "lat_sub": "40.639444",
            "lon_sub": "-074.196389",
            "lat_frs": null,
            "lon_frs": null,
            "num_accidents": null,
            "latest_accident": null
          }
        },
        {
          "EPAFacilityID": "100000132616",
          "name": "AMERICAN REFFUEL OF ESSEX COUNTY",
          "city": "NEWARK",
          "address": "183 RAYMOND BOULEVARD",
          "lat_fac": 40.73437,
          "lon_fac": -74.1276,
          "names_prev": [],
          "sub_last": {
            "id": 35738,
            "date_val": "2004-08-04",
            "date_dereg": "2005-07-19",
            "lat_sub": "40.739778",
            "lon_sub": "-074.126167",
            "lat_frs": 40.73437,
            "lon_frs": -74.1276,
            "num_accidents": null,
            "latest_accident": null
          }
        },
        {
          "EPAFacilityID": "100000026795",
          "name": "Benjamin Moore & Company, Newark, NJ Plant",
          "city": "Newark",
          "address": "134 Lister Avenue",
          "lat_fac": 40.74001,
          "lon_fac": -74.13248,
          "names_prev": [],
          "sub_last": {
            "id": 1000007280,
            "date_val": "2012-11-19",
            "date_dereg": "2014-04-25",
            "lat_sub": "40.740278",
            "lon_sub": "-074.133056",
            "lat_frs": 40.74001,
            "lon_frs": -74.13248,
            "num_accidents": 1,
            "latest_accident": "2005-03-22"
          }
        },
        {
          "EPAFacilityID": "100000231224",
          "name": "Boasso America Corporation",
          "city": "Newark",
          "address": "80 Doremus Ave",
          "lat_fac": null,
          "lon_fac": null,
          "names_prev": [],
          "sub_last": {
            "id": 1000054860,
            "date_val": "2018-04-13",
            "date_dereg": null,
            "lat_sub": "40.730980",
            "lon_sub": "-074.120796",
            "lat_frs": null,
            "lon_frs": null,
            "num_accidents": 1,
            "latest_accident": "2015-03-09"
          }
        },
        {
          "EPAFacilityID": "100000053997",
          "name": "Cardolite Corporation",
          "city": "Newark",
          "address": "500 Doremus Av.",
          "lat_fac": 40.71472,
          "lon_fac": -74.12722,
          "names_prev": [],
          "sub_last": {
            "id": 1000043016,
            "date_val": "2014-05-27",
            "date_dereg": "2016-01-15",
            "lat_sub": "40.715833",
            "lon_sub": "-074.125833",
            "lat_frs": 40.71472,
            "lon_frs": -74.12722,
            "num_accidents": 1,
            "latest_accident": "2013-01-27"
          }
        },
        {
          "EPAFacilityID": "100000176052",
          "name": "CHEM Fleur",
          "city": "Newark",
          "address": "150 Firmencich Way",
          "lat_fac": 40.70009,
          "lon_fac": -74.13144,
          "names_prev": [],
          "sub_last": {
            "id": 26321,
            "date_val": "2002-07-29",
            "date_dereg": "2006-06-22",
            "lat_sub": "40.701222",
            "lon_sub": "-74.128806",
            "lat_frs": 40.70009,
            "lon_frs": -74.13144,
            "num_accidents": null,
            "latest_accident": null
          }
        },
        {
          "EPAFacilityID": "100000028123",
          "name": "Deltech Resin Company",
          "city": "Newark",
          "address": "49 Rutherford Street",
          "lat_fac": 40.71245,
          "lon_fac": -74.13907,
          "names_prev": [
            "Adco Chemical Company"
          ],
          "sub_last": {
            "id": 1000038562,
            "date_val": "2018-07-03",
            "date_dereg": "2019-03-22",
            "lat_sub": "40.712250",
            "lon_sub": "-074.139750",
            "lat_frs": 40.71245,
            "lon_frs": -74.13907,
            "num_accidents": null,
            "latest_accident": null
          }
        },
        {
          "EPAFacilityID": "100000004522",
          "name": "Elan Incorporated",
          "city": "Newark",
          "address": "268 Doremus Avenue",
          "lat_fac": 40.72406,
          "lon_fac": -74.12402,
          "names_prev": [
            "Elan Chemical Company, Inc."
          ],
          "sub_last": {
            "id": 1000038542,
            "date_val": "2014-01-21",
            "date_dereg": "2019-02-15",
            "lat_sub": "40.723333",
            "lon_sub": "-074.123333",
            "lat_frs": 40.72406,
            "lon_frs": -74.12402,
            "num_accidents": null,
            "latest_accident": null
          }
        },
        {
          "EPAFacilityID": "100000169104",
          "name": "Fairmount Chemical Company, Inc.",
          "city": "Newark",
          "address": "117 Blanchard Street",
          "lat_fac": 40.73874,
          "lon_fac": -74.12949,
          "names_prev": [],
          "sub_last": {
            "id": 22109,
            "date_val": "2000-05-02",
            "date_dereg": "2000-09-11",
            "lat_sub": "40.738889",
            "lon_sub": "-74.13",
            "lat_frs": 40.73874,
            "lon_frs": -74.12949,
            "num_accidents": null,
            "latest_accident": null
          }
        },
        {
          "EPAFacilityID": "100000073181",
          "name": "General Chemical Newark works",
          "city": "Newark",
          "address": "330 Doremus Ave",
          "lat_fac": 40.72236,
          "lon_fac": -74.12464,
          "names_prev": [
            "General Chemical Corporation, Newark Works",
            "General Chemical Corporation"
          ],
          "sub_last": {
            "id": 45501,
            "date_val": "2006-04-25",
            "date_dereg": "2007-03-05",
            "lat_sub": "40.722361",
            "lon_sub": "-074.124639",
            "lat_frs": 40.72236,
            "lon_frs": -74.12464,
            "num_accidents": null,
            "latest_accident": null
          }
        },
        {
          "EPAFacilityID": "100000181439",
          "name": "GTS Welco - Newark, NJ",
          "city": "Newark",
          "address": "425 Avenue P",
          "lat_fac": 40.72194,
          "lon_fac": -74.13194,
          "names_prev": [
            "Welco-CGI - Newark, NJ"
          ],
          "sub_last": {
            "id": 50741,
            "date_val": "2008-01-31",
            "date_dereg": "2009-06-12",
            "lat_sub": "40.720556",
            "lon_sub": "-074.131667",
            "lat_frs": 40.72194,
            "lon_frs": -74.13194,
            "num_accidents": null,
            "latest_accident": null
          }
        },
        {
          "EPAFacilityID": "100000161576",
          "name": "Messinger Trucking & Warehouse Corporation",
          "city": "Newark",
          "address": "84-132 Lockwood Street",
          "lat_fac": 40.73561,
          "lon_fac": -74.13316,
          "names_prev": [],
          "sub_last": {
            "id": 21618,
            "date_val": "2000-07-14",
            "date_dereg": "2001-06-11",
            "lat_sub": "40.7375",
            "lon_sub": "-74.1325",
            "lat_frs": 40.73561,
            "lon_frs": -74.13316,
            "num_accidents": null,
            "latest_accident": null
          }
        },
        {
          "EPAFacilityID": "100000200935",
          "name": "Newark Acetylene Plant",
          "city": "Newark",
          "address": "321 Roanoke Avenue",
          "lat_fac": null,
          "lon_fac": null,
          "names_prev": [
            "Welco Acetylene  - Newark",
            "Welco Acetylene Corp."
          ],
          "sub_last": {
            "id": 1000100025,
            "date_val": "2022-02-21",
            "date_dereg": null,
            "lat_sub": "40.728175",
            "lon_sub": "-074.124400",
            "lat_frs": null,
            "lon_frs": null,
            "num_accidents": 3,
            "latest_accident": "2019-01-23"
          }
        },
        {
          "EPAFacilityID": "100000239173",
          "name": "Newark Tank Depot LLC",
          "city": "Newark",
          "address": "21 Hyatt Avenue",
          "lat_fac": null,
          "lon_fac": null,
          "names_prev": [],
          "sub_last": {
            "id": 1000089466,
            "date_val": "2020-08-21",
            "date_dereg": null,
            "lat_sub": "40.717258",
            "lon_sub": "-74.138011",
            "lat_frs": null,
            "lon_frs": null,
            "num_accidents": null,
            "latest_accident": null
          }
        },
        {
          "EPAFacilityID": "100000216456",
          "name": "SPM&T Newark NJ Terminal",
          "city": "Newark",
          "address": "436 Doremus Avenue",
          "lat_fac": null,
          "lon_fac": null,
          "names_prev": [
            "Sunoco Logistics Newark NJ Terminal"
          ],
          "sub_last": {
            "id": 1000089382,
            "date_val": "2020-08-14",
            "date_dereg": null,
            "lat_sub": "40.717629",
            "lon_sub": "-74.124877",
            "lat_frs": null,
            "lon_frs": null,
            "num_accidents": null,
            "latest_accident": null
          }
        },
        {
          "EPAFacilityID": "100000065715",
          "name": "Canoe Brook Station",
          "city": "Short Hills",
          "address": "167 JFK Parkway",
          "lat_fac": 40.74343,
          "lon_fac": -74.3531,
          "names_prev": [],
          "sub_last": {
            "id": 52461,
            "date_val": "2012-06-20",
            "date_dereg": "2012-10-19",
            "lat_sub": "40.745278",
            "lon_sub": "-074.354167",
            "lat_frs": 40.74343,
            "lon_frs": -74.3531,
            "num_accidents": null,
            "latest_accident": null
          }
        },
        {
          "EPAFacilityID": "100000217605",
          "name": "Al & John, Inc., dba Glenrock Hams",
          "city": "West Caldwell",
          "address": "147 Clinton Rd",
          "lat_fac": null,
          "lon_fac": null,
          "names_prev": [],
          "sub_last": {
            "id": 1000085202,
            "date_val": "2020-02-12",
            "date_dereg": null,
            "lat_sub": "40.855308",
            "lon_sub": "-074.299819",
            "lat_frs": null,
            "lon_frs": null,
            "num_accidents": null,
            "latest_accident": null
          }
        },
        {
          "EPAFacilityID": "100000091474",
          "name": "New York Sales Center -3M Company (EPA)",
          "city": "West Caldwell",
          "address": "15 Henderson Drive",
          "lat_fac": 40.8569,
          "lon_fac": -74.30035,
          "names_prev": [
            "New York Sales Center - 3M Company"
          ],
          "sub_last": {
            "id": 23844,
            "date_val": "2001-07-24",
            "date_dereg": "2003-04-09",
            "lat_sub": "40.858889",
            "lon_sub": "-74.295278",
            "lat_frs": 40.8569,
            "lon_frs": -74.30035,
            "num_accidents": null,
            "latest_accident": null
          }
        }
      ]
    },
    {
      "fips": "34015",
      "name": "Gloucester County",
      "facilities": [
        {
          "EPAFacilityID": "100000017983",
          "name": "Delaware River Plant",
          "city": "Bridgeport",
          "address": "170 Route 130 South",
          "lat_fac": 39.79079,
          "lon_fac": -75.39426,
          "names_prev": [
            "Valerus Delaware River Plant",
            "Ferro Delaware River Plant",
            "FERRO Delaware River Plant",
            "SOLUTIA Delaware River Plant"
          ],
          "sub_last": {
            "id": 1000089926,
            "date_val": "2020-09-24",
            "date_dereg": null,
            "lat_sub": "39.792583",
            "lon_sub": "-075.395278",
            "lat_frs": 39.79079,
            "lon_frs": -75.39426,
            "num_accidents": null,
            "latest_accident": null
          }
        },
        {
          "EPAFacilityID": "100000069374",
          "name": "Safety-Kleen (Bridgeport), Inc.",
          "city": "Bridgeport",
          "address": "Rts. 322 & I-295",
          "lat_fac": 39.78764,
          "lon_fac": -75.34914,
          "names_prev": [],
          "sub_last": {
            "id": 5403,
            "date_val": "1999-06-29",
            "date_dereg": "2001-10-29",
            "lat_sub": "39.788056",
            "lon_sub": "-75.35",
            "lat_frs": 39.78764,
            "lon_frs": -75.34914,
            "num_accidents": null,
            "latest_accident": null
          }
        },
        {
          "EPAFacilityID": "100000078373",
          "name": "VWR International, LLC",
          "city": "Bridgeport",
          "address": "2039 Center Square Road",
          "lat_fac": 39.80083,
          "lon_fac": -75.34778,
          "names_prev": [
            "VWR International LLC",
            "VWR International",
            "VWR International, Inc",
            "VWR Scientific Products Corp."
          ],
          "sub_last": {
            "id": 1000094543,
            "date_val": "2021-11-16",
            "date_dereg": null,
            "lat_sub": "39.765831",
            "lon_sub": "-075.363825",
            "lat_frs": 39.80083,
            "lon_frs": -75.34778,
            "num_accidents": null,
            "latest_accident": null
          }
        },
        {
          "EPAFacilityID": "100000163093",
          "name": "Delaware River Partners LLC",
          "city": "Gibbstown",
          "address": "200 N Repauno Ave",
          "lat_fac": 39.84083,
          "lon_fac": -75.29763,
          "names_prev": [
            "Repauno Products, LLC"
          ],
          "sub_last": {
            "id": 1000097202,
            "date_val": "2021-10-29",
            "date_dereg": null,
            "lat_sub": "39.840868",
            "lon_sub": "-075.302593",
            "lat_frs": 39.84083,
            "lon_frs": -75.29763,
            "num_accidents": null,
            "latest_accident": null
          }
        },
        {
          "EPAFacilityID": "100000087764",
          "name": "COIM USA, Inc.",
          "city": "Paulsboro",
          "address": "675 Billingsport Road",
          "lat_fac": 39.83819,
          "lon_fac": -75.24939,
          "names_prev": [
            "Air Products and Chemicals, Inc."
          ],
          "sub_last": {
            "id": 1000081348,
            "date_val": "2019-09-18",
            "date_dereg": null,
            "lat_sub": "39.837222",
            "lon_sub": "-075.249167",
            "lat_frs": 39.83819,
            "lon_frs": -75.24939,
            "num_accidents": null,
            "latest_accident": null
          }
        },
        {
          "EPAFacilityID": "100000056734",
          "name": "Paulsboro Refining Company LLC",
          "city": "Paulsboro",
          "address": "800 Billingsport Road",
          "lat_fac": 39.84275,
          "lon_fac": -75.26239,
          "names_prev": [
            "Valero Refining Co. - New Jersey"
          ],
          "sub_last": {
            "id": 1000070497,
            "date_val": "2021-02-25",
            "date_dereg": null,
            "lat_sub": "39.840556",
            "lon_sub": "-075.259444",
            "lat_frs": 39.84275,
            "lon_frs": -75.26239,
            "num_accidents": 2,
            "latest_accident": "2015-09-20"
          }
        },
        {
          "EPAFacilityID": "100000245914",
          "name": "PBF Logistics Products Terminals LLC",
          "city": "Paulsboro",
          "address": "Third St. & Billingsport Road",
          "lat_fac": null,
          "lon_fac": null,
          "names_prev": [],
          "sub_last": {
            "id": 1000091443,
            "date_val": "2021-02-17",
            "date_dereg": null,
            "lat_sub": "39.847969",
            "lon_sub": "-75.250200",
            "lat_frs": null,
            "lon_frs": null,
            "num_accidents": null,
            "latest_accident": null
          }
        },
        {
          "EPAFacilityID": "100000185364",
          "name": "Aryzta LLC",
          "city": "Swedesboro",
          "address": "11 Technology Drive",
          "lat_fac": 39.7625,
          "lon_fac": -75.37278,
          "names_prev": [
            "LaBrea Bakery"
          ],
          "sub_last": {
            "id": 1000076431,
            "date_val": "2019-10-16",
            "date_dereg": null,
            "lat_sub": "39.761224",
            "lon_sub": "-75.372661",
            "lat_frs": 39.7625,
            "lon_frs": -75.37278,
            "num_accidents": null,
            "latest_accident": null
          }
        },
        {
          "EPAFacilityID": "100000085007",
          "name": "Logan Generating Co., L.P.",
          "city": "Swedesboro",
          "address": "76 Route 130",
          "lat_fac": 39.78972,
          "lon_fac": -75.40333,
          "names_prev": [],
          "sub_last": {
            "id": 1000079937,
            "date_val": "2021-03-29",
            "date_dereg": null,
            "lat_sub": "39.791553",
            "lon_sub": "-075.407445",
            "lat_frs": 39.78972,
            "lon_frs": -75.40333,
            "num_accidents": null,
            "latest_accident": null
          }
        },
        {
          "EPAFacilityID": "100000203317",
          "name": "Coim USA, INC.",
          "city": "West Deptford",
          "address": "286 Mantua Grove Road \u2022 Building 1",
          "lat_fac": null,
          "lon_fac": null,
          "names_prev": [],
          "sub_last": {
            "id": 1000081349,
            "date_val": "2019-07-18",
            "date_dereg": null,
            "lat_sub": "39.823222",
            "lon_sub": "-075.212527",
            "lat_frs": null,
            "lon_frs": null,
            "num_accidents": null,
            "latest_accident": null
          }
        },
        {
          "EPAFacilityID": "100000043302",
          "name": "Johnson Matthey Inc.",
          "city": "West Deptford",
          "address": "2001 Nolte Drive",
          "lat_fac": 39.81728,
          "lon_fac": -75.20862,
          "names_prev": [],
          "sub_last": {
            "id": 1000093528,
            "date_val": "2021-05-03",
            "date_dereg": null,
            "lat_sub": "39.816389",
            "lon_sub": "-075.210556",
            "lat_frs": 39.81728,
            "lon_frs": -75.20862,
            "num_accidents": 1,
            "latest_accident": "2019-03-18"
          }
        },
        {
          "EPAFacilityID": "100000131733",
          "name": "Solvay Specialty Polymers USA, LLC, West Deptford",
          "city": "West Deptford",
          "address": "10 Leonard Lane",
          "lat_fac": 39.84275,
          "lon_fac": -75.20965,
          "names_prev": [
            "Solvay Specialty Polymers West Deptford Plant",
            "Thorofare Plant",
            "Solvay Solexis, Inc. - Thorofare Plant",
            "Ausimont USA, Inc.- Thorofare Plant"
          ],
          "sub_last": {
            "id": 1000095784,
            "date_val": "2021-09-01",
            "date_dereg": null,
            "lat_sub": "39.842902",
            "lon_sub": "-75.208859",
            "lat_frs": 39.84275,
            "lon_frs": -75.20965,
            "num_accidents": null,
            "latest_accident": null
          }
        },
        {
          "EPAFacilityID": "100000051775",
          "name": "Eagle Point Facility",
          "city": "Westville",
          "address": "1240 Crown Point Road",
          "lat_fac": 39.86153,
          "lon_fac": -75.15217,
          "names_prev": [
            "Sunoco Logistics Eagle Point NJ",
            "Sunoco Partners Mktg. & Terminals Eagle Point Term",
            "Sunoco, Inc.(R&M) Eagle Point Refinery",
            "Sunoco Eagle Point Refinery",
            "Sunoco, Inc. (R&M) Eagle Point Refinery",
            "Coastal Eagle Point Oil Company"
          ],
          "sub_last": {
            "id": 1000071323,
            "date_val": "2019-08-13",
            "date_dereg": null,
            "lat_sub": "39.867201",
            "lon_sub": "-75.154938",
            "lat_frs": 39.86153,
            "lon_frs": -75.15217,
            "num_accidents": null,
            "latest_accident": null
          }
        },
        {
          "EPAFacilityID": "100000194345",
          "name": "Grasso Foods, Inc.",
          "city": "Woolwich Township",
          "address": "9 Ogden Road",
          "lat_fac": null,
          "lon_fac": null,
          "names_prev": [],
          "sub_last": {
            "id": 1000097362,
            "date_val": "2021-11-03",
            "date_dereg": null,
            "lat_sub": "39.731667",
            "lon_sub": "-075.319167",
            "lat_frs": null,
            "lon_frs": null,
            "num_accidents": null,
            "latest_accident": null
          }
        }
      ]
    },
    {
      "fips": "34017",
      "name": "Hudson County",
      "facilities": [
        {
          "EPAFacilityID": "100000129648",
          "name": "AGC Chemicals Americas, Inc.",
          "city": "Bayonne",
          "address": "229 East 22nd Street",
          "lat_fac": 40.66055,
          "lon_fac": -74.10473,
          "names_prev": [
            "Asahi Glass Fluoropolymers, inc.",
            "ICI Americas, Inc."
          ],
          "sub_last": {
            "id": 46628,
            "date_val": "2006-09-21",
            "date_dereg": "2008-01-18",
            "lat_sub": "40.659444",
            "lon_sub": "-074.105833",
            "lat_frs": 40.66055,
            "lon_frs": -74.10473,
            "num_accidents": 1,
            "latest_accident": "2002-03-19"
          }
        },
        {
          "EPAFacilityID": "100000064397",
          "name": "Bayonne Plant Holding L.L.C.",
          "city": "Bayonne",
          "address": "10 Hook Rd.",
          "lat_fac": 40.65184,
          "lon_fac": -74.09704,
          "names_prev": [
            "BAYONNE PLANT HOLDING, L.L.C.",
            "COGEN TECHNOLOGIES NJ VENTURE"
          ],
          "sub_last": {
            "id": 1000053939,
            "date_val": "2016-04-01",
            "date_dereg": "2020-12-01",
            "lat_sub": "40.650833",
            "lon_sub": "-074.111667",
            "lat_frs": 40.65184,
            "lon_frs": -74.09704,
            "num_accidents": 1,
            "latest_accident": "2013-06-03"
          }
        },
        {
          "EPAFacilityID": "100000038835",
          "name": "IMTT-Bayonne LLC",
          "city": "Bayonne",
          "address": "250 East 22nd Street",
          "lat_fac": 40.65597,
          "lon_fac": -74.10303,
          "names_prev": [
            "IMTT-Bayonne"
          ],
          "sub_last": {
            "id": 1000080466,
            "date_val": "2019-06-18",
            "date_dereg": null,
            "lat_sub": "40.655556",
            "lon_sub": "-074.111111",
            "lat_frs": 40.65597,
            "lon_frs": -74.10303,
            "num_accidents": null,
            "latest_accident": null
          }
        },
        {
          "EPAFacilityID": "100000051187",
          "name": "The Muralo Company",
          "city": "Bayonne",
          "address": "148 East 5th Street",
          "lat_fac": 40.65044,
          "lon_fac": -74.12187,
          "names_prev": [
            "The Muralo Company, Inc.",
            "The Muralo Co Inc. Norton & Son Div."
          ],
          "sub_last": {
            "id": 1000039477,
            "date_val": "2014-03-10",
            "date_dereg": "2015-03-23",
            "lat_sub": "40.651389",
            "lon_sub": "-074.119722",
            "lat_frs": 40.65044,
            "lon_frs": -74.12187,
            "num_accidents": null,
            "latest_accident": null
          }
        },
        {
          "EPAFacilityID": "100000226392",
          "name": "Ahold eCommerce Sales Company LLC",
          "city": "Jersey City",
          "address": "255 Route 1 & 9 Suite 200",
          "lat_fac": null,
          "lon_fac": null,
          "names_prev": [],
          "sub_last": {
            "id": 1000081420,
            "date_val": "2019-07-22",
            "date_dereg": null,
            "lat_sub": "40.735427",
            "lon_sub": "-074.087913",
            "lat_frs": null,
            "lon_frs": null,
            "num_accidents": null,
            "latest_accident": null
          }
        },
        {
          "EPAFacilityID": "100000129327",
          "name": "Dye Specialties, Inc.",
          "city": "Jersey City",
          "address": "407 Ege Ave",
          "lat_fac": 40.71948,
          "lon_fac": -74.09212,
          "names_prev": [],
          "sub_last": {
            "id": 12141,
            "date_val": "1999-07-14",
            "date_dereg": "2003-02-20",
            "lat_sub": "40.719444",
            "lon_sub": "-74.0925",
            "lat_frs": 40.71948,
            "lon_frs": -74.09212,
            "num_accidents": null,
            "latest_accident": null
          }
        },
        {
          "EPAFacilityID": "100000213226",
          "name": "PSEG Fossil, LLC - Hudson Generating Station",
          "city": "Jersey City",
          "address": "Duffield and Van Keuren Avenue",
          "lat_fac": null,
          "lon_fac": null,
          "names_prev": [
            "PSEG Fossil, LLC - Hudson Generating Staiton"
          ],
          "sub_last": {
            "id": 1000060062,
            "date_val": "2017-06-08",
            "date_dereg": "2017-07-03",
            "lat_sub": "40.749122",
            "lon_sub": "-074.071446",
            "lat_frs": null,
            "lon_frs": null,
            "num_accidents": null,
            "latest_accident": null
          }
        },
        {
          "EPAFacilityID": "100000062399",
          "name": "Tropicana Northeast Operations",
          "city": "Jersey City",
          "address": "9 Linden Ave. East",
          "lat_fac": 40.68732,
          "lon_fac": -74.08115,
          "names_prev": [],
          "sub_last": {
            "id": 1000084623,
            "date_val": "2020-01-20",
            "date_dereg": null,
            "lat_sub": "40.685556",
            "lon_sub": "-074.086944",
            "lat_frs": 40.68732,
            "lon_frs": -74.08115,
            "num_accidents": null,
            "latest_accident": null
          }
        },
        {
          "EPAFacilityID": "100000041572",
          "name": "Ashland Inc.  - Kearny, NJ",
          "city": "Kearny",
          "address": "1106 Harrison Avenue",
          "lat_fac": 40.74854,
          "lon_fac": -74.14106,
          "names_prev": [
            "Ashland Specialty Chemical Company - Kearny, NJ"
          ],
          "sub_last": {
            "id": 1000001918,
            "date_val": "2009-10-02",
            "date_dereg": "2009-10-08",
            "lat_sub": "40.748333",
            "lon_sub": "-074.140000",
            "lat_frs": 40.74854,
            "lon_frs": -74.14106,
            "num_accidents": null,
            "latest_accident": null
          }
        },
        {
          "EPAFacilityID": "100000025215",
          "name": "Kuehne Chemical Co., Inc.",
          "city": "South Kearny",
          "address": "86 N. Hackensack Avenue",
          "lat_fac": 40.73422,
          "lon_fac": -74.10103,
          "names_prev": [
            "Kuehne Chemical Company Inc."
          ],
          "sub_last": {
            "id": 1000075987,
            "date_val": "2019-02-11",
            "date_dereg": null,
            "lat_sub": "40.733333",
            "lon_sub": "-074.100000",
            "lat_frs": 40.73422,
            "lon_frs": -74.10103,
            "num_accidents": 1,
            "latest_accident": "2016-05-13"
          }
        }
      ]
    },
    {
      "fips": "34019",
      "name": "Hunterdon County",
      "facilities": [
        {
          "EPAFacilityID": "100000148164",
          "name": "Johanna Foods, Inc.",
          "city": "FLEMINGTON",
          "address": "JOHANNA FARMS ROAD",
          "lat_fac": 40.48986,
          "lon_fac": -74.86809,
          "names_prev": [],
          "sub_last": {
            "id": 1000093104,
            "date_val": "2021-04-06",
            "date_dereg": null,
            "lat_sub": "40.493056",
            "lon_sub": "-074.869444",
            "lat_frs": 40.48986,
            "lon_frs": -74.86809,
            "num_accidents": 1,
            "latest_accident": "2019-02-06"
          }
        },
        {
          "EPAFacilityID": "100000217348",
          "name": "Rinchem Company Inc. (CSC 24)",
          "city": "Raritan Township",
          "address": "55 River Road",
          "lat_fac": null,
          "lon_fac": null,
          "names_prev": [
            "Rinchem Company Inc.",
            "Rinchem Company Inc. - Flemington CSC 24"
          ],
          "sub_last": {
            "id": 1000086005,
            "date_val": "2021-03-25",
            "date_dereg": null,
            "lat_sub": "40.522368",
            "lon_sub": "-74.8324487",
            "lat_frs": null,
            "lon_frs": null,
            "num_accidents": null,
            "latest_accident": null
          }
        },
        {
          "EPAFacilityID": "100000186755",
          "name": "Readington Farms, Inc.",
          "city": "Whitehouse",
          "address": "12 Mill Road",
          "lat_fac": null,
          "lon_fac": null,
          "names_prev": [],
          "sub_last": {
            "id": 55945,
            "date_val": "2009-10-01",
            "date_dereg": "2009-10-22",
            "lat_sub": "40.624444",
            "lon_sub": "-074.759722",
            "lat_frs": null,
            "lon_frs": null,
            "num_accidents": null,
            "latest_accident": null
          }
        }
      ]
    },
    {
      "fips": "34021",
      "name": "Mercer County",
      "facilities": [
        {
          "EPAFacilityID": "100000185792",
          "name": "PSEG Fossil, LLC - Mercer Generating Station",
          "city": "Hamilton",
          "address": "2512 Lamberton Rd.",
          "lat_fac": 40.17694,
          "lon_fac": -74.72778,
          "names_prev": [],
          "sub_last": {
            "id": 1000045423,
            "date_val": "2016-09-27",
            "date_dereg": "2017-07-13",
            "lat_sub": "40.178707",
            "lon_sub": "-074.733870",
            "lat_frs": 40.17694,
            "lon_frs": -74.72778,
            "num_accidents": null,
            "latest_accident": null
          }
        },
        {
          "EPAFacilityID": "100000024243",
          "name": "River Road Plant Chlorination and De-Chlorination",
          "city": "Princeton",
          "address": "290 River Road",
          "lat_fac": 40.38353,
          "lon_fac": -74.62361,
          "names_prev": [],
          "sub_last": {
            "id": 1998,
            "date_val": "1999-06-10",
            "date_dereg": "2000-06-26",
            "lat_sub": "40.383333",
            "lon_sub": "-74.622222",
            "lat_frs": 40.38353,
            "lon_frs": -74.62361,
            "num_accidents": null,
            "latest_accident": null
          }
        },
        {
          "EPAFacilityID": "100000177603",
          "name": "Trenton Process and Distribution Center",
          "city": "Trenton",
          "address": "680 Highway 130",
          "lat_fac": 40.19282,
          "lon_fac": -74.64754,
          "names_prev": [
            "Trenton Processing and Distribution Center"
          ],
          "sub_last": {
            "id": 28628,
            "date_val": "2003-07-29",
            "date_dereg": "2004-01-15",
            "lat_sub": "40.193444",
            "lon_sub": "-74.649",
            "lat_frs": 40.19282,
            "lon_frs": -74.64754,
            "num_accidents": null,
            "latest_accident": null
          }
        },
        {
          "EPAFacilityID": "100000008662",
          "name": "Trenton Water Works - Filtration Plant - EPARMP",
          "city": "Trenton",
          "address": "RT 29 East West Highway",
          "lat_fac": 40.22265,
          "lon_fac": -74.77868,
          "names_prev": [],
          "sub_last": {
            "id": 1000046560,
            "date_val": "2016-11-15",
            "date_dereg": "2019-06-25",
            "lat_sub": "40.222500",
            "lon_sub": "-074.778611",
            "lat_frs": 40.22265,
            "lon_frs": -74.77868,
            "num_accidents": 1,
            "latest_accident": "2014-07-23"
          }
        }
      ]
    },
    {
      "fips": "34023",
      "name": "Middlesex County",
      "facilities": [
        {
          "EPAFacilityID": "100000233384",
          "name": "Dana Corporation",
          "city": "Avenel",
          "address": "210 East Essex Avenue",
          "lat_fac": null,
          "lon_fac": null,
          "names_prev": [
            "Dana Companies"
          ],
          "sub_last": {
            "id": 1000085450,
            "date_val": "2020-07-07",
            "date_dereg": null,
            "lat_sub": "40.572147",
            "lon_sub": "-074.261640",
            "lat_frs": null,
            "lon_frs": null,
            "num_accidents": null,
            "latest_accident": null
          }
        },
        {
          "EPAFacilityID": "100000116796",
          "name": "Kinder Morgan Carteret Facility",
          "city": "Carteret",
          "address": "78 Lafayette Street",
          "lat_fac": 40.58525,
          "lon_fac": -74.21381,
          "names_prev": [
            "Kinder Morgan Liquid Terminal - Carteret",
            "GATX Terminals Corporation - Carteret Terminal"
          ],
          "sub_last": {
            "id": 1000088432,
            "date_val": "2021-06-07",
            "date_dereg": null,
            "lat_sub": "40.589553",
            "lon_sub": "-074.209985",
            "lat_frs": 40.58525,
            "lon_frs": -74.21381,
            "num_accidents": null,
            "latest_accident": null
          }
        },
        {
          "EPAFacilityID": "100000107412",
          "name": "Armkel LLC - Cranbury",
          "city": "Cranbury",
          "address": "Half Acre Road",
          "lat_fac": 40.30869,
          "lon_fac": -74.48739,
          "names_prev": [
            "Carter-Wallace, Inc. (Cranbury)"
          ],
          "sub_last": {
            "id": 24205,
            "date_val": "2001-09-27",
            "date_dereg": "2002-06-03",
            "lat_sub": "40.308694",
            "lon_sub": "-74.487389",
            "lat_frs": 40.30869,
            "lon_frs": -74.48739,
            "num_accidents": null,
            "latest_accident": null
          }
        },
        {
          "EPAFacilityID": "100000222519",
          "name": "L'Oreal USA Inc",
          "city": "Cranbury",
          "address": "35 Broadway Road",
          "lat_fac": null,
          "lon_fac": null,
          "names_prev": [],
          "sub_last": {
            "id": 1000070299,
            "date_val": "2018-06-12",
            "date_dereg": null,
            "lat_sub": "40.338570",
            "lon_sub": "-74.509869",
            "lat_frs": null,
            "lon_frs": null,
            "num_accidents": null,
            "latest_accident": null
          }
        },
        {
          "EPAFacilityID": "100000159277",
          "name": "Plant Food Company Inc.",
          "city": "Cranbury",
          "address": "38 Hightstown-Cranbury Station Road",
          "lat_fac": 40.28579,
          "lon_fac": -74.50703,
          "names_prev": [],
          "sub_last": {
            "id": 16488,
            "date_val": "1999-08-20",
            "date_dereg": "2000-02-25",
            "lat_sub": "40.286111",
            "lon_sub": "-74.509167",
            "lat_frs": 40.28579,
            "lon_frs": -74.50703,
            "num_accidents": null,
            "latest_accident": null
          }
        },
        {
          "EPAFacilityID": "100000107635",
          "name": "Armkel LLC - Dayton Dist. Center",
          "city": "Dayton",
          "address": "30 Tower Road",
          "lat_fac": 40.37,
          "lon_fac": -74.46607,
          "names_prev": [
            "Carter-Wallace, Inc. - Dayton Dist. Center"
          ],
          "sub_last": {
            "id": 24204,
            "date_val": "2001-09-27",
            "date_dereg": "2002-06-03",
            "lat_sub": "40.373333",
            "lon_sub": "-74.469361",
            "lat_frs": 40.37,
            "lon_frs": -74.46607,
            "num_accidents": null,
            "latest_accident": null
          }
        },
        {
          "EPAFacilityID": "100000241721",
          "name": "Hilti Inc",
          "city": "Dayton",
          "address": "1 Industrial Road",
          "lat_fac": null,
          "lon_fac": null,
          "names_prev": [],
          "sub_last": {
            "id": 1000077953,
            "date_val": "2019-04-16",
            "date_dereg": null,
            "lat_sub": "40.373611",
            "lon_sub": "-074.490833",
            "lat_frs": null,
            "lon_frs": null,
            "num_accidents": null,
            "latest_accident": null
          }
        },
        {
          "EPAFacilityID": "100000129906",
          "name": "Wacker Polymers",
          "city": "Dayton",
          "address": "11 Corn Road",
          "lat_fac": 40.3659,
          "lon_fac": -74.49147,
          "names_prev": [
            "Wacker Polymers, L.P.",
            "Air Products Polymers, L.P.",
            "Air Products Polymers LP"
          ],
          "sub_last": {
            "id": 52712,
            "date_val": "2008-10-08",
            "date_dereg": "2009-07-24",
            "lat_sub": "40.365000",
            "lon_sub": "-074.491667",
            "lat_frs": 40.3659,
            "lon_frs": -74.49147,
            "num_accidents": null,
            "latest_accident": null
          }
        },
        {
          "EPAFacilityID": "100000124484",
          "name": "Amerchol Corporation",
          "city": "Edison",
          "address": "136 Talmadge Road",
          "lat_fac": 40.53259,
          "lon_fac": -74.39447,
          "names_prev": [],
          "sub_last": {
            "id": 11755,
            "date_val": "1999-07-13",
            "date_dereg": "2002-01-18",
            "lat_sub": "40.533056",
            "lon_sub": "-74.396389",
            "lat_frs": 40.53259,
            "lon_frs": -74.39447,
            "num_accidents": null,
            "latest_accident": null
          }
        },
        {
          "EPAFacilityID": "100000057396",
          "name": "Carl J. Olsen Water Treatment Plant",
          "city": "Edison",
          "address": "100 Fairview Avenue",
          "lat_fac": 40.51199,
          "lon_fac": -74.42507,
          "names_prev": [],
          "sub_last": {
            "id": 47429,
            "date_val": "2007-01-19",
            "date_dereg": "2009-12-04",
            "lat_sub": "40.511112",
            "lon_sub": "-074.428612",
            "lat_frs": 40.51199,
            "lon_frs": -74.42507,
            "num_accidents": 1,
            "latest_accident": "2003-07-15"
          }
        },
        {
          "EPAFacilityID": "100000190474",
          "name": "Crest Foam",
          "city": "Edison",
          "address": "521 Sunfield Ave",
          "lat_fac": null,
          "lon_fac": null,
          "names_prev": [],
          "sub_last": {
            "id": 41812,
            "date_val": "2005-01-28",
            "date_dereg": "2009-04-24",
            "lat_sub": "40.500000",
            "lon_sub": "-074.366667",
            "lat_frs": null,
            "lon_frs": null,
            "num_accidents": null,
            "latest_accident": null
          }
        },
        {
          "EPAFacilityID": "100000090849",
          "name": "Equistar Chemicals, LP",
          "city": "Edison",
          "address": "340 Meadow Road",
          "lat_fac": 40.49158,
          "lon_fac": -74.38624,
          "names_prev": [
            "Basell USA Inc.",
            "Akzo Nobel Polymer Chemicals LLC",
            "AKZO NOBEL Chemicals Inc."
          ],
          "sub_last": {
            "id": 1000073720,
            "date_val": "2021-03-15",
            "date_dereg": null,
            "lat_sub": "40.490278",
            "lon_sub": "-074.385278",
            "lat_frs": 40.49158,
            "lon_frs": -74.38624,
            "num_accidents": 1,
            "latest_accident": "2020-08-23"
          }
        },
        {
          "EPAFacilityID": "100000197048",
          "name": "GRACE EDISON PLANT",
          "city": "EDISON",
          "address": "340 MEADOW ROAD",
          "lat_fac": null,
          "lon_fac": null,
          "names_prev": [
            "GRACE DAVISON EDISON PLANT",
            "Grace Davison"
          ],
          "sub_last": {
            "id": 1000036883,
            "date_val": "2014-04-04",
            "date_dereg": "2018-12-04",
            "lat_sub": "40.490278",
            "lon_sub": "-074.385278",
            "lat_frs": null,
            "lon_frs": null,
            "num_accidents": null,
            "latest_accident": null
          }
        },
        {
          "EPAFacilityID": "100000161549",
          "name": "Jacobson Warehouse Co. Inc.",
          "city": "Edison",
          "address": "175 Raritan Center Parkway",
          "lat_fac": 40.5144,
          "lon_fac": -74.33979,
          "names_prev": [
            "Exel Logistics-BASF Northeast Distribution Center",
            "Exel Logistics - BASF Northeast Distribution Centr"
          ],
          "sub_last": {
            "id": 26842,
            "date_val": "2002-10-24",
            "date_dereg": "2004-06-08",
            "lat_sub": "40.514722",
            "lon_sub": "-74.340833",
            "lat_frs": 40.5144,
            "lon_frs": -74.33979,
            "num_accidents": null,
            "latest_accident": null
          }
        },
        {
          "EPAFacilityID": "100000102266",
          "name": "Mobil Chemical Co. - Edison Research Laboratory",
          "city": "Edison",
          "address": "2195 Highway 27 & Vineyard Road \u2022 P.O. Box 3029",
          "lat_fac": 40.53169,
          "lon_fac": -74.38217,
          "names_prev": [],
          "sub_last": {
            "id": 7904,
            "date_val": "1999-07-07",
            "date_dereg": "2000-01-12",
            "lat_sub": "40.534167",
            "lon_sub": "-74.381806",
            "lat_frs": 40.53169,
            "lon_frs": -74.38217,
            "num_accidents": null,
            "latest_accident": null
          }
        },
        {
          "EPAFacilityID": "100000134838",
          "name": "PMC Specialties, Inc.",
          "city": "Fords",
          "address": "20 Industial Avenue",
          "lat_fac": 40.51572,
          "lon_fac": -74.32499,
          "names_prev": [],
          "sub_last": {
            "id": 12302,
            "date_val": "1999-07-15",
            "date_dereg": "2001-01-22",
            "lat_sub": "40.513333",
            "lon_sub": "-74.324444",
            "lat_frs": 40.51572,
            "lon_frs": -74.32499,
            "num_accidents": null,
            "latest_accident": null
          }
        },
        {
          "EPAFacilityID": "100000041974",
          "name": "BASF CORPORATION SOUTH BRUNSWICK SITE",
          "city": "JAMESBURG",
          "address": "1065 CRANBURY & SOUTH RIVER ROAD",
          "lat_fac": 40.35777,
          "lon_fac": -74.47128,
          "names_prev": [],
          "sub_last": {
            "id": 38254,
            "date_val": "2004-08-20",
            "date_dereg": "2005-06-03",
            "lat_sub": "40.357500",
            "lon_sub": "-074.472778",
            "lat_frs": 40.35777,
            "lon_frs": -74.47128,
            "num_accidents": null,
            "latest_accident": null
          }
        },
        {
          "EPAFacilityID": "100000034385",
          "name": "BOC Gases - Middlesex",
          "city": "Middlesex",
          "address": "172 Baekland Ave.",
          "lat_fac": 40.56282,
          "lon_fac": -74.50286,
          "names_prev": [],
          "sub_last": {
            "id": 20815,
            "date_val": "2000-03-21",
            "date_dereg": "2000-04-17",
            "lat_sub": "40.563333",
            "lon_sub": "-74.503333",
            "lat_frs": 40.56282,
            "lon_frs": -74.50286,
            "num_accidents": 1,
            "latest_accident": "1995-08-30"
          }
        },
        {
          "EPAFacilityID": "100000222779",
          "name": "L'Oreal USA Inc.",
          "city": "Monmouth Junction",
          "address": "77 Deans Rhode Hall Road",
          "lat_fac": null,
          "lon_fac": null,
          "names_prev": [],
          "sub_last": {
            "id": 1000074650,
            "date_val": "2019-06-17",
            "date_dereg": null,
            "lat_sub": "40.401012",
            "lon_sub": "-74.504343",
            "lat_frs": null,
            "lon_frs": null,
            "num_accidents": null,
            "latest_accident": null
          }
        },
        {
          "EPAFacilityID": "100000180083",
          "name": "Church & Dwight Co., Inc.",
          "city": "North Brunswick",
          "address": "1000 Corporate Road",
          "lat_fac": null,
          "lon_fac": null,
          "names_prev": [],
          "sub_last": {
            "id": 46679,
            "date_val": "2006-09-29",
            "date_dereg": "2010-05-19",
            "lat_sub": "40.457779",
            "lon_sub": "-074.486946",
            "lat_frs": null,
            "lon_frs": null,
            "num_accidents": null,
            "latest_accident": null
          }
        },
        {
          "EPAFacilityID": "100000051864",
          "name": "Ciba Specialty Chemicals, Corp.",
          "city": "Old Bridge",
          "address": "570 Old Waterworks Road",
          "lat_fac": 40.43444,
          "lon_fac": -74.32777,
          "names_prev": [
            "Ciba Specialty Chemicals Water Treatments, Inc."
          ],
          "sub_last": {
            "id": 22717,
            "date_val": "2001-02-09",
            "date_dereg": "2001-12-17",
            "lat_sub": "40.433889",
            "lon_sub": "-74.325833",
            "lat_frs": 40.43444,
            "lon_frs": -74.32777,
            "num_accidents": null,
            "latest_accident": null
          }
        },
        {
          "EPAFacilityID": "100000063352",
          "name": "OLD BRIDGE CHEMICALS, INC.",
          "city": "OLD BRIDGE",
          "address": "OLD WATER WORKS ROAD",
          "lat_fac": 40.43498,
          "lon_fac": -74.32917,
          "names_prev": [],
          "sub_last": {
            "id": 46277,
            "date_val": "2006-08-16",
            "date_dereg": "2006-11-01",
            "lat_sub": "40.433639",
            "lon_sub": "-074.329083",
            "lat_frs": 40.43498,
            "lon_frs": -74.32917,
            "num_accidents": null,
            "latest_accident": null
          }
        },
        {
          "EPAFacilityID": "100000052676",
          "name": "ASHLAND SPECIALTY INGREDIENTS G.P. - PARLIN PLANT",
          "city": "PARLIN",
          "address": "50 SOUTH MINISINK AVENUE",
          "lat_fac": 40.45517,
          "lon_fac": -74.33661,
          "names_prev": [
            "HERCULES INCORPORATED - PARLIN PLANT"
          ],
          "sub_last": {
            "id": 1000087942,
            "date_val": "2020-09-27",
            "date_dereg": null,
            "lat_sub": "40.458611",
            "lon_sub": "-074.337500",
            "lat_frs": 40.45517,
            "lon_frs": -74.33661,
            "num_accidents": null,
            "latest_accident": null
          }
        },
        {
          "EPAFacilityID": "100000131163",
          "name": "DuPont - Parlin",
          "city": "Parlin",
          "address": "250 Cheesequake Rd",
          "lat_fac": 40.45814,
          "lon_fac": -74.32881,
          "names_prev": [
            "DuPont  -  Parlin"
          ],
          "sub_last": {
            "id": 1000090947,
            "date_val": "2020-11-16",
            "date_dereg": null,
            "lat_sub": "40.458139",
            "lon_sub": "-074.328806",
            "lat_frs": 40.45814,
            "lon_frs": -74.32881,
            "num_accidents": null,
            "latest_accident": null
          }
        },
        {
          "EPAFacilityID": "100000170726",
          "name": "GREEN TREE CHEMICAL TECHNOLOGIES, INC.",
          "city": "PARLIN",
          "address": "50 SOUTH MINISINK AVENUE",
          "lat_fac": 40.45333,
          "lon_fac": -74.33733,
          "names_prev": [],
          "sub_last": {
            "id": 21527,
            "date_val": "2000-06-22",
            "date_dereg": "2004-07-02",
            "lat_sub": "40.453333",
            "lon_sub": "-74.337333",
            "lat_frs": 40.45333,
            "lon_frs": -74.33733,
            "num_accidents": null,
            "latest_accident": null
          }
        },
        {
          "EPAFacilityID": "100000226613",
          "name": "Buckeye Perth Amboy Terminal",
          "city": "Perth Amboy",
          "address": "380 Maurer Road",
          "lat_fac": null,
          "lon_fac": null,
          "names_prev": [],
          "sub_last": {
            "id": 1000073980,
            "date_val": "2020-12-07",
            "date_dereg": null,
            "lat_sub": "40.534267",
            "lon_sub": "-074.261643",
            "lat_frs": null,
            "lon_frs": null,
            "num_accidents": null,
            "latest_accident": null
          }
        },
        {
          "EPAFacilityID": "100000049397",
          "name": "Chevron Products Co., Perth Amboy Asphalt Facility",
          "city": "Perth Amboy",
          "address": "1200 State St.",
          "lat_fac": 40.53494,
          "lon_fac": -74.26221,
          "names_prev": [],
          "sub_last": {
            "id": 16902,
            "date_val": "1999-08-25",
            "date_dereg": "2003-04-23",
            "lat_sub": "40.536111",
            "lon_sub": "-74.2625",
            "lat_frs": 40.53494,
            "lon_frs": -74.26221,
            "num_accidents": null,
            "latest_accident": null
          }
        },
        {
          "EPAFacilityID": "100000224198",
          "name": "Colart Americas, Inc",
          "city": "Piscataway",
          "address": "11 Constitution Avenue",
          "lat_fac": null,
          "lon_fac": null,
          "names_prev": [],
          "sub_last": {
            "id": 1000066139,
            "date_val": "2018-08-16",
            "date_dereg": null,
            "lat_sub": "40.549490",
            "lon_sub": "-74.454500",
            "lat_frs": null,
            "lon_frs": null,
            "num_accidents": null,
            "latest_accident": null
          }
        },
        {
          "EPAFacilityID": "100000241017",
          "name": "Colart Americas, Inc",
          "city": "Piscataway",
          "address": "2 Corporate Place South",
          "lat_fac": null,
          "lon_fac": null,
          "names_prev": [],
          "sub_last": {
            "id": 1000075701,
            "date_val": "2019-10-09",
            "date_dereg": null,
            "lat_sub": "40.550041",
            "lon_sub": "-74.453051",
            "lat_frs": null,
            "lon_frs": null,
            "num_accidents": null,
            "latest_accident": null
          }
        },
        {
          "EPAFacilityID": "100000032207",
          "name": "E. Davis International",
          "city": "Piscataway",
          "address": "7 Turner Place",
          "lat_fac": 40.55988,
          "lon_fac": -74.45082,
          "names_prev": [],
          "sub_last": {
            "id": 10384,
            "date_val": "1999-06-16",
            "date_dereg": "1999-12-20",
            "lat_sub": "40.504167",
            "lon_sub": "-74.258333",
            "lat_frs": 40.55988,
            "lon_frs": -74.45082,
            "num_accidents": null,
            "latest_accident": null
          }
        },
        {
          "EPAFacilityID": "100000137041",
          "name": "Port Reading Complex",
          "city": "Port Reading",
          "address": "750 Cliff Road",
          "lat_fac": 40.55911,
          "lon_fac": -74.24011,
          "names_prev": [
            "Hess Corp. Port Reading Refining Facility",
            "Hess Corp Port Reading Refining Facility",
            "Amerada Hess Corp Port Reading Refining Facility",
            "Amerada Hess (Port Reading) Corporation"
          ],
          "sub_last": {
            "id": 1000098768,
            "date_val": "2022-01-18",
            "date_dereg": null,
            "lat_sub": "40.563839",
            "lon_sub": "-74.247338",
            "lat_frs": 40.55911,
            "lon_frs": -74.24011,
            "num_accidents": null,
            "latest_accident": null
          }
        },
        {
          "EPAFacilityID": "100000118758",
          "name": "Rahway Valley Sewerage Authority",
          "city": "Rahway",
          "address": "1050 East Hazelwood Avenue",
          "lat_fac": 40.60025,
          "lon_fac": -74.25903,
          "names_prev": [],
          "sub_last": {
            "id": 9588,
            "date_val": "1999-07-12",
            "date_dereg": "2000-04-25",
            "lat_sub": "40.550833",
            "lon_sub": "-74.250833",
            "lat_frs": 40.60025,
            "lon_frs": -74.25903,
            "num_accidents": null,
            "latest_accident": null
          }
        },
        {
          "EPAFacilityID": "100000089156",
          "name": "Middlesex County Utilities Authority",
          "city": "Sayreville",
          "address": "Main Street Extension \u2022 PO Box 159",
          "lat_fac": 40.49183,
          "lon_fac": -74.31281,
          "names_prev": [],
          "sub_last": {
            "id": 6753,
            "date_val": "1999-07-06",
            "date_dereg": "2002-02-04",
            "lat_sub": "40.481667",
            "lon_sub": "74.321667",
            "lat_frs": 40.49183,
            "lon_frs": -74.31281,
            "num_accidents": null,
            "latest_accident": null
          }
        },
        {
          "EPAFacilityID": "100000055325",
          "name": "Shell - Sewaren Terminal",
          "city": "Sewaren",
          "address": "111 State Street",
          "lat_fac": 40.54233,
          "lon_fac": -74.25864,
          "names_prev": [
            "Motiva Enterprises LLC Sewaren Plant"
          ],
          "sub_last": {
            "id": 1000073360,
            "date_val": "2020-12-09",
            "date_dereg": null,
            "lat_sub": "40.542148",
            "lon_sub": "-074.258467",
            "lat_frs": 40.54233,
            "lon_frs": -74.25864,
            "num_accidents": null,
            "latest_accident": null
          }
        },
        {
          "EPAFacilityID": "100000001703",
          "name": "Air Liquide America Specialty Gases, LLC.",
          "city": "South Plainfield",
          "address": "2330 Hamilton Blvd",
          "lat_fac": 40.56159,
          "lon_fac": -74.41805,
          "names_prev": [
            "Scott Specialty Gases"
          ],
          "sub_last": {
            "id": 1000004576,
            "date_val": "2009-06-04",
            "date_dereg": "2014-04-02",
            "lat_sub": "40.561389",
            "lon_sub": "-074.417500",
            "lat_frs": 40.56159,
            "lon_frs": -74.41805,
            "num_accidents": null,
            "latest_accident": null
          }
        },
        {
          "EPAFacilityID": "100000031164",
          "name": "Ferro",
          "city": "South Plainfield",
          "address": "3900 South Clinton Avenue",
          "lat_fac": 40.56461,
          "lon_fac": -74.42964,
          "names_prev": [
            "Ferro Corporation",
            "Ferro EM, L.P.",
            "dmc-2 L.P.",
            "Degussa-H|ls Corporation"
          ],
          "sub_last": {
            "id": 52324,
            "date_val": "2008-08-12",
            "date_dereg": "2009-02-05",
            "lat_sub": "40.564611",
            "lon_sub": "-074.429638",
            "lat_frs": 40.56461,
            "lon_frs": -74.42964,
            "num_accidents": null,
            "latest_accident": null
          }
        },
        {
          "EPAFacilityID": "100000059009",
          "name": "Shweitzer-Mauduit International, Inc.",
          "city": "Spotswood",
          "address": "85 Main Street",
          "lat_fac": 40.4036,
          "lon_fac": -74.37803,
          "names_prev": [
            "Schweitzer-Mauduit International, Inc."
          ],
          "sub_last": {
            "id": 31262,
            "date_val": "2004-07-01",
            "date_dereg": "2007-07-10",
            "lat_sub": "40.401944",
            "lon_sub": "-074.377222",
            "lat_frs": 40.4036,
            "lon_frs": -74.37803,
            "num_accidents": null,
            "latest_accident": null
          }
        },
        {
          "EPAFacilityID": "100000024797",
          "name": "Cytec Industries Inc. - Woodbridge Plant",
          "city": "Woodbridge",
          "address": "35 Cutters Dock Road",
          "lat_fac": 40.54459,
          "lon_fac": -74.271,
          "names_prev": [],
          "sub_last": {
            "id": 2041,
            "date_val": "1999-06-10",
            "date_dereg": "2002-10-09",
            "lat_sub": "40.544111",
            "lon_sub": "-74.271111",
            "lat_frs": 40.54459,
            "lon_frs": -74.271,
            "num_accidents": null,
            "latest_accident": null
          }
        },
        {
          "EPAFacilityID": "100000175482",
          "name": "Ronson Consumer Products Corporation",
          "city": "Woodbridge Township",
          "address": "3 Ronson Road",
          "lat_fac": 40.55342,
          "lon_fac": -74.28808,
          "names_prev": [],
          "sub_last": {
            "id": 1000011224,
            "date_val": "2009-11-02",
            "date_dereg": "2012-07-13",
            "lat_sub": "40.556639",
            "lon_sub": "-074.318111",
            "lat_frs": 40.55342,
            "lon_frs": -74.28808,
            "num_accidents": null,
            "latest_accident": null
          }
        }
      ]
    },
    {
      "fips": "34025",
      "name": "Monmouth County",
      "facilities": [
        {
          "EPAFacilityID": "100000065895",
          "name": "Swimming River Water Treatment Plant",
          "city": "Colts Neck",
          "address": "310 Swimming River Road",
          "lat_fac": 40.3175,
          "lon_fac": -74.11349,
          "names_prev": [],
          "sub_last": {
            "id": 1000065443,
            "date_val": "2019-05-21",
            "date_dereg": null,
            "lat_sub": "40.317778",
            "lon_sub": "-074.113889",
            "lat_frs": 40.3175,
            "lon_frs": -74.11349,
            "num_accidents": null,
            "latest_accident": null
          }
        },
        {
          "EPAFacilityID": "100000074091",
          "name": "Nestle USA, Inc.",
          "city": "Freehold",
          "address": "61 Jerseyville Avenue",
          "lat_fac": 40.25128,
          "lon_fac": -74.26742,
          "names_prev": [
            "Nestle USA - Beverage Division, Inc",
            "Nestle USA - Beverage Division, Inc-Freehold Plant"
          ],
          "sub_last": {
            "id": 1000077254,
            "date_val": "2022-02-24",
            "date_dereg": null,
            "lat_sub": "40.251994",
            "lon_sub": "-074.270556",
            "lat_frs": 40.25128,
            "lon_frs": -74.26742,
            "num_accidents": 2,
            "latest_accident": "2014-11-04"
          }
        },
        {
          "EPAFacilityID": "100000063851",
          "name": "Jumping Brook Water Treatment Plant",
          "city": "Neptune",
          "address": "611 Old Corlies Avenue",
          "lat_fac": 40.20393,
          "lon_fac": -74.06406,
          "names_prev": [],
          "sub_last": {
            "id": 1000065442,
            "date_val": "2019-05-21",
            "date_dereg": null,
            "lat_sub": "40.204167",
            "lon_sub": "-074.065556",
            "lat_frs": 40.20393,
            "lon_frs": -74.06406,
            "num_accidents": null,
            "latest_accident": null
          }
        }
      ]
    },
    {
      "fips": "34029",
      "name": "Ocean County",
      "facilities": [
        {
          "EPAFacilityID": "100000069748",
          "name": "Brick Township Municipal Utilities Authority",
          "city": "Brick",
          "address": "1551 Highway 88 West",
          "lat_fac": 40.07667,
          "lon_fac": -74.14222,
          "names_prev": [],
          "sub_last": {
            "id": 1000093084,
            "date_val": "2021-10-04",
            "date_dereg": null,
            "lat_sub": "40.076785",
            "lon_sub": "-074.141692",
            "lat_frs": 40.07667,
            "lon_frs": -74.14222,
            "num_accidents": null,
            "latest_accident": null
          }
        },
        {
          "EPAFacilityID": "100000106495",
          "name": "Church & Dwight Company Inc.",
          "city": "Lakewood",
          "address": "800 Airport Road",
          "lat_fac": 40.06006,
          "lon_fac": -74.17942,
          "names_prev": [],
          "sub_last": {
            "id": 1000089921,
            "date_val": "2022-02-11",
            "date_dereg": null,
            "lat_sub": "40.061667",
            "lon_sub": "-074.179444",
            "lat_frs": 40.06006,
            "lon_frs": -74.17942,
            "num_accidents": null,
            "latest_accident": null
          }
        },
        {
          "EPAFacilityID": "100000192418",
          "name": "EMC Packaging Inc.",
          "city": "Lakewood",
          "address": "550 James Street",
          "lat_fac": null,
          "lon_fac": null,
          "names_prev": [
            "EMC Packaging, Inc."
          ],
          "sub_last": {
            "id": 52285,
            "date_val": "2008-08-07",
            "date_dereg": "2009-02-03",
            "lat_sub": "40.077778",
            "lon_sub": "-074.240833",
            "lat_frs": null,
            "lon_frs": null,
            "num_accidents": null,
            "latest_accident": null
          }
        },
        {
          "EPAFacilityID": "100000130191",
          "name": "Lakewood Cogeneration",
          "city": "Lakewood",
          "address": "123 Energy Way",
          "lat_fac": 40.06506,
          "lon_fac": -74.1693,
          "names_prev": [],
          "sub_last": {
            "id": 19371,
            "date_val": "1999-12-28",
            "date_dereg": "2000-05-22",
            "lat_sub": "40.056667",
            "lon_sub": "-74.173056",
            "lat_frs": 40.06506,
            "lon_frs": -74.1693,
            "num_accidents": null,
            "latest_accident": null
          }
        }
      ]
    },
    {
      "fips": "34031",
      "name": "Passaic County",
      "facilities": [
        {
          "EPAFacilityID": "100000131145",
          "name": "Fabricolor Manufacturing Corporation",
          "city": "Paterson",
          "address": "24 1/2 Van Houten Street",
          "lat_fac": 40.91676,
          "lon_fac": -74.178,
          "names_prev": [],
          "sub_last": {
            "id": 12486,
            "date_val": "1999-07-14",
            "date_dereg": "2002-09-03",
            "lat_sub": "40.918611",
            "lon_sub": "-74.176111",
            "lat_frs": 40.91676,
            "lon_frs": -74.178,
            "num_accidents": null,
            "latest_accident": null
          }
        },
        {
          "EPAFacilityID": "100000151596",
          "name": "Heterene Chemical Co., Inc.",
          "city": "Paterson",
          "address": "297 Vreeland Avenue \u2022 792 21st Street",
          "lat_fac": 40.90446,
          "lon_fac": -74.13876,
          "names_prev": [],
          "sub_last": {
            "id": 15994,
            "date_val": "1999-08-13",
            "date_dereg": "2000-07-11",
            "lat_sub": "40.903889",
            "lon_sub": "-74.155556",
            "lat_frs": 40.90446,
            "lon_frs": -74.13876,
            "num_accidents": null,
            "latest_accident": null
          }
        },
        {
          "EPAFacilityID": "100000220245",
          "name": "Advanced Biotech",
          "city": "Totowa",
          "address": "10 Taft Rd",
          "lat_fac": null,
          "lon_fac": null,
          "names_prev": [],
          "sub_last": {
            "id": 1000031942,
            "date_val": "2018-08-10",
            "date_dereg": null,
            "lat_sub": "40.905529",
            "lon_sub": "-74.247826",
            "lat_frs": null,
            "lon_frs": null,
            "num_accidents": null,
            "latest_accident": null
          }
        },
        {
          "EPAFacilityID": "100000082849",
          "name": "Little Falls Water Treatment Plant",
          "city": "Totowa",
          "address": "Union Boulevard and Riverview Drive",
          "lat_fac": 40.88495,
          "lon_fac": -74.23235,
          "names_prev": [],
          "sub_last": {
            "id": 20536,
            "date_val": "2000-02-15",
            "date_dereg": "2002-07-22",
            "lat_sub": "40.884944",
            "lon_sub": "-74.232361",
            "lat_frs": 40.88495,
            "lon_frs": -74.23235,
            "num_accidents": null,
            "latest_accident": null
          }
        },
        {
          "EPAFacilityID": "100000124616",
          "name": "Chemical Building/ Filtration Plant",
          "city": "Wanaque",
          "address": "1 F.A. Orechio Drive",
          "lat_fac": 41.04172,
          "lon_fac": -74.29447,
          "names_prev": [
            "Chemical Building / Filtration Plant"
          ],
          "sub_last": {
            "id": 44065,
            "date_val": "2005-10-24",
            "date_dereg": "2009-06-04",
            "lat_sub": "41.040278",
            "lon_sub": "-074.297222",
            "lat_frs": 41.04172,
            "lon_frs": -74.29447,
            "num_accidents": null,
            "latest_accident": null
          }
        },
        {
          "EPAFacilityID": "100000123412",
          "name": "Lower Gate House",
          "city": "Wanaque",
          "address": "744 Ringwood Avenue",
          "lat_fac": 41.04514,
          "lon_fac": -74.29143,
          "names_prev": [],
          "sub_last": {
            "id": 44066,
            "date_val": "2005-10-24",
            "date_dereg": "2008-01-16",
            "lat_sub": "41.044444",
            "lon_sub": "-074.294167",
            "lat_frs": 41.04514,
            "lon_frs": -74.29143,
            "num_accidents": null,
            "latest_accident": null
          }
        },
        {
          "EPAFacilityID": "100000124536",
          "name": "Old (Original) Treatment Plant",
          "city": "Wanaque",
          "address": "Storms Avenue",
          "lat_fac": 41.0538,
          "lon_fac": -74.2803,
          "names_prev": [],
          "sub_last": {
            "id": 44064,
            "date_val": "2005-10-24",
            "date_dereg": "2008-01-16",
            "lat_sub": "41.032778",
            "lon_sub": "-074.299167",
            "lat_frs": 41.0538,
            "lon_frs": -74.2803,
            "num_accidents": null,
            "latest_accident": null
          }
        },
        {
          "EPAFacilityID": "100000169907",
          "name": "Richard-Allan Scientific, Wayne, NJ",
          "city": "Wayne",
          "address": "92 Newark Pompton Turnpike",
          "lat_fac": 40.92802,
          "lon_fac": -74.27015,
          "names_prev": [],
          "sub_last": {
            "id": 21375,
            "date_val": "2000-06-15",
            "date_dereg": "2008-06-23",
            "lat_sub": "40.926833",
            "lon_sub": "-74.2725",
            "lat_frs": 40.92802,
            "lon_frs": -74.27015,
            "num_accidents": null,
            "latest_accident": null
          }
        },
        {
          "EPAFacilityID": "100000111666",
          "name": "Pequannock Water Treatment Plant",
          "city": "West Milford",
          "address": "Route 23 North",
          "lat_fac": 41.02547,
          "lon_fac": -74.40886,
          "names_prev": [
            "Pequannock WTP Pre-Treatment Building"
          ],
          "sub_last": {
            "id": 1000081581,
            "date_val": "2019-07-30",
            "date_dereg": "2021-07-01",
            "lat_sub": "41.029167",
            "lon_sub": "-074.420833",
            "lat_frs": 41.02547,
            "lon_frs": -74.40886,
            "num_accidents": null,
            "latest_accident": null
          }
        }
      ]
    },
    {
      "fips": "34033",
      "name": "Salem County",
      "facilities": [
        {
          "EPAFacilityID": "100000021923",
          "name": "Budd Chemical Co.",
          "city": "Carneys Point",
          "address": "431S.Pennsville Auburn Rd.",
          "lat_fac": 39.69,
          "lon_fac": -75.47033,
          "names_prev": [],
          "sub_last": {
            "id": 1757,
            "date_val": "1999-06-08",
            "date_dereg": "2000-05-15",
            "lat_sub": "39.691111",
            "lon_sub": "-75.468889",
            "lat_frs": 39.69,
            "lon_frs": -75.47033,
            "num_accidents": 1,
            "latest_accident": "1996-03-06"
          }
        },
        {
          "EPAFacilityID": "100000100534",
          "name": "Carneys Point Generating Plant",
          "city": "Carneys Point",
          "address": "500 Shell Road",
          "lat_fac": 39.68771,
          "lon_fac": -75.48766,
          "names_prev": [
            "Carneys Point Generating Co., L.P."
          ],
          "sub_last": {
            "id": 1000079953,
            "date_val": "2021-03-29",
            "date_dereg": null,
            "lat_sub": "39.693903",
            "lon_sub": "-075.485586",
            "lat_frs": 39.68771,
            "lon_frs": -75.48766,
            "num_accidents": null,
            "latest_accident": null
          }
        },
        {
          "EPAFacilityID": "100000217525",
          "name": "McLane Distribution Services",
          "city": "Carneys Point",
          "address": "742 Courses Landing Road",
          "lat_fac": null,
          "lon_fac": null,
          "names_prev": [],
          "sub_last": {
            "id": 1000065544,
            "date_val": "2021-08-11",
            "date_dereg": null,
            "lat_sub": "39.686222",
            "lon_sub": "-075.43028",
            "lat_frs": null,
            "lon_frs": null,
            "num_accidents": null,
            "latest_accident": null
          }
        },
        {
          "EPAFacilityID": "100000229102",
          "name": "Chemours Chambers Works",
          "city": "Deepwater",
          "address": "67 Canal Road \u2022 P.O. Box 9001",
          "lat_fac": null,
          "lon_fac": null,
          "names_prev": [],
          "sub_last": {
            "id": 1000081646,
            "date_val": "2021-10-14",
            "date_dereg": null,
            "lat_sub": "39.691667",
            "lon_sub": "-075.508333",
            "lat_frs": null,
            "lon_frs": null,
            "num_accidents": null,
            "latest_accident": null
          }
        },
        {
          "EPAFacilityID": "100000100712",
          "name": "DuPont Chambers Works",
          "city": "Deepwater",
          "address": "Route 130",
          "lat_fac": 39.69167,
          "lon_fac": -75.50833,
          "names_prev": [],
          "sub_last": {
            "id": 1000050256,
            "date_val": "2017-08-30",
            "date_dereg": "2018-04-26",
            "lat_sub": "39.691667",
            "lon_sub": "-075.508333",
            "lat_frs": 39.69167,
            "lon_frs": -75.50833,
            "num_accidents": null,
            "latest_accident": null
          }
        },
        {
          "EPAFacilityID": "100000051098",
          "name": "DUPONT PERFORMANCE POLYMERS - CHAMBERS WORKS",
          "city": "Deepwater",
          "address": "Route 130",
          "lat_fac": 39.69167,
          "lon_fac": -75.50833,
          "names_prev": [
            "DUPONT PERFORMANCE ELASTOMERS - CHAMBERS WORKS",
            "DUPONT DOW ELASTOMERS - CHAMBERS WORKS",
            "DuPont Dow Elastomers - Chambers Works"
          ],
          "sub_last": {
            "id": 1000022643,
            "date_val": "2011-10-24",
            "date_dereg": "2016-09-27",
            "lat_sub": "39.690833",
            "lon_sub": "-075.499444",
            "lat_frs": 39.69167,
            "lon_frs": -75.50833,
            "num_accidents": null,
            "latest_accident": null
          }
        },
        {
          "EPAFacilityID": "100000132126",
          "name": "Lubrizol Advanced Materials, Inc Pedricktown Plant",
          "city": "Pedricktown",
          "address": "76 Porcupine Road",
          "lat_fac": 39.76941,
          "lon_fac": -75.42145,
          "names_prev": [
            "Noveon, Inc. Pedricktown Plant",
            "PMD Group, Pedricktown Plant",
            "BFGoodrich Pedricktown Plant"
          ],
          "sub_last": {
            "id": 1000081337,
            "date_val": "2021-11-12",
            "date_dereg": null,
            "lat_sub": "39.763889",
            "lon_sub": "-075.422778",
            "lat_frs": 39.76941,
            "lon_frs": -75.42145,
            "num_accidents": null,
            "latest_accident": null
          }
        },
        {
          "EPAFacilityID": "100000131957",
          "name": "Mexichem Specialty Resins, Inc.",
          "city": "Pedricktown",
          "address": "Route 130 & Porcupine Road \u2022 76 Porcupine Rd.",
          "lat_fac": 39.76694,
          "lon_fac": -75.42136,
          "names_prev": [
            "PolyOne Corporation",
            "The Geon Company -  Pedricktown, N.J. Facility"
          ],
          "sub_last": {
            "id": 1000070980,
            "date_val": "2018-07-10",
            "date_dereg": null,
            "lat_sub": "39.764639",
            "lon_sub": "-075.423278",
            "lat_frs": 39.76694,
            "lon_frs": -75.42136,
            "num_accidents": null,
            "latest_accident": null
          }
        },
        {
          "EPAFacilityID": "100000118446",
          "name": "Oxy Vinyls, LP",
          "city": "Pedricktown",
          "address": "U.S. Route 130 & Porcupine Road",
          "lat_fac": 39.76764,
          "lon_fac": -75.42573,
          "names_prev": [],
          "sub_last": {
            "id": 1000093878,
            "date_val": "2021-05-20",
            "date_dereg": null,
            "lat_sub": "39.763611",
            "lon_sub": "-075.423611",
            "lat_frs": 39.76764,
            "lon_frs": -75.42573,
            "num_accidents": null,
            "latest_accident": null
          }
        },
        {
          "EPAFacilityID": "100000131831",
          "name": "Pedricktown Cogeneration Plant",
          "city": "Pedricktown",
          "address": "143 Highway 130 \u2022 PO Box 404",
          "lat_fac": 39.76694,
          "lon_fac": -75.42136,
          "names_prev": [],
          "sub_last": {
            "id": 47124,
            "date_val": "2006-11-28",
            "date_dereg": "2007-04-27",
            "lat_sub": "39.767500",
            "lon_sub": "-075.425833",
            "lat_frs": 39.76694,
            "lon_frs": -75.42136,
            "num_accidents": null,
            "latest_accident": null
          }
        },
        {
          "EPAFacilityID": "100000116536",
          "name": "Siegfried USA, LLC",
          "city": "Pennsville",
          "address": "33 Industrial Park Road",
          "lat_fac": 39.63031,
          "lon_fac": -75.53167,
          "names_prev": [
            "Ganes Chemicals Inc."
          ],
          "sub_last": {
            "id": 1000073234,
            "date_val": "2018-11-27",
            "date_dereg": null,
            "lat_sub": "39.629389",
            "lon_sub": "-75.534083",
            "lat_frs": 39.63031,
            "lon_frs": -75.53167,
            "num_accidents": null,
            "latest_accident": null
          }
        }
      ]
    },
    {
      "fips": "34035",
      "name": "Somerset County",
      "facilities": [
        {
          "EPAFacilityID": "100000135613",
          "name": "RB Manufacturing LLC",
          "city": "Belle Mead",
          "address": "799 Route 206",
          "lat_fac": 40.49688,
          "lon_fac": -74.6476,
          "names_prev": [
            "Reckitt Benckiser",
            "Reckitt & Colman, Inc."
          ],
          "sub_last": {
            "id": 1000069459,
            "date_val": "2021-06-23",
            "date_dereg": null,
            "lat_sub": "40.483313",
            "lon_sub": "-074.648205",
            "lat_frs": 40.49688,
            "lon_frs": -74.6476,
            "num_accidents": null,
            "latest_accident": null
          }
        },
        {
          "EPAFacilityID": "100000054086",
          "name": "Dolco Packaging",
          "city": "Branchburg",
          "address": "201 Industrial Parkway",
          "lat_fac": 40.60133,
          "lon_fac": -74.71646,
          "names_prev": [
            "Tekni-Plex, Inc.",
            "Tekni-Plex, Inc. - Somerville (USEPA Submission)",
            "Tekni-Plex, Inc. - Somerville"
          ],
          "sub_last": {
            "id": 1000055802,
            "date_val": "2016-02-17",
            "date_dereg": "2021-03-08",
            "lat_sub": "40.602222",
            "lon_sub": "-074.717222",
            "lat_frs": 40.60133,
            "lon_frs": -74.71646,
            "num_accidents": null,
            "latest_accident": null
          }
        },
        {
          "EPAFacilityID": "100000218588",
          "name": "Brook Warehousing Corporation",
          "city": "Bridgewater",
          "address": "18 Van Veghten Drive",
          "lat_fac": null,
          "lon_fac": null,
          "names_prev": [],
          "sub_last": {
            "id": 1000080312,
            "date_val": "2019-06-11",
            "date_dereg": null,
            "lat_sub": "40.557222",
            "lon_sub": "-74.586667",
            "lat_frs": null,
            "lon_frs": null,
            "num_accidents": null,
            "latest_accident": null
          }
        },