{
  "abbr": "PR",
  "name": "Puerto Rico",
  "counties": [
    {
      "fips": "72001",
      "name": "Adjuntas Municipio",
      "facilities": [
        {
          "EPAFacilityID": "100000121398",
          "name": "Adjuntas Wastewater Treatment Plant",
          "city": "Adjuntas",
          "address": "Canas Street",
          "lat_fac": 18.16588,
          "lon_fac": -66.728,
          "names_prev": [],
          "sub_last": {
            "id": 40238,
            "date": "2004-09-15",
            "date_dereg": "2009-07-20",
            "lat_sub": "18.163151",
            "lon_sub": "-066.725724",
            "lat_frs": 18.16588,
            "lon_frs": -66.728
          }
        }
      ]
    },
    {
      "fips": "72003",
      "name": "Aguada Municipio",
      "facilities": [
        {
          "EPAFacilityID": "100000121469",
          "name": "Aguada-Aguadilla Wastewater Treatment Plant",
          "city": "Aguada",
          "address": "State Road 115 Km. 25 Interior \u2022 Bo. Asomante",
          "lat_fac": 18.39167,
          "lon_fac": -67.18139,
          "names_prev": [
            "Aguada Wastewater Treatment Plant"
          ],
          "sub_last": {
            "id": 1000069563,
            "date": "2019-05-28",
            "date_dereg": null,
            "lat_sub": "18.392550",
            "lon_sub": "-067.181740",
            "lat_frs": 18.39167,
            "lon_frs": -67.18139
          }
        }
      ]
    },
    {
      "fips": "72005",
      "name": "Aguadilla Municipio",
      "facilities": [
        {
          "EPAFacilityID": "100000119999",
          "name": "Aguadilla Nueva Filtration Plant",
          "city": "Aguadilla",
          "address": "Carr. 459, Km 0.3",
          "lat_fac": 18.44722,
          "lon_fac": -67.15389,
          "names_prev": [],
          "sub_last": {
            "id": 1000068804,
            "date": "2018-03-23",
            "date_dereg": null,
            "lat_sub": "18.447222",
            "lon_sub": "-067.143888",
            "lat_frs": 18.44722,
            "lon_frs": -67.15389
          }
        },
        {
          "EPAFacilityID": "100000208081",
          "name": "Culebrinas Filtration Plant",
          "city": "Aguadilla",
          "address": "State Road PR-443 Km-5.9 \u2022 Palmar Ward",
          "lat_fac": null,
          "lon_fac": null,
          "names_prev": [],
          "sub_last": {
            "id": 1000043354,
            "date": "2014-05-30",
            "date_dereg": "2017-03-28",
            "lat_sub": "18.407028",
            "lon_sub": "-067.141075",
            "lat_frs": null,
            "lon_frs": null
          }
        }
      ]
    },
    {
      "fips": "72007",
      "name": "Aguas Buenas Municipio",
      "facilities": [
        {
          "EPAFacilityID": "100000120031",
          "name": "Aguas Buenas Filtration Plant",
          "city": "Aguas Buenas",
          "address": "Carr.173, Km 0.3 \u2022 Bo. Jagueyes",
          "lat_fac": 18.25361,
          "lon_fac": -66.1025,
          "names_prev": [
            "Aguas Buenas Minillas Filtration Plant"
          ],
          "sub_last": {
            "id": 56138,
            "date": "2010-02-04",
            "date_dereg": "2013-06-05",
            "lat_sub": "18.259167",
            "lon_sub": "-066.103889",
            "lat_frs": 18.25361,
            "lon_frs": -66.1025
          }
        },
        {
          "EPAFacilityID": "100000120095",
          "name": "Aguas Buenas Wastewater Treatment Plant",
          "city": "Aguas Buenas",
          "address": "Carr. 173, Km 0.1",
          "lat_fac": 18.26083,
          "lon_fac": -66.10222,
          "names_prev": [],
          "sub_last": {
            "id": 29381,
            "date": "2004-01-16",
            "date_dereg": "2004-08-12",
            "lat_sub": "18.259167",
            "lon_sub": "-66.103889",
            "lat_frs": 18.26083,
            "lon_frs": -66.10222
          }
        },
        {
          "EPAFacilityID": "100000128202",
          "name": "Minillas-Aguas Buenas Filtration Plant",
          "city": "Aguas Buenas",
          "address": "Road PR 174 Interior \u2022  Minillas Sector  Bo. Mula",
          "lat_fac": 18.25194,
          "lon_fac": -66.1325,
          "names_prev": [],
          "sub_last": {
            "id": 50860,
            "date": "2008-02-08",
            "date_dereg": "2013-02-08",
            "lat_sub": "18.251889",
            "lon_sub": "-066.132139",
            "lat_frs": 18.25194,
            "lon_frs": -66.1325
          }
        }
      ]
    },
    {
      "fips": "72009",
      "name": "Aibonito Municipio",
      "facilities": [
        {
          "EPAFacilityID": "100000119908",
          "name": "Aibonito Regional Wastewater Treatment Plant",
          "city": "Aibonito",
          "address": "Macedonia Street #69",
          "lat_fac": 18.15083,
          "lon_fac": -66.27944,
          "names_prev": [
            "Aibonito Wastewater Treatment Plant"
          ],
          "sub_last": {
            "id": 54280,
            "date": "2009-05-19",
            "date_dereg": "2012-03-30",
            "lat_sub": "18.148178",
            "lon_sub": "-066.278426",
            "lat_frs": 18.15083,
            "lon_frs": -66.27944
          }
        },
        {
          "EPAFacilityID": "100000161503",
          "name": "La Plata-Aibonito Filtration Plant",
          "city": "Aibonito",
          "address": "Road  PR # 173, Km  1.21 Interior \u2022 Bo. La Plata",
          "lat_fac": 18.15944,
          "lon_fac": -66.23167,
          "names_prev": [],
          "sub_last": {
            "id": 1000028217,
            "date": "2013-02-01",
            "date_dereg": "2015-03-10",
            "lat_sub": "18.159730",
            "lon_sub": "-066.231142",
            "lat_frs": 18.15944,
            "lon_frs": -66.23167
          }
        }
      ]
    },
    {
      "fips": "72011",
      "name": "Anasco Municipio",
      "facilities": [
        {
          "EPAFacilityID": "100000207475",
          "name": "A?asco Filtration Plant",
          "city": "A?asco",
          "address": "State Road 109 Km 5.4 Interior \u2022 Bo Espino",
          "lat_fac": null,
          "lon_fac": null,
          "names_prev": [],
          "sub_last": {
            "id": 54276,
            "date": "2009-05-14",
            "date_dereg": "2014-05-07",
            "lat_sub": "18.279722",
            "lon_sub": "-067.118332",
            "lat_frs": null,
            "lon_frs": null
          }
        }
      ]
    },
    {
      "fips": "72013",
      "name": "Arecibo Municipio",
      "facilities": [
        {
          "EPAFacilityID": "100000119524",
          "name": "Arecibo Regional Wastewater Treatment Plant",
          "city": "Arecibo",
          "address": "PR Road 681, Km. 4.0 \u2022 Bo. Islote II",
          "lat_fac": 18.48,
          "lon_fac": -66.67778,
          "names_prev": [
            "Arecibo Wastewater Treatment Plant"
          ],
          "sub_last": {
            "id": 1000062930,
            "date": "2018-03-23",
            "date_dereg": null,
            "lat_sub": "18.480556",
            "lon_sub": "-066.677694",
            "lat_frs": 18.48,
            "lon_frs": -66.67778
          }
        },
        {
          "EPAFacilityID": "100000126393",
          "name": "Matadero Tank and Chlorination Station",
          "city": "Arecibo",
          "address": "Carretera 636 Km. 0.1 Bo. Tanama \u2022 Sector La Planta",
          "lat_fac": 18.41667,
          "lon_fac": -66.70639,
          "names_prev": [],
          "sub_last": {
            "id": 1000068839,
            "date": "2018-03-23",
            "date_dereg": "2019-07-30",
            "lat_sub": "18.416667",
            "lon_sub": "-066.707778",
            "lat_frs": 18.41667,
            "lon_frs": -66.70639
          }
        },
        {
          "EPAFacilityID": "100000155985",
          "name": "North Coast Superaqueduct Filtration Plant",
          "city": "Arecibo",
          "address": "Bo. Sabana Hoyos, Sector Ballaja \u2022 Road 663, Km 1.6 Ramal",
          "lat_fac": 18.44167,
          "lon_fac": -66.625,
          "names_prev": [
            "PRASA, North Coast Superaqueduct Project"
          ],
          "sub_last": {
            "id": 1000064059,
            "date": "2017-06-09",
            "date_dereg": null,
            "lat_sub": "18.428264",
            "lon_sub": "-066.628106",
            "lat_frs": 18.44167,
            "lon_frs": -66.625
          }
        },
        {
          "EPAFacilityID": "100000126008",
          "name": "Ojo de Agua Potable Water Pump Station",
          "city": "Arecibo",
          "address": "Road PR 123 Km. 70.3 \u2022 Bo Hato Viejo",
          "lat_fac": 18.39306,
          "lon_fac": -66.69056,
          "names_prev": [],
          "sub_last": {
            "id": 50922,
            "date": "2008-02-19",
            "date_dereg": "2013-02-07",
            "lat_sub": "18.393028",
            "lon_sub": "-066.689667",
            "lat_frs": 18.39306,
            "lon_frs": -66.69056
          }
        },
        {
          "EPAFacilityID": "100000148431",
          "name": "Pfizer Pharmaceuticals LLC - Arecibo Site",
          "city": "Arecibo",
          "address": "State Road PR-2, Km. 60.0",
          "lat_fac": 18.4292,
          "lon_fac": -66.5901,
          "names_prev": [
            "Pharmacia & Upjohn Caribe Inc.",
            "Pharmacia & Upjohn Caribe, Inc."
          ],
          "sub_last": {
            "id": 29523,
            "date": "2007-07-24",
            "date_dereg": "2008-09-03",
            "lat_sub": "18.427222",
            "lon_sub": "-66.588889",
            "lat_frs": 18.4292,
            "lon_frs": -66.5901
          }
        }
      ]
    },
    {
      "fips": "72017",
      "name": "Barceloneta Municipio",
      "facilities": [
        {
          "EPAFacilityID": "100000066714",
          "name": "Abbott Laboratories - Puerto Rico Operations",
          "city": "Barceloneta",
          "address": "Km 58.0  Road No. 2",
          "lat_fac": 18.44028,
          "lon_fac": -66.56694,
          "names_prev": [],
          "sub_last": {
            "id": 38806,
            "date": "2004-08-26",
            "date_dereg": "2006-10-25",
            "lat_sub": "18.440278",
            "lon_sub": "-066.566944",
            "lat_frs": 18.44028,
            "lon_frs": -66.56694
          }
        }
      ]
    },
    {
      "fips": "72021",
      "name": "Bayamon Municipio",
      "facilities": [
        {
          "EPAFacilityID": "100000121566",
          "name": "BESST CHEMICALS, INC.",
          "city": "BAYAMON",
          "address": "E STREET BUILDING M928-70-02 \u2022 MINILLAS INDUSTRIAL PARK II",
          "lat_fac": 18.43097,
          "lon_fac": -66.1185,
          "names_prev": [],
          "sub_last": {
            "id": 11564,
            "date": "1999-07-13",
            "date_dereg": "2003-05-23",
            "lat_sub": "18.430972",
            "lon_sub": "-66.1185",
            "lat_frs": 18.43097,
            "lon_frs": -66.1185
          }
        },
        {
          "EPAFacilityID": "100000225491",
          "name": "Luis Garraton LLC",
          "city": "Bayamon",
          "address": "Urb Indisrtial Luchetti Carr 28 \u2022 Ave Central Juanita",
          "lat_fac": null,
          "lon_fac": null,
          "names_prev": [
            "Luis Garraton Inc"
          ],
          "sub_last": {
            "id": 1000077220,
            "date": "2020-09-25",
            "date_dereg": null,
            "lat_sub": "18.414455",
            "lon_sub": "-66.146794",
            "lat_frs": null,
            "lon_frs": null
          }
        },
        {
          "EPAFacilityID": "100000148057",
          "name": "Puma Energy Caribe LLC-Bayamon LPG Terminal",
          "city": "Bayamon",
          "address": "Road #28, km. 2.0 \u2022 Industrial Park Luchetti",
          "lat_fac": 18.4185,
          "lon_fac": -66.13333,
          "names_prev": [
            "Caribbean Petroleum Refining, LP",
            "Caribbean Petroleum Refining Limited Partnership"
          ],
          "sub_last": {
            "id": 1000086343,
            "date": "2020-03-30",
            "date_dereg": null,
            "lat_sub": "18.417420",
            "lon_sub": "-066.133767",
            "lat_frs": 18.4185,
            "lon_frs": -66.13333
          }
        },
        {
          "EPAFacilityID": "100000121726",
          "name": "Santa Rosa III - Pump Station",
          "city": "Bayamon",
          "address": "Carr. 833, Km 12.0",
          "lat_fac": 18.37472,
          "lon_fac": -66.13333,
          "names_prev": [],
          "sub_last": {
            "id": 29509,
            "date": "2004-02-05",
            "date_dereg": "2005-08-19",
            "lat_sub": "18.374722",
            "lon_sub": "-66.133333",
            "lat_frs": 18.37472,
            "lon_frs": -66.13333
          }
        },
        {
          "EPAFacilityID": "100000130495",
          "name": "UCAR Resinas Caribe, Inc.",
          "city": "Bayamon",
          "address": "Luchetti Industrial Park \u2022 Lot Number 38-B Street",
          "lat_fac": 18.41884,
          "lon_fac": -66.13846,
          "names_prev": [],
          "sub_last": {
            "id": 17422,
            "date": "1999-09-09",
            "date_dereg": "2005-08-17",
            "lat_sub": "18.419167",
            "lon_sub": "-66.137778",
            "lat_frs": 18.41884,
            "lon_frs": -66.13846
          }
        }
      ]
    },
    {
      "fips": "72023",
      "name": "Cabo Rojo Municipio",
      "facilities": [
        {
          "EPAFacilityID": "100000176249",
          "name": "Betances Cabo Rojo Filtration Plant",
          "city": "Cabo Rojo",
          "address": "Carretera 103 Km. 13.0 Interior",
          "lat_fac": 18.03347,
          "lon_fac": -67.11692,
          "names_prev": [
            "Betances Water Filter Plant"
          ],
          "sub_last": {
            "id": 1000068801,
            "date": "2018-03-23",
            "date_dereg": "2020-09-15",
            "lat_sub": "18.037972",
            "lon_sub": "-067.133861",
            "lat_frs": 18.03347,
            "lon_frs": -67.11692
          }
        }
      ]
    },
    {
      "fips": "72025",
      "name": "Caguas Municipio",
      "facilities": [
        {
          "EPAFacilityID": "100000123332",
          "name": "Caguas Norte Filtration Plant",
          "city": "Caguas",
          "address": "Rafael Cordero Ave. and Perego St. \u2022 Urb. Caguas Norte",
          "lat_fac": 18.24528,
          "lon_fac": -66.02028,
          "names_prev": [],
          "sub_last": {
            "id": 1000028207,
            "date": "2014-01-17",
            "date_dereg": "2014-06-23",
            "lat_sub": "18.245056",
            "lon_sub": "-066.020472",
            "lat_frs": 18.24528,
            "lon_frs": -66.02028
          }
        },
        {
          "EPAFacilityID": "100000119668",
          "name": "Caguas Sur Filtration Plant (Turabo)",
          "city": "Caguas",
          "address": "Carr # 1, Km 42 and Carr # 786 \u2022 Bo Turabo",
          "lat_fac": 18.19167,
          "lon_fac": -66.06167,
          "names_prev": [
            "Caguas Turabo Filtration Plant",
            "Caguas - Turabo Filtration Plant"
          ],
          "sub_last": {
            "id": 50700,
            "date": "2008-01-29",
            "date_dereg": "2013-02-07",
            "lat_sub": "18.191667",
            "lon_sub": "-066.061944",
            "lat_frs": 18.19167,
            "lon_frs": -66.06167
          }
        },
        {
          "EPAFacilityID": "100000122324",
          "name": "Caguas Wastewater Treatment Plant",
          "city": "Caguas",
          "address": "PR Road #796 Km. 6.6 \u2022 Bo. Bairoa",
          "lat_fac": 18.26239,
          "lon_fac": -66.02901,
          "names_prev": [],
          "sub_last": {
            "id": 1000023706,
            "date": "2013-01-28",
            "date_dereg": "2013-04-23",
            "lat_sub": "18.261500",
            "lon_sub": "-066.027167",
            "lat_frs": 18.26239,
            "lon_frs": -66.02901
          }
        },
        {
          "EPAFacilityID": "100000079559",
          "name": "Clorox Manufacturing Company of Puerto Rico, Inc.",
          "city": "Caguas",
          "address": "Carretera #1 KM 0.9 \u2022 Ramal 798 Bo. Rio Canas",
          "lat_fac": 18.29762,
          "lon_fac": -66.05805,
          "names_prev": [
            "The Clorox Company of Puerto Rico"
          ],
          "sub_last": {
            "id": 1000084305,
            "date": "2019-12-26",
            "date_dereg": null,
            "lat_sub": "18.297671",
            "lon_sub": "-066.060938",
            "lat_frs": 18.29762,
            "lon_frs": -66.05805
          }
        },
        {
          "EPAFacilityID": "100000202559",
          "name": "Sachs Chemical, Inc.",
          "city": "Caguas",
          "address": "P.R. Road 175, Km. 0.02, Lot 18 \u2022 Rio Ca?as Industrial Ward",
          "lat_fac": null,
          "lon_fac": null,
          "names_prev": [],
          "sub_last": {
            "id": 1000069558,
            "date": "2018-04-30",
            "date_dereg": null,
            "lat_sub": "18.298333",
            "lon_sub": "-066.055000",
            "lat_frs": null,
            "lon_frs": null
          }
        },
        {
          "EPAFacilityID": "100000125839",
          "name": "San Antonio (Caguas) Filtration Plant",
          "city": "Caguas",
          "address": "Carr. 175, Int. 739 \u2022 Bo. San Antonio",
          "lat_fac": 18.30139,
          "lon_fac": -66.03139,
          "names_prev": [],
          "sub_last": {
            "id": 29443,
            "date": "2004-01-28",
            "date_dereg": "2004-08-12",
            "lat_sub": "18.301389",
            "lon_sub": "-66.031389",
            "lat_frs": 18.30139,
            "lon_frs": -66.03139
          }
        }
      ]
    },
    {
      "fips": "72027",
      "name": "Camuy Municipio",
      "facilities": [
        {
          "EPAFacilityID": "100000122958",
          "name": "Camuy Hatillo Wastewater Treatment Plant",
          "city": "Camuy",
          "address": "PR-485 Km. 3.5 \u2022 Membrillo Ward Bajura Sector",
          "lat_fac": 18.49,
          "lon_fac": -66.87806,
          "names_prev": [
            "Camuy-Hatillo Regional Wastewater Treatment Plant"
          ],
          "sub_last": {
            "id": 1000062933,
            "date": "2019-04-30",
            "date_dereg": null,
            "lat_sub": "18.488744",
            "lon_sub": "-066.875578",
            "lat_frs": 18.49,
            "lon_frs": -66.87806
          }
        }
      ]
    },
    {
      "fips": "72029",
      "name": "Canovanas Municipio",
      "facilities": [
        {
          "EPAFacilityID": "100000121414",
          "name": "Canovanas Filtration Plant",
          "city": "Canovanas",
          "address": "Carr. 3, Km 17.4",
          "lat_fac": 18.37667,
          "lon_fac": -65.89222,
          "names_prev": [],
          "sub_last": {
            "id": 29485,
            "date": "2004-01-30",
            "date_dereg": "2007-10-22",
            "lat_sub": "18.376667",
            "lon_sub": "-65.892222",
            "lat_frs": 18.37667,
            "lon_frs": -65.89222
          }
        },
        {
          "EPAFacilityID": "100000201382",
          "name": "Canovanas Nueva Water Filtration Plant",
          "city": "Canovanas",
          "address": "PR # 3 Km. 18.4",
          "lat_fac": null,
          "lon_fac": null,
          "names_prev": [],
          "sub_last": {
            "id": 1000031300,
            "date": "2012-11-16",
            "date_dereg": "2018-02-27",
            "lat_sub": "18.376819",
            "lon_sub": "-065.881123",
            "lat_frs": null,
            "lon_frs": null
          }
        }
      ]
    },
    {
      "fips": "72031",
      "name": "Carolina Municipio",
      "facilities": [
        {
          "EPAFacilityID": "100000245399",
          "name": "Planta de Filtracion de Trujillo Bajo",
          "city": "Carolina",
          "address": "State Road PR-853, Km1.0 \u2022 Trujillo Bajo Ward",
          "lat_fac": null,
          "lon_fac": null,
          "names_prev": [],
          "sub_last": {
            "id": 1000090082,
            "date": "2020-10-13",
            "date_dereg": "2021-09-09",
            "lat_sub": "18.3732",
            "lon_sub": "-65.9493",
            "lat_frs": null,
            "lon_frs": null
          }
        },
        {
          "EPAFacilityID": "100000209614",
          "name": "Tech Aerofoam Products International",
          "city": "Carolina",
          "address": "Rosendo Vela Lot # 6 \u2022 Urb. Ind.l Jardines de Carolina",
          "lat_fac": null,
          "lon_fac": null,
          "names_prev": [],
          "sub_last": {
            "id": 1000011767,
            "date": "2009-11-17",
            "date_dereg": "2014-09-22",
            "lat_sub": "18.37694",
            "lon_sub": "-65.97306",
            "lat_frs": null,
            "lon_frs": null
          }
        },
        {
          "EPAFacilityID": "100000074992",
          "name": "Tech Aerofoam Products International, Inc.",
          "city": "Carolina",
          "address": "Road PR-3 Km 12.7",
          "lat_fac": 18.375,
          "lon_fac": -65.94167,
          "names_prev": [
            "TECH AEROFOAM PRODUCTS INTERNATIONAL , INC."
          ],
          "sub_last": {
            "id": 45565,
            "date": "2006-05-02",
            "date_dereg": "2009-07-02",
            "lat_sub": "18.373889",
            "lon_sub": "-065.941111",
            "lat_frs": 18.375,
            "lon_frs": -65.94167
          }
        }
      ]
    },
    {
      "fips": "72033",
      "name": "Catano Municipio",
      "facilities": [
        {
          "EPAFacilityID": "100000123118",
          "name": "Bayamon Wastewater Treatment Plant",
          "city": "Cata?o",
          "address": "Carr. 869 Km. 2.9 \u2022 Bo. Palmas",
          "lat_fac": 18.44556,
          "lon_fac": -66.15222,
          "names_prev": [],
          "sub_last": {
            "id": 1000060249,
            "date": "2018-11-28",
            "date_dereg": null,
            "lat_sub": "18.441881",
            "lon_sub": "-066.152222",
            "lat_frs": 18.44556,
            "lon_frs": -66.15222
          }
        },
        {
          "EPAFacilityID": "100000208731",
          "name": "Bacardi Corporation",
          "city": "Catano",
          "address": "Road #165, KM 6.2 \u2022 Industrial Area",
          "lat_fac": null,
          "lon_fac": null,
          "names_prev": [],
          "sub_last": {
            "id": 1000082822,
            "date": "2019-11-01",
            "date_dereg": null,
            "lat_sub": "18.458670",
            "lon_sub": "-66.143116",
            "lat_frs": null,
            "lon_frs": null
          }
        },
        {
          "EPAFacilityID": "100000032181",
          "name": "Mays Ochoa Corporation",
          "city": "Catano",
          "address": "Road PR-869, St. 2 #515 Palmas Ward \u2022 Westgate Industrial Park",
          "lat_fac": 18.42556,
          "lon_fac": -66.15556,
          "names_prev": [
            "Ochoa Industrial Sales Corporation",
            "Ochoa Industrial SalesCorporation"
          ],
          "sub_last": {
            "id": 1000062868,
            "date": "2017-04-03",
            "date_dereg": null,
            "lat_sub": "18.425556",
            "lon_sub": "-066.155556",
            "lat_frs": 18.42556,
            "lon_frs": -66.15556
          }
        },
        {
          "EPAFacilityID": "100000055432",
          "name": "Messer Gas Puerto Rico Inc - Cata?o",
          "city": "Catano",
          "address": "Road 869 KM 1.8 \u2022 Bo. Palmas",
          "lat_fac": 18.43066,
          "lon_fac": -66.15408,
          "names_prev": [
            "Linde Gas Puerto Rico Inc - Cata?o",
            "Linde Gas Puerto Rico, Inc. Catano",
            "Linde Gas, LLC - Puerto Rico",
            "AGA General Gases"
          ],
          "sub_last": {
            "id": 1000097102,
            "date": "2021-12-07",
            "date_dereg": null,
            "lat_sub": "18.432889",
            "lon_sub": "-066.153417",
            "lat_frs": 18.43066,
            "lon_frs": -66.15408
          }
        },
        {
          "EPAFacilityID": "100000135114",
          "name": "Water Treatment Specialists, Inc.",
          "city": "Catano",
          "address": "P. R. Road 869, Km 2.0",
          "lat_fac": 18.43386,
          "lon_fac": -66.14961,
          "names_prev": [
            "Water Treatment Specialists,Inc",
            "water Treatment Specialist"
          ],
          "sub_last": {
            "id": 1000093162,
            "date": "2021-04-07",
            "date_dereg": null,
            "lat_sub": "18.433861",
            "lon_sub": "-066.149611",
            "lat_frs": 18.43386,
            "lon_frs": -66.14961
          }
        }
      ]
    },
    {
      "fips": "72035",
      "name": "Cayey Municipio",
      "facilities": [
        {
          "EPAFacilityID": "100000120237",
          "name": "Cayey Filtration Plant",
          "city": "Cayey",
          "address": "Carretera PR-1 Km. 59.5 \u2022 Sector Canteras",
          "lat_fac": 18.10644,
          "lon_fac": -66.17055,
          "names_prev": [],
          "sub_last": {
            "id": 1000065401,
            "date": "2018-03-23",
            "date_dereg": "2020-10-07",
            "lat_sub": "18.100390",
            "lon_sub": "-066.168975",
            "lat_frs": 18.10644,
            "lon_frs": -66.17055
          }
        },
        {
          "EPAFacilityID": "100000124894",
          "name": "Culebras Alto-Cayey-Filtration Plant",
          "city": "Cayey",
          "address": "Carr.738, Km 1.5 \u2022 Bo. Culebras",
          "lat_fac": 18.07722,
          "lon_fac": -66.145,
          "names_prev": [],
          "sub_last": {
            "id": 29431,
            "date": "2004-01-28",
            "date_dereg": "2004-08-12",
            "lat_sub": "18.077222",
            "lon_sub": "-66.145",
            "lat_frs": 18.07722,
            "lon_frs": -66.145
          }
        },
        {
          "EPAFacilityID": "100000119873",
          "name": "Farallon, Cayey Filtration Plant",
          "city": "Cayey",
          "address": "PR-742  End",
          "lat_fac": 18.10306,
          "lon_fac": -66.11,
          "names_prev": [
            "Cayey Farallon Filtration Plant",
            "Farallon-Cayey Filtration Plant"
          ],
          "sub_last": {
            "id": 1000065397,
            "date": "2019-04-30",
            "date_dereg": "2020-09-29",
            "lat_sub": "18.089441",
            "lon_sub": "-066.106018",
            "lat_frs": 18.10306,
            "lon_frs": -66.11
          }
        }
      ]
    },
    {
      "fips": "72037",
      "name": "Ceiba Municipio",
      "facilities": [
        {
          "EPAFacilityID": "100000120148",
          "name": "Ceiba Wastewater Treatment Plant",
          "city": "Ceiba",
          "address": "Carr 979, Km. 53.2",
          "lat_fac": 18.27111,
          "lon_fac": -65.64139,
          "names_prev": [],
          "sub_last": {
            "id": 40240,
            "date": "2004-09-15",
            "date_dereg": "2009-02-27",
            "lat_sub": "18.271111",
            "lon_sub": "-065.641389",
            "lat_frs": 18.27111,
            "lon_frs": -65.64139
          }
        },
        {
          "EPAFacilityID": "100000127463",
          "name": "Naval Activity Puerto Rico",
          "city": "Ceiba",
          "address": "NAPR Officer in Charge \u2022 Building 31 Forrestal Drive",
          "lat_fac": 18.22333,
          "lon_fac": -65.60944,
          "names_prev": [
            "U. S. Naval Station Roosevelt Roads"
          ],
          "sub_last": {
            "id": 1000011452,
            "date": "2009-11-25",
            "date_dereg": "2012-04-25",
            "lat_sub": "18.224889",
            "lon_sub": "-065.650194",
            "lat_frs": 18.22333,
            "lon_frs": -65.60944
          }
        }
      ]
    },
    {
      "fips": "72039",
      "name": "Ciales Municipio",
      "facilities": [
        {
          "EPAFacilityID": "100000124741",
          "name": "Ciales Pozas Filtration Plant",
          "city": "Ciales",
          "address": "Carr. 615, Km. 1.6 \u2022 Bo. Pozas",
          "lat_fac": 18.2875,
          "lon_fac": -66.49,
          "names_prev": [
            "Pozas (Ciales) Filtration Plant"
          ],
          "sub_last": {
            "id": 40249,
            "date": "2004-09-15",
            "date_dereg": "2009-08-26",
            "lat_sub": "18.287500",
            "lon_sub": "-066.490000",
            "lat_frs": 18.2875,
            "lon_frs": -66.49
          }
        },
        {
          "EPAFacilityID": "100000121441",
          "name": "Ciales Wastewater Treatment Plant",
          "city": "Ciales",
          "address": "Carr. 149, Km 12.1",
          "lat_fac": 18.34639,
          "lon_fac": -66.46889,
          "names_prev": [],
          "sub_last": {
            "id": 29488,
            "date": "2004-01-30",
            "date_dereg": "2007-10-24",
            "lat_sub": "18.346389",
            "lon_sub": "-66.468889",
            "lat_frs": 18.34639,
            "lon_frs": -66.46889
          }
        }
      ]
    },
    {
      "fips": "72041",
      "name": "Cidra Municipio",
      "facilities": [
        {
          "EPAFacilityID": "100000120184",
          "name": "Cayey-Cidra Wastewater Treatment Plant",
          "city": "Cidra",
          "address": "PR-171 Km. 5.7 Interior \u2022 Bo. Rincon",
          "lat_fac": 18.13667,
          "lon_fac": -66.17278,
          "names_prev": [
            "Cayey Wastewater Treatment Plant",
            "Cayey at Cidra Regional Wastewater Treatment Plant"
          ],
          "sub_last": {
            "id": 54521,
            "date": "2009-06-10",
            "date_dereg": "2010-03-02",
            "lat_sub": "18.135213",
            "lon_sub": "-066.172454",
            "lat_frs": 18.13667,
            "lon_frs": -66.17278
          }
        },
        {
          "EPAFacilityID": "100000121487",
          "name": "Cidra Filtration Plant",
          "city": "Cidra",
          "address": "Carr. 783 Final; Carr. 173, Km 3.3 \u2022 Represa del Lago Cidra",
          "lat_fac": 18.19612,
          "lon_fac": -66.14124,
          "names_prev": [],
          "sub_last": {
            "id": 29496,
            "date": "2004-02-02",
            "date_dereg": "2004-08-12",
            "lat_sub": "18.197778",
            "lon_sub": "-66.142778",
            "lat_frs": 18.19612,
            "lon_frs": -66.14124
          }
        },
        {
          "EPAFacilityID": "100000187246",
          "name": "Cidra Nueva Filtration Plant",
          "city": "Cidra",
          "address": "Carr. 783 Final; Carr. 173, Km 3.3 \u2022 Represa del Lago Cidra",
          "lat_fac": null,
          "lon_fac": null,
          "names_prev": [],
          "sub_last": {
            "id": 50245,
            "date": "2007-11-30",
            "date_dereg": "2011-05-06",
            "lat_sub": "18.195800",
            "lon_sub": "-066.141296",
            "lat_frs": null,
            "lon_frs": null
          }
        },
        {
          "EPAFacilityID": "100000139717",
          "name": "CONCENTRATE MANUFACTURING OPERATIONS PEPSICO PR",
          "city": "CIDRA",
          "address": "CIDRA  INDUSTRIAL PARK \u2022 LOTE 11 & 12",
          "lat_fac": 18.17267,
          "lon_fac": -66.15742,
          "names_prev": [],
          "sub_last": {
            "id": 13167,
            "date": "1999-07-19",
            "date_dereg": "2004-08-10",
            "lat_sub": "18.172667",
            "lon_sub": "-66.157417",
            "lat_frs": 18.17267,
            "lon_frs": -66.15742
          }
        }
      ]
    },
    {
      "fips": "72043",
      "name": "Coamo Municipio",
      "facilities": [
        {
          "EPAFacilityID": "100000198635",
          "name": "Productos Avicolas del Caribe",
          "city": "Coamo",
          "address": "Road 14  Km. 37.3 \u2022 Bo. Cuyon  Sector Calabazas",
          "lat_fac": null,
          "lon_fac": null,
          "names_prev": [],
          "sub_last": {
            "id": 48014,
            "date": "2007-04-13",
            "date_dereg": "2012-04-17",
            "lat_sub": "18.081389",
            "lon_sub": "-066.331111",
            "lat_frs": null,
            "lon_frs": null
          }
        }
      ]
    },
    {
      "fips": "72045",
      "name": "Comerio Municipio",
      "facilities": [
        {
          "EPAFacilityID": "100000123234",
          "name": "Comerio Wastewater Treatment Plant",
          "city": "Comerio",
          "address": "Carr. 167, Km. 0.6 \u2022 Bo. Do?a Elena",
          "lat_fac": 18.2425,
          "lon_fac": -66.20611,
          "names_prev": [],
          "sub_last": {
            "id": 40232,
            "date": "2004-09-15",
            "date_dereg": "2009-09-03",
            "lat_sub": "18.242500",
            "lon_sub": "-066.206111",
            "lat_frs": 18.2425,
            "lon_frs": -66.20611
          }
        }
      ]
    },
    {
      "fips": "72047",
      "name": "Corozal Municipio",
      "facilities": [
        {
          "EPAFacilityID": "100000123163",
          "name": "Corozal Wastewater Treatment Plant",
          "city": "Corozal",
          "address": "PR-818 Km-1.0 \u2022 Cibuco Ward",
          "lat_fac": 18.34556,
          "lon_fac": -66.32778,
          "names_prev": [],
          "sub_last": {
            "id": 54423,
            "date": "2009-06-03",
            "date_dereg": "2013-02-25",
            "lat_sub": "18.345819",
            "lon_sub": "-066.327820",
            "lat_frs": 18.34556,
            "lon_frs": -66.32778
          }
        },
        {
          "EPAFacilityID": "100000126641",
          "name": "Negros-Corozal Filtration Plant",
          "city": "Corozal",
          "address": "PR-805 Km-2.0 \u2022 Negros Ward",
          "lat_fac": 18.33228,
          "lon_fac": -66.33118,
          "names_prev": [
            "Corozal Bo. Negro Filtration Plant"
          ],
          "sub_last": {
            "id": 1000062934,
            "date": "2019-05-28",
            "date_dereg": null,
            "lat_sub": "18.286975",
            "lon_sub": "-066.333084",
            "lat_frs": 18.33228,
            "lon_frs": -66.33118
          }
        }
      ]
    },
    {
      "fips": "72051",
      "name": "Dorado Municipio",
      "facilities": [
        {
          "EPAFacilityID": "100000124493",
          "name": "Dorado Wastewater Treatment Plant",
          "city": "Dorado",
          "address": "PR-693 Km-5.6 \u2022 Industrial street La Marina Sector",
          "lat_fac": 18.45589,
          "lon_fac": -66.25826,
          "names_prev": [],
          "sub_last": {
            "id": 53768,
            "date": "2009-02-19",
            "date_dereg": "2009-03-13",
            "lat_sub": "18.456407",
            "lon_sub": "-066.259362",
            "lat_frs": 18.45589,
            "lon_frs": -66.25826
          }
        }
      ]
    },
    {
      "fips": "72053",
      "name": "Fajardo Municipio",
      "facilities": [
        {
          "EPAFacilityID": "100000207028",
          "name": "Acueducto Regional del Noreste (PF Fajardo Nueva)",
          "city": "Fajardo",
          "address": "State Road PR-53 Exit 2 \u2022 Bo. Quebrada Vueltas, Las Carolinas",
          "lat_fac": null,
          "lon_fac": null,
          "names_prev": [],
          "sub_last": {
            "id": 1000065404,
            "date": "2018-11-07",
            "date_dereg": "2020-09-29",
            "lat_sub": "18.295021",
            "lon_sub": "-065.652733",
            "lat_frs": null,
            "lon_frs": null
          }
        },
        {
          "EPAFacilityID": "100000123289",
          "name": "Fajardo Ceiba Filtration Plant",
          "city": "Fajardo",
          "address": "Carr. 976, Km 6.8",
          "lat_fac": 18.28139,
          "lon_fac": -65.72833,
          "names_prev": [
            "Fajardo-Ceiba Filtration Plant"
          ],
          "sub_last": {
            "id": 42085,
            "date": "2005-02-18",
            "date_dereg": "2008-11-18",
            "lat_sub": "18.281389",
            "lon_sub": "-065.728333",
            "lat_frs": 18.28139,
            "lon_frs": -65.72833
          }
        },
        {
          "EPAFacilityID": "100000119784",
          "name": "Fajardo Wastewater Treatment Plant",
          "city": "Fajardo",
          "address": "Carr. 195, Esq. #3 \u2022 Bo. Jerusalem",
          "lat_fac": 18.32667,
          "lon_fac": -65.64389,
          "names_prev": [],
          "sub_last": {
            "id": 40261,
            "date": "2004-09-16",
            "date_dereg": "2007-12-28",
            "lat_sub": "18.326667",
            "lon_sub": "-065.643889",
            "lat_frs": 18.32667,
            "lon_frs": -65.64389
          }
        }
      ]
    },
    {
      "fips": "72055",
      "name": "Guanica Municipio",
      "facilities": [
        {
          "EPAFacilityID": "100000120273",
          "name": "Guanica Wastewater Treatment Plant",
          "city": "Guanica",
          "address": "Yaguer Street Final",
          "lat_fac": 17.96694,
          "lon_fac": -66.91028,
          "names_prev": [],
          "sub_last": {
            "id": 1000039206,
            "date": "2014-02-20",
            "date_dereg": "2018-12-27",
            "lat_sub": "17.967527",
            "lon_sub": "-066.910141",
            "lat_frs": 17.96694,
            "lon_frs": -66.91028
          }
        }
      ]
    },
    {
      "fips": "72057",
      "name": "Guayama Municipio",
      "facilities": [
        {
          "EPAFacilityID": "100000177845",
          "name": "AES Puerto Rico,LP",
          "city": "Guayama",
          "address": "Road #3 KM 142 \u2022 Bo. Puente Jobos",
          "lat_fac": 17.94503,
          "lon_fac": -66.15028,
          "names_prev": [
            "AES Puerto Rico"
          ],
          "sub_last": {
            "id": 1000030219,
            "date": "2012-08-29",
            "date_dereg": "2013-11-13",
            "lat_sub": "17.943889",
            "lon_sub": "-066.150917",
            "lat_frs": 17.94503,
            "lon_frs": -66.15028
          }
        },
        {
          "EPAFacilityID": "100000102015",
          "name": "Baxter Healthcare SA/Baxter Healthcare of  P.R.",
          "city": "GUAYAMA",
          "address": "RD. 3 KM. 142.5 JOBOS WARD",
          "lat_fac": 17.96003,
          "lon_fac": -66.15011,
          "names_prev": [
            "BAXTER HEALTHCARE CORPORATION OF PUERTO RICO",
            "BAXTER CARIBE, INC."
          ],
          "sub_last": {
            "id": 1000079748,
            "date": "2019-06-19",
            "date_dereg": null,
            "lat_sub": "17.960025",
            "lon_sub": "-066.150112",
            "lat_frs": 17.96003,
            "lon_frs": -66.15011
          }
        },
        {
          "EPAFacilityID": "100000004684",
          "name": "Chevron Phillips Chemical P.R. Core Inc.",
          "city": "Guayama",
          "address": "State Road 710, Km. 1.3 \u2022 Las Mareas Ward",
          "lat_fac": 17.94207,
          "lon_fac": -66.14863,
          "names_prev": [
            "Phillips Puerto Rico Core Inc.",
            "Phillips Puerto Rico Core Inc"
          ],
          "sub_last": {
            "id": 38815,
            "date": "2004-08-26",
            "date_dereg": "2009-06-19",
            "lat_sub": "17.948333",
            "lon_sub": "-066.145833",
            "lat_frs": 17.94207,
            "lon_frs": -66.14863
          }
        },
        {
          "EPAFacilityID": "100000120816",
          "name": "Guayama Filtration Plant",
          "city": "Guayama",
          "address": "Mirasol Street Int Angeli Street",
          "lat_fac": 17.98972,
          "lon_fac": -66.11083,
          "names_prev": [],
          "sub_last": {
            "id": 1000064220,
            "date": "2019-05-20",
            "date_dereg": null,
            "lat_sub": "17.990268",
            "lon_sub": "-066.111282",
            "lat_frs": 17.98972,
            "lon_frs": -66.11083
          }
        },
        {
          "EPAFacilityID": "100000120754",
          "name": "Guayama Regional Wastewater Treatment Plant",
          "city": "Guayama",
          "address": "Road PR #-3 Int. 710 Km 2.2 \u2022 Bo. Barrancas",
          "lat_fac": 17.94889,
          "lon_fac": -66.14167,
          "names_prev": [],
          "sub_last": {
            "id": 1000031267,
            "date": "2013-02-01",
            "date_dereg": "2016-03-02",
            "lat_sub": "17.949167",
            "lon_sub": "-066.141944",
            "lat_frs": 17.94889,
            "lon_frs": -66.14167
          }
        },
        {
          "EPAFacilityID": "100000199563",
          "name": "Lilly del Caribe, Inc.- Guayama Facility",
          "city": "Guayama",
          "address": "State Rd 53, Km. 82 Jobos Exit # 83",
          "lat_fac": null,
          "lon_fac": null,
          "names_prev": [],
          "sub_last": {
            "id": 1000029536,
            "date": "2014-05-14",
            "date_dereg": "2015-08-12",
            "lat_sub": "17.981111",
            "lon_sub": "-066.153056",
            "lat_frs": null,
            "lon_frs": null
          }
        }
      ]
    },
    {
      "fips": "72059",
      "name": "Guayanilla Municipio",
      "facilities": [
        {
          "EPAFacilityID": "100000119515",
          "name": "Guayanilla Wastewater Treatment Plant",
          "city": "Guayanilla",
          "address": "Calle Mu?oz Rivera Final",
          "lat_fac": 18.01417,
          "lon_fac": -66.785,
          "names_prev": [],
          "sub_last": {
            "id": 40266,
            "date": "2004-09-16",
            "date_dereg": "2008-11-10",
            "lat_sub": "18.014167",
            "lon_sub": "-066.785000",
            "lat_frs": 18.01417,
            "lon_frs": -66.785
          }
        },
        {
          "EPAFacilityID": "100000185417",
          "name": "Messer Gas Puerto Rico Inc - Guayanilla",
          "city": "Guayanilla",
          "address": "State Rd 127  Km 12 Hm 7 \u2022 Barrio Magas",
          "lat_fac": 18.01528,
          "lon_fac": -66.77667,
          "names_prev": [
            "Linde Gas PR Inc.  Guayanilla",
            "Linde Gas PR Inc."
          ],
          "sub_last": {
            "id": 1000097951,
            "date": "2021-12-07",
            "date_dereg": null,
            "lat_sub": "18.002305",
            "lon_sub": "-066.756315",
            "lat_frs": 18.01528,
            "lon_frs": -66.77667
          }
        }
      ]
    },
    {
      "fips": "72061",
      "name": "Guaynabo Municipio",
      "facilities": [
        {
          "EPAFacilityID": "100000125214",
          "name": "Los Filtros Filtration Plant",
          "city": "Guaynabo",
          "address": "Carr. 833, Km 14.8 \u2022 Bo. Los Filtros",
          "lat_fac": 18.37567,
          "lon_fac": -66.11934,
          "names_prev": [],
          "sub_last": {
            "id": 1000060238,
            "date": "2018-03-28",
            "date_dereg": "2018-05-07",
            "lat_sub": "18.375556",
            "lon_sub": "-066.118611",
            "lat_frs": 18.37567,
            "lon_frs": -66.11934
          }
        },
        {
          "EPAFacilityID": "100000225428",
          "name": "Terminal Tropigas de Catano, PR",
          "city": "Guaynabo",
          "address": "Zona Portuaria \u2022 Carr#28 Km 5.2",
          "lat_fac": null,
          "lon_fac": null,
          "names_prev": [],
          "sub_last": {
            "id": 1000077771,
            "date": "2019-04-12",
            "date_dereg": null,
            "lat_sub": "18.4233",
            "lon_sub": "-066.1042",
            "lat_frs": null,
            "lon_frs": null
          }
        }
      ]
    },
    {
      "fips": "72063",
      "name": "Gurabo Municipio",
      "facilities": [
        {
          "EPAFacilityID": "100000119622",
          "name": "Gurabo Filtration Plant",
          "city": "Gurabo",
          "address": "Jardines de Gurabo \u2022 Street 1 Final",
          "lat_fac": 18.25583,
          "lon_fac": -65.96389,
          "names_prev": [],
          "sub_last": {
            "id": 1000043339,
            "date": "2014-05-30",
            "date_dereg": "2017-08-21",
            "lat_sub": "18.255760",
            "lon_sub": "-065.963717",
            "lat_frs": 18.25583,
            "lon_frs": -65.96389
          }
        },
        {
          "EPAFacilityID": "100000240508",
          "name": "Praxair Gurabo PR",
          "city": "Gurabo",
          "address": "St 189 int 931",
          "lat_fac": null,
          "lon_fac": null,
          "names_prev": [],
          "sub_last": {
            "id": 1000074464,
            "date": "2019-01-04",
            "date_dereg": "2021-04-16",
            "lat_sub": "18.245649",
            "lon_sub": "-66.001243",
            "lat_frs": null,
            "lon_frs": null
          }
        }
      ]
    },
    {
      "fips": "72065",
      "name": "Hatillo Municipio",
      "facilities": [
        {
          "EPAFacilityID": "100000119588",
          "name": "Hatillo Filtration Plant",
          "city": "Hatillo",
          "address": "PR-4491 Km. 0.1 Interior",
          "lat_fac": 18.47861,
          "lon_fac": -66.83222,
          "names_prev": [],
          "sub_last": {
            "id": 54193,
            "date": "2009-04-30",
            "date_dereg": "2009-05-28",
            "lat_sub": "18.477382",
            "lon_sub": "-066.832923",
            "lat_frs": 18.47861,
            "lon_frs": -66.83222
          }
        }
      ]
    },
    {
      "fips": "72069",
      "name": "Humacao Municipio",
      "facilities": [
        {
          "EPAFacilityID": "100000119542",
          "name": "Humacao Filtration Plant",
          "city": "Humacao",
          "address": "State Road PR-198 Km. 28.3 \u2022 Barrada La Pra",
          "lat_fac": 18.15667,
          "lon_fac": -65.83389,
          "names_prev": [],
          "sub_last": {
            "id": 1000028216,
            "date": "2012-12-05",
            "date_dereg": "2017-08-28",
            "lat_sub": "18.156732",
            "lon_sub": "-065.833229",
            "lat_frs": 18.15667,
            "lon_frs": -65.83389
          }
        },
        {
          "EPAFacilityID": "100000120549",
          "name": "Humacao Regional Wastewater  Treatment Plant",
          "city": "Humacao",
          "address": "State Road PR-3 Km. 76.7 \u2022 Bo. Rio Abajo",
          "lat_fac": 18.13139,
          "lon_fac": -65.79111,
          "names_prev": [
            "Humacao Wastewater Treatment Plant"
          ],
          "sub_last": {
            "id": 1000041338,
            "date": "2014-04-28",
            "date_dereg": "2016-01-20",
            "lat_sub": "18.131088",
            "lon_sub": "-065.789223",
            "lat_frs": 18.13139,
            "lon_frs": -65.79111
          }
        },
        {
          "EPAFacilityID": "100000158679",
          "name": "TAPI Puerto Rico - Humacao Site",
          "city": "Humacao",
          "address": "Highway 3, km 76.3 \u2022 C Street, Humacao Industrial Park",
          "lat_fac": 18.15675,
          "lon_fac": -65.78872,
          "names_prev": [
            "Clariant LSM (Puerto Rico) Inc.",
            "ARCHIMICA (PUERTO RICO), INC."
          ],
          "sub_last": {
            "id": 1000043691,
            "date": "2014-07-18",
            "date_dereg": "2016-07-11",
            "lat_sub": "18.152222",
            "lon_sub": "-065.789444",
            "lat_frs": 18.15675,
            "lon_frs": -65.78872
          }
        }
      ]
    },
    {
      "fips": "72071",
      "name": "Isabela Municipio",
      "facilities": [
        {
          "EPAFacilityID": "100000122985",
          "name": "Isabela Filtration Plant",
          "city": "Isabela",
          "address": "PR-112 Km-2.1 \u2022 Mora Ward",
          "lat_fac": 18.47472,
          "lon_fac": -67.02944,
          "names_prev": [],
          "sub_last": {
            "id": 1000069568,
            "date": "2019-05-20",
            "date_dereg": null,
            "lat_sub": "18.474750",
            "lon_sub": "-067.030281",
            "lat_frs": 18.47472,
            "lon_frs": -67.02944
          }
        },
        {
          "EPAFacilityID": "100000123038",
          "name": "Isabela Wastewater Treatment Plant",
          "city": "Isabela",
          "address": "Carretera PR-4466 Km 1.9 Interior \u2022 Camino 5 Sector Villa Pesquera",
          "lat_fac": 18.50556,
          "lon_fac": -67.01944,
          "names_prev": [],
          "sub_last": {
            "id": 50624,
            "date": "2008-01-17",
            "date_dereg": "2011-10-28",
            "lat_sub": "18.505642",
            "lon_sub": "-067.019074",
            "lat_frs": 18.50556,
            "lon_frs": -67.01944
          }
        }
      ]
    },
    {
      "fips": "72073",
      "name": "Jayuya Municipio",
      "facilities": [
        {
          "EPAFacilityID": "100000120102",
          "name": "Jayuya Filtration Plant",
          "city": "Jayuya",
          "address": "Carr.144, Km 21.4 \u2022 Sector El Nudo",
          "lat_fac": 18.22306,
          "lon_fac": -66.58556,
          "names_prev": [],
          "sub_last": {
            "id": 29384,
            "date": "2004-01-16",
            "date_dereg": "2007-11-30",
            "lat_sub": "18.223056",
            "lon_sub": "-66.585556",
            "lat_frs": 18.22306,
            "lon_frs": -66.58556
          }
        },
        {
          "EPAFacilityID": "100000202657",
          "name": "Jayuya Nueva Wastewater Treatment Plant",
          "city": "Jayuya",
          "address": "PR-144, Km 1.1",
          "lat_fac": null,
          "lon_fac": null,
          "names_prev": [],
          "sub_last": {
            "id": 51690,
            "date": "2008-05-15",
            "date_dereg": "2010-06-02",
            "lat_sub": "18.203333",
            "lon_sub": "-066.625833",
            "lat_frs": null,
            "lon_frs": null
          }
        },
        {
          "EPAFacilityID": "100000119276",
          "name": "Jayuya Wastewater Treatment Plant",
          "city": "Jayuya",
          "address": "Carr. 144, Km. 2.0 \u2022 Jayuya Abajo",
          "lat_fac": 18.21583,
          "lon_fac": -66.60472,
          "names_prev": [],
          "sub_last": {
            "id": 40252,
            "date": "2004-09-16",
            "date_dereg": "2007-12-28",
            "lat_sub": "18.215833",
            "lon_sub": "-066.604722",
            "lat_frs": 18.21583,
            "lon_frs": -66.60472
          }
        }
      ]
    },
    {
      "fips": "72075",
      "name": "Juana Diaz Municipio",
      "facilities": [
        {
          "EPAFacilityID": "100000171869",
          "name": "Juana Diaz Filtration Plant",
          "city": "Juana Diaz",
          "address": "Carr. 149 Km 6.0",
          "lat_fac": 18.06219,
          "lon_fac": -66.50403,
          "names_prev": [],
          "sub_last": {
            "id": 21825,
            "date": "2000-09-06",
            "date_dereg": "2005-08-19",
            "lat_sub": "18.062194",
            "lon_sub": "-66.504028",
            "lat_frs": 18.06219,
            "lon_frs": -66.50403
          }
        }
      ]
    },
    {
      "fips": "72077",
      "name": "Juncos Municipio",
      "facilities": [
        {
          "EPAFacilityID": "100000099831",
          "name": "Ceiba Sur-Juncos Filtration Plant",
          "city": "Juncos",
          "address": "PR  9934 Km. 1.5",
          "lat_fac": 18.21194,
          "lon_fac": -65.93583,
          "names_prev": [
            "Ceiba Sur - Juncos Filtration Plant"
          ],
          "sub_last": {
            "id": 53912,
            "date": "2009-03-17",
            "date_dereg": "2013-02-08",
            "lat_sub": "18.212785",
            "lon_sub": "-065.921440",
            "lat_frs": 18.21194,
            "lon_frs": -65.93583
          }
        },
        {
          "EPAFacilityID": "100000119702",
          "name": "Juncos Remocion Pump Station",
          "city": "Juncos",
          "address": "Carr. 185 \u2022 Sector Las Pi?as",
          "lat_fac": 18.24722,
          "lon_fac": -65.92111,
          "names_prev": [
            "Juncos (Remocion) Filtration Plant"
          ],
          "sub_last": {
            "id": 42095,
            "date": "2005-02-18",
            "date_dereg": "2008-10-15",
            "lat_sub": "18.247222",
            "lon_sub": "-065.921111",
            "lat_frs": 18.24722,
            "lon_frs": -65.92111
          }
        },
        {
          "EPAFacilityID": "100000121423",
          "name": "Juncos Wastewater Treatment Plant",
          "city": "Juncos",
          "address": "Calle Teodomiro Delfaus Final",
          "lat_fac": 18.23139,
          "lon_fac": -65.92778,
          "names_prev": [],
          "sub_last": {
            "id": 42091,
            "date": "2005-02-18",
            "date_dereg": "2007-12-20",
            "lat_sub": "18.231389",
            "lon_sub": "-065.927778",
            "lat_frs": 18.23139,
            "lon_frs": -65.92778
          }
        },
        {
          "EPAFacilityID": "100000038915",
          "name": "Laser Products Inc.",
          "city": "Juncos",
          "address": "185  Km 19 Antigua Central Juncos",
          "lat_fac": 18.25199,
          "lon_fac": -65.91591,
          "names_prev": [
            "LASER PRODUCTS, INC."
          ],
          "sub_last": {
            "id": 1000077640,
            "date": "2020-01-28",
            "date_dereg": null,
            "lat_sub": "18.242450",
            "lon_sub": "-65.920136",
            "lat_frs": 18.25199,
            "lon_frs": -65.91591
          }
        }
      ]
    },
    {
      "fips": "72079",
      "name": "Lajas Municipio",
      "facilities": [
        {
          "EPAFacilityID": "100000171878",
          "name": "Lajas Water Filtration Plant",
          "city": "Lajas",
          "address": "Carr. 116 and 315",
          "lat_fac": 18.04219,
          "lon_fac": -67.05328,
          "names_prev": [
            "Lajas Filtration Plant"
          ],
          "sub_last": {
            "id": 1000068802,
            "date": "2018-03-23",
            "date_dereg": "2020-09-15",
            "lat_sub": "18.041983",
            "lon_sub": "-067.053150",
            "lat_frs": 18.04219,
            "lon_frs": -67.05328
          }
        }
      ]
    },
    {
      "fips": "72081",
      "name": "Lares Municipio",
      "facilities": [
        {
          "EPAFacilityID": "100000204593",
          "name": "Espino Lares Filtration Plant",
          "city": "Lares",
          "address": "State Road PR-124 Km7.9 \u2022 Espino Abajo Ward",
          "lat_fac": null,
          "lon_fac": null,
          "names_prev": [],
          "sub_last": {
            "id": 1000062931,
            "date": "2018-03-23",
            "date_dereg": null,
            "lat_sub": "18.257061",
            "lon_sub": "-066.912109",
            "lat_frs": null,
            "lon_frs": null
          }
        },
        {
          "EPAFacilityID": "100000128346",
          "name": "Lares Wastewater Treatment Plant",
          "city": "Lares",
          "address": "Carr. 452, Km. 0.7 \u2022 Bo. Guajataca",
          "lat_fac": 18.30441,
          "lon_fac": -66.87984,
          "names_prev": [],
          "sub_last": {
            "id": 42087,
            "date": "2005-02-18",
            "date_dereg": "2009-06-26",
            "lat_sub": "18.303333",
            "lon_sub": "-066.878889",
            "lat_frs": 18.30441,
            "lon_frs": -66.87984
          }
        }
      ]
    },
    {
      "fips": "72083",
      "name": "Las Marias Municipio",
      "facilities": [
        {
          "EPAFacilityID": "100000217115",
          "name": "Las Marias Potable Water Filtration Plant",
          "city": "Las Marias",
          "address": "PR-119 Km. 35.8 \u2022 Mavilla Este Ward",
          "lat_fac": null,
          "lon_fac": null,
          "names_prev": [],
          "sub_last": {
            "id": 1000026597,
            "date": "2012-10-22",
            "date_dereg": "2017-02-06",
            "lat_sub": "18.275056",
            "lon_sub": "-066.979417",
            "lat_frs": null,
            "lon_frs": null
          }
        }
      ]
    },
    {
      "fips": "72087",
      "name": "Loiza Municipio",
      "facilities": [
        {
          "EPAFacilityID": "100000119551",
          "name": "Carolina Regional Wastewater Treatment Plant",
          "city": "Loiza",
          "address": "PR Road 187 Km. 16.5 Bo. Torrecilla",
          "lat_fac": 18.43639,
          "lon_fac": -65.88556,
          "names_prev": [],
          "sub_last": {
            "id": 1000060250,
            "date": "2018-03-23",
            "date_dereg": null,
            "lat_sub": "18.436389",
            "lon_sub": "-065.885560",
            "lat_frs": 18.43639,
            "lon_frs": -65.88556
          }
        }
      ]
    },
    {
      "fips": "72089",
      "name": "Luquillo Municipio",
      "facilities": [
        {
          "EPAFacilityID": "100000125642",
          "name": "Luquillo Filtration Plant",
          "city": "Luquillo",
          "address": "Carr. 983, Km 6.2 \u2022 Bo. Sabana",
          "lat_fac": 18.32833,
          "lon_fac": -65.72861,
          "names_prev": [],
          "sub_last": {
            "id": 29440,
            "date": "2004-01-28",
            "date_dereg": "2004-08-12",
            "lat_sub": "18.328333",
            "lon_sub": "-65.728611",
            "lat_frs": 18.32833,
            "lon_frs": -65.72861
          }
        },
        {
          "EPAFacilityID": "100000128426",
          "name": "Luquillo Wastewater Treatment Plant",
          "city": "Luquillo",
          "address": "PR-3 Int PR-991 Km 0.1 \u2022 Brisas del Mar",
          "lat_fac": 18.36917,
          "lon_fac": -65.70333,
          "names_prev": [],
          "sub_last": {
            "id": 54274,
            "date": "2009-05-14",
            "date_dereg": "2009-11-17",
            "lat_sub": "18.369556",
            "lon_sub": "-065.715485",
            "lat_frs": 18.36917,
            "lon_frs": -65.70333
          }
        },
        {
          "EPAFacilityID": "100000094033",
          "name": "Metalor Electrotechnics (PR) LLC",
          "city": "Luquillo",
          "address": "Road 992, KM 0.3, Lot #2",
          "lat_fac": 18.35833,
          "lon_fac": -65.70833,
          "names_prev": [
            "AMI Doduco (PR), Inc."
          ],
          "sub_last": {
            "id": 1000041442,
            "date": "2014-04-30",
            "date_dereg": "2014-08-04",
            "lat_sub": "18.358333",
            "lon_sub": "-065.708333",
            "lat_frs": 18.35833,
            "lon_frs": -65.70833
          }
        }
      ]
    },
    {
      "fips": "72091",
      "name": "Manati Municipio",
      "facilities": [
        {
          "EPAFacilityID": "100000138362",
          "name": "Schering Plough Products, LLC - Manati Operations",
          "city": "Manati",
          "address": "State Rd. 686, Km 0.5, Coto Norte",
          "lat_fac": 18.43837,
          "lon_fac": -66.46881,
          "names_prev": [
            "Schering-Plough Products, Inc., Manatm Operations"
          ],
          "sub_last": {
            "id": 46272,
            "date": "2006-08-16",
            "date_dereg": "2006-09-18",
            "lat_sub": "18.441306",
            "lon_sub": "-066.466806",
            "lat_frs": 18.43837,
            "lon_frs": -66.46881
          }
        }
      ]
    },
    {
      "fips": "72097",
      "name": "Mayaguez Municipio",
      "facilities": [
        {
          "EPAFacilityID": "100000182312",
          "name": "Compania Cervecera de Puerto Rico, Inc.",
          "city": "Mayaguez",
          "address": "100 Blvd. Alfonso Valdes",
          "lat_fac": 18.20666,
          "lon_fac": -67.14268,
          "names_prev": [
            "Cerveceria India, Inc."
          ],
          "sub_last": {
            "id": 1000094764,
            "date": "2021-07-16",
            "date_dereg": null,
            "lat_sub": "18.206944",
            "lon_sub": "-067.141667",
            "lat_frs": 18.20666,
            "lon_frs": -67.14268
          }
        },
        {
          "EPAFacilityID": "100000169257",
          "name": "Lilly del Caribe, Inc.",
          "city": "Mayaguez",
          "address": "3080 Hostos Avenue",
          "lat_fac": 18.26778,
          "lon_fac": -67.15694,
          "names_prev": [],
          "sub_last": {
            "id": 21246,
            "date": "2000-05-09",
            "date_dereg": "2004-03-09",
            "lat_sub": "18.266667",
            "lon_sub": "-67.157083",
            "lat_frs": 18.26778,
            "lon_frs": -67.15694
          }
        },
        {
          "EPAFacilityID": "100000125777",
          "name": "Mayaguez Regional Wastewater Treatment Plant",
          "city": "Mayaguez",
          "address": "PR Rd 342, Km. 0.5",
          "lat_fac": 18.24944,
          "lon_fac": -67.15472,
          "names_prev": [],
          "sub_last": {
            "id": 1000068803,
            "date": "2018-03-23",
            "date_dereg": "2020-11-23",
            "lat_sub": "18.249568",
            "lon_sub": "-067.155559",
            "lat_frs": 18.24944,
            "lon_frs": -67.15472
          }
        },
        {
          "EPAFacilityID": "100000126455",
          "name": "Mayaguez Vieja Filtration Plant",
          "city": "Mayaguez",
          "address": "Urb. Ponce de Leon \u2022 Calle Ramos Antonini Interior",
          "lat_fac": 18.20278,
          "lon_fac": -67.12611,
          "names_prev": [
            "Mayaguez (Vieja) Filtration Plant"
          ],
          "sub_last": {
            "id": 1000031268,
            "date": "2013-02-01",
            "date_dereg": "2015-11-30",
            "lat_sub": "18.202361",
            "lon_sub": "-067.125528",
            "lat_frs": 18.20278,
            "lon_frs": -67.12611
          }
        },
        {
          "EPAFacilityID": "100000128195",
          "name": "Miradero-Mayaguez Filtration Plant",
          "city": "Mayaguez",
          "address": "Carr. 108, Km 2.8",
          "lat_fac": 18.22596,
          "lon_fac": -67.14005,
          "names_prev": [],
          "sub_last": {
            "id": 1000031297,
            "date": "2013-02-01",
            "date_dereg": "2015-11-24",
            "lat_sub": "18.225989",
            "lon_sub": "-067.139759",
            "lat_frs": 18.22596,
            "lon_frs": -67.14005
          }
        },
        {
          "EPAFacilityID": "100000121584",
          "name": "STAR KIST CARIBE, INC.",
          "city": "MAYAGUEZ",
          "address": "3051 ROAD 64",
          "lat_fac": 18.2012,
          "lon_fac": -67.115,
          "names_prev": [],
          "sub_last": {
            "id": 11565,
            "date": "1999-07-13",
            "date_dereg": "2005-10-21",
            "lat_sub": "18.216667",
            "lon_sub": "67.166667",
            "lat_frs": 18.2012,
            "lon_frs": -67.115
          }
        }
      ]
    },
    {
      "fips": "72101",
      "name": "Morovis Municipio",
      "facilities": [
        {
          "EPAFacilityID": "100000125955",
          "name": "Morovis Sur Filtration Plant",
          "city": "Morovis",
          "address": "State Road 618 Km. 0.3 \u2022 Morovis Sur",
          "lat_fac": 18.30869,
          "lon_fac": -66.40661,
          "names_prev": [],
          "sub_last": {
            "id": 1000062932,
            "date": "2019-05-22",
            "date_dereg": null,
            "lat_sub": "18.308778",
            "lon_sub": "-066.406972",
            "lat_frs": 18.30869,
            "lon_frs": -66.40661
          }
        },
        {
          "EPAFacilityID": "100000126712",
          "name": "Morovis Wastewater Treatment Plant",
          "city": "Morovis",
          "address": "Carr. 155, Km. 50",
          "lat_fac": 18.3359,
          "lon_fac": -66.4201,
          "names_prev": [],
          "sub_last": {
            "id": 42088,
            "date": "2005-02-18",
            "date_dereg": "2008-11-04",
            "lat_sub": "18.336111",
            "lon_sub": "-066.420000",
            "lat_frs": 18.3359,
            "lon_frs": -66.4201
          }
        }
      ]
    },
    {
      "fips": "72103",
      "name": "Naguabo Municipio",
      "facilities": [
        {
          "EPAFacilityID": "100000112852",
          "name": "Alberto Culver (PR), Inc.",
          "city": "Naguabo",
          "address": "Road 192 Km. 0.5",
          "lat_fac": 18.21164,
          "lon_fac": -65.73801,
          "names_prev": [
            "ALBERTO CULVER(PR) INC",
            "ALBERTO CULVER (PR) Inc."
          ],
          "sub_last": {
            "id": 45007,
            "date": "2006-03-01",
            "date_dereg": "2009-04-24",
            "lat_sub": "18.199667",
            "lon_sub": "-065.724972",
            "lat_frs": 18.21164,
            "lon_frs": -65.73801
          }
        },
        {
          "EPAFacilityID": "100000173518",
          "name": "Rio Blanco-Humacao Filtration Plant",
          "city": "Naguabo",
          "address": "Carr. 31, Km 9.4 \u2022 Bo. Rio Blanco",
          "lat_fac": 18.21556,
          "lon_fac": -65.78583,
          "names_prev": [
            "Rio Blanco - Humacao Filtration Plant"
          ],
          "sub_last": {
            "id": 1000028218,
            "date": "2013-01-30",
            "date_dereg": "2017-02-01",
            "lat_sub": "18.215556",
            "lon_sub": "-065.785833",
            "lat_frs": 18.21556,
            "lon_frs": -65.78583
          }
        }
      ]
    },
    {
      "fips": "72107",
      "name": "Orocovis Municipio",
      "facilities": [
        {
          "EPAFacilityID": "100000123948",
          "name": "Orocovis Filtration Plant",
          "city": "Orocovis",
          "address": "Carretera 156 Km. 1.5 Interior \u2022 Sector Las Marianas",
          "lat_fac": 18.22111,
          "lon_fac": -66.38278,
          "names_prev": [],
          "sub_last": {
            "id": 1000064224,
            "date": "2018-03-23",
            "date_dereg": null,
            "lat_sub": "18.221361",
            "lon_sub": "-066.382389",
            "lat_frs": 18.22111,
            "lon_frs": -66.38278
          }
        },
        {
          "EPAFacilityID": "100000123822",
          "name": "Orocovis Wastewater Treatment Plant",
          "city": "Orocovis",
          "address": "Carr. 155, Km 28.7 \u2022 Bo. Barro",
          "lat_fac": 18.23144,
          "lon_fac": -66.38813,
          "names_prev": [],
          "sub_last": {
            "id": 29583,
            "date": "2004-02-19",
            "date_dereg": "2007-11-30",
            "lat_sub": "18.233889",
            "lon_sub": "-66.396389",
            "lat_frs": 18.23144,
            "lon_frs": -66.38813
          }
        }
      ]
    },
    {
      "fips": "72109",
      "name": "Patillas Municipio",
      "facilities": [
        {
          "EPAFacilityID": "100000124698",
          "name": "Patillas Filtration Plant",
          "city": "Patillas",
          "address": "Carretera 181 Km 1.6 \u2022 Bo. Marin Bajo",
          "lat_fac": 18.01556,
          "lon_fac": -66.01722,
          "names_prev": [],
          "sub_last": {
            "id": 1000034583,
            "date": "2018-04-12",
            "date_dereg": null,
            "lat_sub": "18.017472",
            "lon_sub": "-066.017333",
            "lat_frs": 18.01556,
            "lon_frs": -66.01722
          }
        }
      ]
    },
    {
      "fips": "72111",
      "name": "Penuelas Municipio",
      "facilities": [
        {
          "EPAFacilityID": "100000169435",
          "name": "COMMONWEALTH OIL REFINING CO., INC.",
          "city": "PE?UELAS",
          "address": "ROAD 127 KM. 17.3",
          "lat_fac": 18.00472,
          "lon_fac": -66.74416,
          "names_prev": [],
          "sub_last": {
            "id": 1000080630,
            "date": "2019-07-16",
            "date_dereg": null,
            "lat_sub": "18.001792",
            "lon_sub": "-66.747414",
            "lat_frs": 18.00472,
            "lon_frs": -66.74416
          }
        },
        {
          "EPAFacilityID": "100000163565",
          "name": "EcoElectrica, L.P.",
          "city": "Pe?uelas",
          "address": "Road 337 Km 3.7",
          "lat_fac": 17.97847,
          "lon_fac": -66.75686,
          "names_prev": [
            "EcoElictrica LNG Import Terminal and Cogeneration"
          ],
          "sub_last": {
            "id": 1000044126,
            "date": "2019-05-31",
            "date_dereg": null,
            "lat_sub": "17.978639",
            "lon_sub": "-066.755361",
            "lat_frs": 17.97847,
            "lon_frs": -66.75686
          }
        },
        {
          "EPAFacilityID": "100000048236",
          "name": "Industrial Chemicals Corporation",
          "city": "Pe?uelas",
          "address": "State Road 127 Km 19.1 \u2022 Tallaboa Poniente Ward",
          "lat_fac": 17.99444,
          "lon_fac": -66.73333,
          "names_prev": [],
          "sub_last": {
            "id": 53691,
            "date": "2009-02-13",
            "date_dereg": "2013-12-23",
            "lat_sub": "17.992778",
            "lon_sub": "-066.728333",
            "lat_frs": 17.99444,
            "lon_frs": -66.73333
          }
        },
        {
          "EPAFacilityID": "100000126543",
          "name": "Pe?uelas #2 Filtration Plant",
          "city": "Pe?uelas",
          "address": "Carr. 386, Km 0.5",
          "lat_fac": 18.06611,
          "lon_fac": -66.72556,
          "names_prev": [],
          "sub_last": {
            "id": 29452,
            "date": "2004-01-28",
            "date_dereg": "2008-06-11",
            "lat_sub": "18.066667",
            "lon_sub": "-66.725278",
            "lat_frs": 18.06611,
            "lon_frs": -66.72556
          }
        },
        {
          "EPAFacilityID": "100000120718",
          "name": "Pe?uelas 2 (Guayanes) Filtration Plant",
          "city": "Pe?uelas",
          "address": "Carretera  386, Km. 0.3 \u2022 Bo. Jaguayes Sector Guayanes",
          "lat_fac": 18.06611,
          "lon_fac": -66.72556,
          "names_prev": [
            "Pe?uelas Guayanes Filtration Plant",
            "Guayanes-Pe?uelas Filtration Plant"
          ],
          "sub_last": {
            "id": 51017,
            "date": "2008-02-25",
            "date_dereg": "2008-10-09",
            "lat_sub": "18.065835",
            "lon_sub": "-066.725860",
            "lat_frs": 18.06611,
            "lon_frs": -66.72556
          }
        },
        {
          "EPAFacilityID": "100000124858",
          "name": "Pe?uelas Wastewater Treatment Plant",
          "city": "Pe?uelas",
          "address": "Carretera 132 Km. 13.3 Bo. Saltos",
          "lat_fac": 18.04694,
          "lon_fac": -66.71556,
          "names_prev": [],
          "sub_last": {
            "id": 50978,
            "date": "2008-02-21",
            "date_dereg": "2008-11-10",
            "lat_sub": "18.048972",
            "lon_sub": "-066.721639",
            "lat_frs": 18.04694,
            "lon_frs": -66.71556
          }
        },
        {
          "EPAFacilityID": "100000168061",
          "name": "ProCaribe",
          "city": "Penuelas",
          "address": "Road 385, KM 5.4 \u2022 Tallaboa Poniente",
          "lat_fac": 17.99997,
          "lon_fac": -66.73278,
          "names_prev": [],
          "sub_last": {
            "id": 1000090131,
            "date": "2020-10-01",
            "date_dereg": null,
            "lat_sub": "18.005226",
            "lon_sub": "-66.726002",
            "lat_frs": 17.99997,
            "lon_frs": -66.73278
          }
        },
        {
          "EPAFacilityID": "100000120638",
          "name": "Union Carbide Caribe LLC",
          "city": "Pequelas",
          "address": "Barrio Tallaboa Poniente \u2022 Road 127 KM 17.3",
          "lat_fac": 17.98792,
          "lon_fac": -66.75051,
          "names_prev": [],
          "sub_last": {
            "id": 11516,
            "date": "1999-07-13",
            "date_dereg": "2005-08-11",
            "lat_sub": "17.982778",
            "lon_sub": "-66.763333",
            "lat_frs": 17.98792,
            "lon_frs": -66.75051
          }
        }
      ]
    },
    {
      "fips": "72113",
      "name": "Ponce Municipio",
      "facilities": [
        {
          "EPAFacilityID": "100000201131",
          "name": "Checkpoint Caribbean LTD",
          "city": "Ponce",
          "address": "Sabanetas Industrial Park, Lot 28 \u2022 Street #1",
          "lat_fac": null,
          "lon_fac": null,
          "names_prev": [],
          "sub_last": {
            "id": 53277,
            "date": "2011-09-27",
            "date_dereg": "2012-01-06",
            "lat_sub": "18.013950",
            "lon_sub": "-066.581240",
            "lat_frs": null,
            "lon_frs": null
          }
        },
        {
          "EPAFacilityID": "100000125438",
          "name": "Coto Laurel-Ponce Filtration Plant",
          "city": "Ponce",
          "address": "State Road 14 Km. 8.3 \u2022 Coto Laurel",
          "lat_fac": 18.04917,
          "lon_fac": -66.55528,
          "names_prev": [
            "Cotto Laurel-Ponce Filtration Plant"
          ],
          "sub_last": {
            "id": 1000064780,
            "date": "2021-08-10",
            "date_dereg": null,
            "lat_sub": "18.048471",
            "lon_sub": "-066.557816",
            "lat_frs": 18.04917,
            "lon_frs": -66.55528
          }
        },
        {
          "EPAFacilityID": "100000125713",
          "name": "Mercedita Wastewater Pump Station",
          "city": "Ponce",
          "address": "PR # 1, Km 121.3 \u2022 Mercedita",
          "lat_fac": 18.00444,
          "lon_fac": -66.56194,
          "names_prev": [],
          "sub_last": {
            "id": 50560,
            "date": "2008-01-11",
            "date_dereg": "2009-07-20",
            "lat_sub": "18.006041",
            "lon_sub": "-066.561363",
            "lat_frs": 18.00444,
            "lon_frs": -66.56194
          }
        },
        {
          "EPAFacilityID": "100000124796",
          "name": "Ponce Nueva Filtration Plant",
          "city": "Ponce",
          "address": "PR-123 Int PR-501 Km0.1 \u2022 Magueyes Ward",
          "lat_fac": 18.04004,
          "lon_fac": -66.64842,
          "names_prev": [],
          "sub_last": {
            "id": 1000063967,
            "date": "2019-02-21",
            "date_dereg": null,
            "lat_sub": "18.039772",
            "lon_sub": "-066.648338",
            "lat_frs": 18.04004,
            "lon_frs": -66.64842
          }
        },
        {
          "EPAFacilityID": "100000123779",
          "name": "Ponce Regional Wastewater Treatment Plant",
          "city": "Ponce",
          "address": "PR Road #2 Km. 259.3 \u2022 Ave, Baramaya Int. Sector Matilde",
          "lat_fac": 17.98333,
          "lon_fac": -66.64028,
          "names_prev": [],
          "sub_last": {
            "id": 1000063969,
            "date": "2018-03-23",
            "date_dereg": null,
            "lat_sub": "17.983784",
            "lon_sub": "-066.640523",
            "lat_frs": 17.98333,
            "lon_frs": -66.64028
          }
        },
        {
          "EPAFacilityID": "100000125599",
          "name": "Ponce Vieja Filtration Plant",
          "city": "Ponce",
          "address": "Alfonso Colon Final Street \u2022 Borinquen Ward",
          "lat_fac": 18.02472,
          "lon_fac": -66.61611,
          "names_prev": [],
          "sub_last": {
            "id": 1000046017,
            "date": "2019-02-12",
            "date_dereg": null,
            "lat_sub": "18.023565",
            "lon_sub": "-066.614804",
            "lat_frs": 18.02472,
            "lon_frs": -66.61611
          }
        }
      ]
    },
    {
      "fips": "72115",
      "name": "Quebradillas Municipio",
      "facilities": [
        {
          "EPAFacilityID": "100000148869",
          "name": "GLAMOURETTE FASHION MILLS INC.",
          "city": "QUEBRADILLAS",
          "address": "STATE ROAD 113 KM. 10.9",
          "lat_fac": 18.41726,
          "lon_fac": -66.89997,
          "names_prev": [],
          "sub_last": {
            "id": 14115,
            "date": "1999-07-23",
            "date_dereg": "2003-10-23",
            "lat_sub": "18.469444",
            "lon_sub": "67.937222",
            "lat_frs": 18.41726,
            "lon_frs": -66.89997
          }
        },
        {
          "EPAFacilityID": "100000120291",
          "name": "Guajataca (Quebradillas) Filtration Plant",
          "city": "Quebradillas",
          "address": "Carr. 119, Km 19.2",
          "lat_fac": 18.39778,
          "lon_fac": -66.92667,
          "names_prev": [],
          "sub_last": {
            "id": 34821,
            "date": "2004-07-28",
            "date_dereg": "2009-06-05",
            "lat_sub": "18.397778",
            "lon_sub": "-066.926667",
            "lat_frs": 18.39778,
            "lon_frs": -66.92667
          }
        },
        {
          "EPAFacilityID": "100000171841",
          "name": "Quebradillas Filtration Plant",
          "city": "Quebradillas",
          "address": "Carr. 113, Km 15.5 \u2022 San Antonio Ward",
          "lat_fac": 18.42806,
          "lon_fac": -66.92536,
          "names_prev": [],
          "sub_last": {
            "id": 43730,
            "date": "2005-09-01",
            "date_dereg": "2009-05-01",
            "lat_sub": "18.254280",
            "lon_sub": "-065.553320",
            "lat_frs": 18.42806,
            "lon_frs": -66.92536
          }
        }
      ]
    },
    {
      "fips": "72119",
      "name": "Rio Grande Municipio",
      "facilities": [
        {
          "EPAFacilityID": "100000125526",
          "name": "Rio Grande El Yunque Filtration Plant",
          "city": "Rio Grande",
          "address": "PR-995 \u2022 Blasina Sector",
          "lat_fac": 18.37833,
          "lon_fac": -65.81639,
          "names_prev": [
            "El Yunque-Rio Grande Filtration Plant"
          ],
          "sub_last": {
            "id": 1000065399,
            "date": "2018-11-07",
            "date_dereg": "2021-02-17",
            "lat_sub": "18.377502",
            "lon_sub": "-065.817320",
            "lat_frs": 18.37833,
            "lon_frs": -65.81639
          }
        },
        {
          "EPAFacilityID": "100000124439",
          "name": "Rio Grande Palmer Filtration Plant",
          "city": "Rio Grande",
          "address": "Carr. 3, Km. 31.4 \u2022 Bo. Palmer",
          "lat_fac": 18.37389,
          "lon_fac": -65.76611,
          "names_prev": [
            "Palmer - Rio Grande Filtration Plant"
          ],
          "sub_last": {
            "id": 40246,
            "date": "2004-09-15",
            "date_dereg": "2007-10-24",
            "lat_sub": "18.373889",
            "lon_sub": "-065.766111",
            "lat_frs": 18.37389,
            "lon_frs": -65.76611
          }
        }
      ]
    },
    {
      "fips": "72121",
      "name": "Sabana Grande Municipio",
      "facilities": [
        {
          "EPAFacilityID": "100000126516",
          "name": "Magina, Sabana Grande Filtration Plant",
          "city": "Sabana Grande",
          "address": "State Road PR-121 Km 4.3 \u2022 Magina Ward",
          "lat_fac": 18.04333,
          "lon_fac": -66.94944,
          "names_prev": [
            "Sabana Grande - Bo. Maginas Filtration Plant",
            "Magina-Sabana Grande Filtration Plant"
          ],
          "sub_last": {
            "id": 1000069564,
            "date": "2019-05-22",
            "date_dereg": "2020-09-15",
            "lat_sub": "18.042842",
            "lon_sub": "-066.949465",
            "lat_frs": 18.04333,
            "lon_frs": -66.94944
          }
        },
        {
          "EPAFacilityID": "100000125474",
          "name": "Sabana Grande Wastewater Treatment Plant",
          "city": "Sabana Grande",
          "address": "Carretera 2 Km. 182.6 \u2022 Zona Industrial",
          "lat_fac": 18.07139,
          "lon_fac": -66.9625,
          "names_prev": [],
          "sub_last": {
            "id": 50974,
            "date": "2008-02-21",
            "date_dereg": "2012-03-30",
            "lat_sub": "18.072417",
            "lon_sub": "-066.964250",
            "lat_frs": 18.07139,
            "lon_frs": -66.9625
          }
        }
      ]
    },
    {
      "fips": "72125",
      "name": "San German Municipio",
      "facilities": [
        {
          "EPAFacilityID": "100000125919",
          "name": "San German Wastewater Treatment Plant",
          "city": "San German",
          "address": "Carr. 360, Km. 1.4",
          "lat_fac": 18.09265,
          "lon_fac": -67.03804,
          "names_prev": [
            "San German Regional Wastewater Treatment Plant"
          ],
          "sub_last": {
            "id": 42089,
            "date": "2005-02-18",
            "date_dereg": "2008-08-29",
            "lat_sub": "18.095278",
            "lon_sub": "-067.038611",
            "lat_frs": 18.09265,
            "lon_frs": -67.03804
          }
        }
      ]
    },
    {
      "fips": "72127",
      "name": "San Juan Municipio",
      "facilities": [
        {
          "EPAFacilityID": "100000220851",
          "name": "Flexitank Depot",
          "city": "San Juan",
          "address": "Building 1026 Street #28 \u2022 Zona Portuaria Puerto Nuevo",
          "lat_fac": null,
          "lon_fac": null,
          "names_prev": [],
          "sub_last": {
            "id": 1000092103,
            "date": "2021-02-03",
            "date_dereg": null,
            "lat_sub": "18.426242",
            "lon_sub": "-66.101998",
            "lat_frs": null,
            "lon_frs": null
          }
        },
        {
          "EPAFacilityID": "100000125241",
          "name": "Puerto Nuevo Regional Wastewater Treatment Plant",
          "city": "San Juan",
          "address": "Ave. Kennedy, Km.2.0 Calle Marginal \u2022 Guillermo Federico Ortiz Final",
          "lat_fac": 18.43111,
          "lon_fac": -66.08583,
          "names_prev": [
            "Puerto Nuevo Wastewater Treatment Plant"
          ],
          "sub_last": {
            "id": 1000060252,
            "date": "2018-03-23",
            "date_dereg": null,
            "lat_sub": "18.431111",
            "lon_sub": "-066.085833",
            "lat_frs": 18.43111,
            "lon_frs": -66.08583
          }
        },
        {
          "EPAFacilityID": "100000124126",
          "name": "San Juan Chlorine Warehouse Distribution Center",
          "city": "San Juan",
          "address": "Ave. Kennedy, Km.2.0 Calle Marginal \u2022 Guillermo Federico Ortiz Final",
          "lat_fac": 18.43194,
          "lon_fac": -66.08667,
          "names_prev": [
            "San Juan Chlorine Distribution Center"
          ],
          "sub_last": {
            "id": 1000062886,
            "date": "2019-02-15",
            "date_dereg": null,
            "lat_sub": "18.431000",
            "lon_sub": "-066.086111",
            "lat_frs": 18.43194,
            "lon_frs": -66.08667
          }
        },
        {
          "EPAFacilityID": "100000203861",
          "name": "SUIZA DAIRY CORPORATION",
          "city": "SAN JUAN",
          "address": "SAN PATRICIO & DE DIEGO AVENUES \u2022 Gobernador Pineiro, RIO PIEDRAS",
          "lat_fac": null,
          "lon_fac": null,
          "names_prev": [],
          "sub_last": {
            "id": 1000036263,
            "date": "2013-09-11",
            "date_dereg": "2016-10-04",
            "lat_sub": "18.391944",
            "lon_sub": "-066.083885",
            "lat_frs": null,
            "lon_frs": null
          }
        }
      ]
    },
    {
      "fips": "72129",
      "name": "San Lorenzo Municipio",
      "facilities": [
        {
          "EPAFacilityID": "100000121646",
          "name": "Cerro Gordo-San Lorenzo Filtration Plant",
          "city": "San Lorenzo",
          "address": "Carr. 916, Km 2.0 \u2022 Bo. Cerro Gordo",
          "lat_fac": 18.15778,
          "lon_fac": -65.9575,
          "names_prev": [
            "San Lorenzo Filtration Plant"
          ],
          "sub_last": {
            "id": 1000065402,
            "date": "2018-12-12",
            "date_dereg": "2019-06-04",
            "lat_sub": "18.172342",
            "lon_sub": "-065.957534",
            "lat_frs": 18.15778,
            "lon_frs": -65.9575
          }
        },
        {
          "EPAFacilityID": "100000125189",
          "name": "San Lorenzo Wastewater Treatment Plant",
          "city": "San Lorenzo",
          "address": "Carretera PR-183 Km. 9 \u2022 Ave. De Diego",
          "lat_fac": 18.19204,
          "lon_fac": -65.96441,
          "names_prev": [],
          "sub_last": {
            "id": 50562,
            "date": "2008-01-10",
            "date_dereg": "2010-02-18",
            "lat_sub": "18.193056",
            "lon_sub": "-065.965000",
            "lat_frs": 18.19204,
            "lon_frs": -65.96441
          }
        }
      ]
    },
    {
      "fips": "72131",
      "name": "San Sebastian Municipio",
      "facilities": [
        {
          "EPAFacilityID": "100000128532",
          "name": "San Sebastian Filtration Plant",
          "city": "San Sebastian",
          "address": "Carretera 449 Km. 0.4 Interior \u2022 Sector Los Tanques Bo. Calabazas",
          "lat_fac": 18.32161,
          "lon_fac": -66.97787,
          "names_prev": [],
          "sub_last": {
            "id": 1000068838,
            "date": "2018-03-23",
            "date_dereg": null,
            "lat_sub": "18.320806",
            "lon_sub": "-066.977472",
            "lat_frs": 18.32161,
            "lon_frs": -66.97787
          }
        },
        {
          "EPAFacilityID": "100000121682",
          "name": "San Sebastian Nueva Wastewater Treatment Plant",
          "city": "San Sebastian",
          "address": "State Road 125 Km.18.4 Interior \u2022 Sector Colon Bo. Guatemala",
          "lat_fac": 18.34537,
          "lon_fac": -67.01768,
          "names_prev": [
            "San Sebastian Wastewater Treatment Plant"
          ],
          "sub_last": {
            "id": 55187,
            "date": "2009-06-26",
            "date_dereg": "2010-12-02",
            "lat_sub": "18.345361",
            "lon_sub": "-067.017586",
            "lat_frs": 18.34537,
            "lon_frs": -67.01768
          }
        }
      ]
    },
    {
      "fips": "72133",
      "name": "Santa Isabel Municipio",
      "facilities": [
        {
          "EPAFacilityID": "100000125152",
          "name": "Santa Isabel Wastewater Treatment Plant",
          "city": "Santa Isabel",
          "address": "PR-5538 Km 0.5 Interior \u2022 Velazquez Ward",
          "lat_fac": 17.96369,
          "lon_fac": -66.42162,
          "names_prev": [
            "Santa Isabel Old & New Wastewater Treatment Plants",
            "Santa Isabel Regional Wastewater Treatment Plant"
          ],
          "sub_last": {
            "id": 1000064219,
            "date": "2019-05-20",
            "date_dereg": "2021-11-19",
            "lat_sub": "17.962694",
            "lon_sub": "-066.422943",
            "lat_frs": 17.96369,
            "lon_frs": -66.42162
          }
        }
      ]
    },
    {
      "fips": "72135",
      "name": "Toa Alta Municipio",
      "facilities": [
        {
          "EPAFacilityID": "100000125223",
          "name": "La PlataToa Alta Filtration Plant (Enrique Ortega)",
          "city": "Toa Alta",
          "address": "Carr. 827, Km 5.6 \u2022 Bo. Ortiz",
          "lat_fac": 18.35278,
          "lon_fac": -66.225,
          "names_prev": [
            "La Plata-Toa Alta Filtration Plant"
          ],
          "sub_last": {
            "id": 1000060242,
            "date": "2018-03-23",
            "date_dereg": null,
            "lat_sub": "18.352778",
            "lon_sub": "-066.225000",
            "lat_frs": 18.35278,
            "lon_frs": -66.225
          }
        }
      ]
    },
    {
      "fips": "72137",
      "name": "Toa Baja Municipio",
      "facilities": [
        {
          "EPAFacilityID": "100000161497",
          "name": "La Virgencita Filtration Plant",
          "city": "Toa Baja",
          "address": "PR-8165 Km-0.3 \u2022  San Jose Ward",
          "lat_fac": 18.40528,
          "lon_fac": -66.25556,
          "names_prev": [
            "Toa Alta La Virgencita Filtration Plant",
            "La Virgencita-T. Alta Filtration Plant"
          ],
          "sub_last": {
            "id": 52786,
            "date": "2008-10-23",
            "date_dereg": "2013-03-11",
            "lat_sub": "18.405282",
            "lon_sub": "-066.255440",
            "lat_frs": 18.40528,
            "lon_frs": -66.25556
          }
        },
        {
          "EPAFacilityID": "100000152167",
          "name": "Manuel del Valle, Inc.",
          "city": "Toa Baja",
          "address": "State Road #2 Km. 20.5 \u2022 Candelaria Ward",
          "lat_fac": 18.41222,
          "lon_fac": -66.23917,
          "names_prev": [],
          "sub_last": {
            "id": 14360,
            "date": "1999-07-26",
            "date_dereg": "2005-10-14",
            "lat_sub": "18.412222",
            "lon_sub": "-66.239167",
            "lat_frs": 18.41222,
            "lon_frs": -66.23917
          }
        }
      ]
    },
    {
      "fips": "72139",
      "name": "Trujillo Alto Municipio",
      "facilities": [
        {
          "EPAFacilityID": "100000121753",
          "name": "Sergio Cuevas Filtration Plant",
          "city": "Trujillo Alto",
          "address": "Carr. 181, km 30",
          "lat_fac": 18.37121,
          "lon_fac": -66.02264,
          "names_prev": [],
          "sub_last": {
            "id": 1000060244,
            "date": "2018-03-23",
            "date_dereg": null,
            "lat_sub": "18.371307",
            "lon_sub": "-066.022378",
            "lat_frs": 18.37121,
            "lon_frs": -66.02264
          }
        }
      ]
    },
    {
      "fips": "72141",
      "name": "Utuado Municipio",
      "facilities": [
        {
          "EPAFacilityID": "100000121815",
          "name": "Roncador (Utuado) Filtration Plant",
          "city": "Utuado",
          "address": "Carr. 603, Km 5.0",
          "lat_fac": 18.24583,
          "lon_fac": -66.75972,
          "names_prev": [],
          "sub_last": {
            "id": 35308,
            "date": "2004-07-30",
            "date_dereg": "2007-11-08",
            "lat_sub": "18.245833",
            "lon_sub": "-066.759722",
            "lat_frs": 18.24583,
            "lon_frs": -66.75972
          }
        },
        {
          "EPAFacilityID": "100000187585",
          "name": "Utuado Urbana Filtration Plant",
          "city": "Utuado",
          "address": "PR State Road 111 Km. 5.6",
          "lat_fac": null,
          "lon_fac": null,
          "names_prev": [],
          "sub_last": {
            "id": 50713,
            "date": "2008-01-29",
            "date_dereg": "2011-10-28",
            "lat_sub": "18.243962",
            "lon_sub": "-066.671052",
            "lat_frs": null,
            "lon_frs": null
          }
        },
        {
          "EPAFacilityID": "100000125394",
          "name": "Utuado Wastewater Treatment Plant",
          "city": "Utuado",
          "address": "Carr. 10, Km. 50.5 \u2022 Salto Abajo",
          "lat_fac": 18.27,
          "lon_fac": -66.71028,
          "names_prev": [],
          "sub_last": {
            "id": 40251,
            "date": "2004-09-16",
            "date_dereg": "2007-06-26",
            "lat_sub": "18.268333",
            "lon_sub": "-066.710000",
            "lat_frs": 18.27,
            "lon_frs": -66.71028
          }
        }
      ]
    },
    {
      "fips": "72143",
      "name": "Vega Alta Municipio",
      "facilities": [
        {
          "EPAFacilityID": "100000125358",
          "name": "Vega Alta Wastewater Treatment Plant",
          "city": "Vega Alta",
          "address": "Carretera PR-676 Km 1.0 \u2022  Bo. Bajura",
          "lat_fac": 18.4175,
          "lon_fac": -66.34,
          "names_prev": [],
          "sub_last": {
            "id": 50623,
            "date": "2008-01-18",
            "date_dereg": "2010-02-26",
            "lat_sub": "18.417583",
            "lon_sub": "-066.338528",
            "lat_frs": 18.4175,
            "lon_frs": -66.34
          }
        }
      ]
    },
    {
      "fips": "72145",
      "name": "Vega Baja Municipio",
      "facilities": [
        {
          "EPAFacilityID": "100000119953",
          "name": "Vega Baja Almirante Sur Filtration Plant",
          "city": "Vega Baja",
          "address": "Carr. 160, Km. 10/9 \u2022 Bo. Almirante, Coallera",
          "lat_fac": 18.36417,
          "lon_fac": -66.37917,
          "names_prev": [
            "Almirante Sur (Vega Baja) Filtration Plant"
          ],
          "sub_last": {
            "id": 40239,
            "date": "2004-09-15",
            "date_dereg": "2009-06-26",
            "lat_sub": "18.364167",
            "lon_sub": "-066.379167",
            "lat_frs": 18.36417,
            "lon_frs": -66.37917
          }
        },
        {
          "EPAFacilityID": "100000125303",
          "name": "Vega Baja Wastewater Treatment Plant",
          "city": "Vega Baja",
          "address": "State Road 686 Km. 12.3 \u2022 Cabo Caribe Ward, Los Naranjos Sec.",
          "lat_fac": 18.46917,
          "lon_fac": -66.39722,
          "names_prev": [],
          "sub_last": {
            "id": 52176,
            "date": "2008-07-22",
            "date_dereg": "2012-12-14",
            "lat_sub": "18.469417",
            "lon_sub": "-066.396919",
            "lat_frs": 18.46917,
            "lon_frs": -66.39722
          }
        }
      ]
    },
    {
      "fips": "72147",
      "name": "Vieques Municipio",
      "facilities": [
        {
          "EPAFacilityID": "100000176267",
          "name": "Vieques Arcadia In Line Booster Pump Station",
          "city": "Vieques",
          "address": "M-A-F Navy",
          "lat_fac": 18.11933,
          "lon_fac": -65.54422,
          "names_prev": [],
          "sub_last": {
            "id": 23835,
            "date": "2001-07-24",
            "date_dereg": "2008-04-02",
            "lat_sub": "18.119333",
            "lon_sub": "-65.544222",
            "lat_frs": 18.11933,
            "lon_frs": -65.54422
          }
        }
      ]
    },
    {
      "fips": "72149",
      "name": "Villalba Municipio",
      "facilities": [
        {
          "EPAFacilityID": "100000208241",
          "name": "Toa Vaca, Villalba Filtration Plant",
          "city": "Villalba",
          "address": "PR-150 km. 5.6",
          "lat_fac": null,
          "lon_fac": null,
          "names_prev": [],
          "sub_last": {
            "id": 1000064217,
            "date": "2019-05-22",
            "date_dereg": null,
            "lat_sub": "18.097970",
            "lon_sub": "-066.486033",
            "lat_frs": null,
            "lon_frs": null
          }
        }
      ]
    },
    {
      "fips": "72151",
      "name": "Yabucoa Municipio",
      "facilities": [
        {
          "EPAFacilityID": "100000130173",
          "name": "Praxair Puerto Rico, Inc. - Yabucoa",
          "city": "Yabucoa",
          "address": "Route 901,KM 2.7Barrio Camino Nuevo",
          "lat_fac": 18.04583,
          "lon_fac": -65.85222,
          "names_prev": [],
          "sub_last": {
            "id": 19151,
            "date": "1999-12-02",
            "date_dereg": "2004-04-06",
            "lat_sub": "18.045833",
            "lon_sub": "-65.852222",
            "lat_frs": 18.04583,
            "lon_frs": -65.85222
          }
        },
        {
          "EPAFacilityID": "100000105931",
          "name": "Shell Chemical Yabucoa, Inc.",
          "city": "Yabucoa",
          "address": "Route 901 Km 2.7",
          "lat_fac": 18.04944,
          "lon_fac": -65.85361,
          "names_prev": [
            "Shell Chemical Yabucoa Inc.",
            "Puerto Rico Sun Oil Co."
          ],
          "sub_last": {
            "id": 47652,
            "date": "2007-02-16",
            "date_dereg": "2008-10-14",
            "lat_sub": "18.011111",
            "lon_sub": "-065.872500",
            "lat_frs": 18.04944,
            "lon_frs": -65.85361
          }
        },
        {
          "EPAFacilityID": "100000123886",
          "name": "Yabucoa Filtration Plant",
          "city": "Yabucoa",
          "address": "Carr. 3, Km 100.5 \u2022 Sector La Pica",
          "lat_fac": 18.03944,
          "lon_fac": -65.88444,
          "names_prev": [],
          "sub_last": {
            "id": 29584,
            "date": "2004-02-19",
            "date_dereg": "2007-11-30",
            "lat_sub": "18.039444",
            "lon_sub": "-65.884444",
            "lat_frs": 18.03944,
            "lon_frs": -65.88444
          }
        },
        {
          "EPAFacilityID": "100000126062",
          "name": "Yabucoa Wastewater Treatment Plant",
          "city": "Yabucoa",
          "address": "State Road PR-901 Int PR-3 Km. 0.1 \u2022 Bo. Juan Martin",
          "lat_fac": 18.0475,
          "lon_fac": -65.86778,
          "names_prev": [],
          "sub_last": {
            "id": 55830,
            "date": "2009-08-10",
            "date_dereg": "2010-02-16",
            "lat_sub": "18.049875",
            "lon_sub": "-065.869816",
            "lat_frs": 18.0475,
            "lon_frs": -65.86778
          }
        }
      ]
    },
    {
      "fips": "72153",
      "name": "Yauco Municipio",
      "facilities": [
        {
          "EPAFacilityID": "100000171798",
          "name": "Yauco Filtration Plant",
          "city": "Yauco",
          "address": "Carr. 128 Km 2.6 \u2022 Diego Hernandez Ward",
          "lat_fac": 18.05114,
          "lon_fac": -66.85336,
          "names_prev": [],
          "sub_last": {
            "id": 1000037465,
            "date": "2014-09-02",
            "date_dereg": "2017-05-22",
            "lat_sub": "18.051139",
            "lon_sub": "-66.853361",
            "lat_frs": 18.05114,
            "lon_frs": -66.85336
          }
        },