{
  "abbr": "VT",
  "name": "Vermont",
  "counties": [
    {
      "fips": "50001",
      "name": "Addison County",
      "facilities": [
        {
          "EPAFacilityID": "100000244309",
          "name": "Leicester",
          "city": "Leicester",
          "address": "2567 Leicester-Whiting Road",
          "lat_fac": null,
          "lon_fac": null,
          "names_prev": [],
          "sub_last": {
            "id": 1000088204,
            "date_val": "2021-09-20",
            "date_dereg": null,
            "lat_sub": "43.856744",
            "lon_sub": "-73.150267",
            "lat_frs": null,
            "lon_frs": null,
            "num_accidents": null,
            "latest_accident": null
          }
        },
        {
          "EPAFacilityID": "100000160274",
          "name": "Agri-Mark",
          "city": "Middlebury",
          "address": "869 Exchange Street",
          "lat_fac": 44.0199,
          "lon_fac": -73.16939,
          "names_prev": [
            "Agrimark"
          ],
          "sub_last": {
            "id": 1000072180,
            "date_val": "2019-06-07",
            "date_dereg": null,
            "lat_sub": "44.03145",
            "lon_sub": "-073.17261",
            "lat_frs": 44.0199,
            "lon_frs": -73.16939,
            "num_accidents": null,
            "latest_accident": null
          }
        }
      ]
    },
    {
      "fips": "50003",
      "name": "Bennington County",
      "facilities": [
        {
          "EPAFacilityID": "100000233419",
          "name": "Bennington Branch",
          "city": "Bennington",
          "address": "401 Rice Lane",
          "lat_fac": null,
          "lon_fac": null,
          "names_prev": [],
          "sub_last": {
            "id": 1000096923,
            "date_val": "2021-10-20",
            "date_dereg": "2021-12-23",
            "lat_sub": "42.9032",
            "lon_sub": "-73.2364",
            "lat_frs": null,
            "lon_frs": null,
            "num_accidents": null,
            "latest_accident": null
          }
        }
      ]
    },
    {
      "fips": "50005",
      "name": "Caledonia County",
      "facilities": [
        {
          "EPAFacilityID": "100000230528",
          "name": "Bell Passing Siding",
          "city": "Ryegate",
          "address": "Along route 5, Ryegate Rd",
          "lat_fac": null,
          "lon_fac": null,
          "names_prev": [],
          "sub_last": {
            "id": 1000089715,
            "date_val": "2020-09-10",
            "date_dereg": null,
            "lat_sub": "44.222447",
            "lon_sub": "-72.056703",
            "lat_frs": null,
            "lon_frs": null,
            "num_accidents": null,
            "latest_accident": null
          }
        },
        {
          "EPAFacilityID": "100000230494",
          "name": "Willoughby Passing Siding",
          "city": "Sutton",
          "address": "Along route 5, Lynburke Rd",
          "lat_fac": null,
          "lon_fac": null,
          "names_prev": [],
          "sub_last": {
            "id": 1000051539,
            "date_val": "2018-08-17",
            "date_dereg": "2020-07-10",
            "lat_sub": "44.688953",
            "lon_sub": "-72.055565",
            "lat_frs": null,
            "lon_frs": null,
            "num_accidents": null,
            "latest_accident": null
          }
        }
      ]
    },
    {
      "fips": "50007",
      "name": "Chittenden County",
      "facilities": [
        {
          "EPAFacilityID": "100000230537",
          "name": "Charlotte Passing Siding",
          "city": "Charlotte",
          "address": "Near 735 Ferry Rd",
          "lat_fac": null,
          "lon_fac": null,
          "names_prev": [],
          "sub_last": {
            "id": 1000089717,
            "date_val": "2020-09-10",
            "date_dereg": "2021-12-23",
            "lat_sub": "44.316711",
            "lon_sub": "-73.259914",
            "lat_frs": null,
            "lon_frs": null,
            "num_accidents": null,
            "latest_accident": null
          }
        },
        {
          "EPAFacilityID": "100000022511",
          "name": "Newton's Gas Company",
          "city": "Colchester",
          "address": "70 Lee Court",
          "lat_fac": 44.59473,
          "lon_fac": -73.18592,
          "names_prev": [],
          "sub_last": {
            "id": 10297,
            "date_val": "1999-06-08",
            "date_dereg": "2007-07-31",
            "lat_sub": "44.594722",
            "lon_sub": "-73.184167",
            "lat_frs": 44.59473,
            "lon_frs": -73.18592,
            "num_accidents": null,
            "latest_accident": null
          }
        }
      ]
    },
    {
      "fips": "50011",
      "name": "Franklin County",
      "facilities": [
        {
          "EPAFacilityID": "100000168294",
          "name": "City of St. Albans Wastewater Treatment Facility",
          "city": "St. Albans",
          "address": "Rewes Drive \u2022 Rt. 7 North",
          "lat_fac": 44.82978,
          "lon_fac": -73.08636,
          "names_prev": [],
          "sub_last": {
            "id": 20860,
            "date_val": "2000-03-28",
            "date_dereg": "2004-05-28",
            "lat_sub": "44.829778",
            "lon_sub": "-73.086361",
            "lat_frs": 44.82978,
            "lon_frs": -73.08636,
            "num_accidents": null,
            "latest_accident": null
          }
        },
        {
          "EPAFacilityID": "100000080912",
          "name": "St. Albans Plant - Ben & Jerry's",
          "city": "St. Albans",
          "address": "900 Industrial Park Road",
          "lat_fac": 44.79783,
          "lon_fac": -73.09618,
          "names_prev": [
            "St. Albans Plant"
          ],
          "sub_last": {
            "id": 1000068057,
            "date_val": "2021-04-16",
            "date_dereg": null,
            "lat_sub": "44.7959",
            "lon_sub": "-73.0997",
            "lat_frs": 44.79783,
            "lon_frs": -73.09618,
            "num_accidents": null,
            "latest_accident": null
          }
        }
      ]
    },
    {
      "fips": "50017",
      "name": "Orange County",
      "facilities": [
        {
          "EPAFacilityID": "100000230797",
          "name": "Ely Siding",
          "city": "Fairlee",
          "address": "Near 3 Ely Rd",
          "lat_fac": null,
          "lon_fac": null,
          "names_prev": [],
          "sub_last": {
            "id": 1000089718,
            "date_val": "2020-09-10",
            "date_dereg": "2021-12-23",
            "lat_sub": "43.869541",
            "lon_sub": "-72.181274",
            "lat_frs": null,
            "lon_frs": null,
            "num_accidents": null,
            "latest_accident": null
          }
        },
        {
          "EPAFacilityID": "100000230519",
          "name": "Wells River Passing Siding",
          "city": "Wells River",
          "address": "Along Route 5, Ryegate Rd",
          "lat_fac": null,
          "lon_fac": null,
          "names_prev": [],
          "sub_last": {
            "id": 1000093366,
            "date_val": "2021-04-16",
            "date_dereg": "2021-12-23",
            "lat_sub": "44.155072",
            "lon_sub": "-72.044564",
            "lat_frs": null,
            "lon_frs": null,
            "num_accidents": null,
            "latest_accident": null
          }
        }
      ]
    },
    {
      "fips": "50019",
      "name": "Orleans County",
      "facilities": [
        {
          "EPAFacilityID": "100000070415",
          "name": "Newport Wastewater Treatment Facility",
          "city": "Newport",
          "address": "94 T.P Lane",
          "lat_fac": 44.94,
          "lon_fac": -72.2,
          "names_prev": [],
          "sub_last": {
            "id": 44713,
            "date_val": "2006-01-18",
            "date_dereg": "2021-02-19",
            "lat_sub": "44.939889",
            "lon_sub": "-072.199583",
            "lat_frs": 44.94,
            "lon_frs": -72.2,
            "num_accidents": null,
            "latest_accident": null
          }
        }
      ]
    },
    {
      "fips": "50021",
      "name": "Rutland County",
      "facilities": [
        {
          "EPAFacilityID": "100000230476",
          "name": "Summit Siding",
          "city": "Mount Holly",
          "address": "Near 1295 Summit Rd",
          "lat_fac": null,
          "lon_fac": null,
          "names_prev": [],
          "sub_last": {
            "id": 1000051541,
            "date_val": "2017-04-24",
            "date_dereg": "2020-07-10",
            "lat_sub": "43.448753",
            "lon_sub": "-72.783322",
            "lat_frs": null,
            "lon_frs": null,
            "num_accidents": null,
            "latest_accident": null
          }
        },
        {
          "EPAFacilityID": "100000230421",
          "name": "Danby Passing Siding",
          "city": "Mount Tabor",
          "address": "Along Route 7",
          "lat_fac": null,
          "lon_fac": null,
          "names_prev": [],
          "sub_last": {
            "id": 1000088890,
            "date_val": "2020-07-21",
            "date_dereg": null,
            "lat_sub": "43.343542",
            "lon_sub": "-72.991694",
            "lat_frs": null,
            "lon_frs": null,
            "num_accidents": null,
            "latest_accident": null
          }
        },
        {
          "EPAFacilityID": "100000230412",
          "name": "S. Wallingford Passing Siding",
          "city": "Wallingford",
          "address": "Near 3569 Hartsboro Rd",
          "lat_fac": null,
          "lon_fac": null,
          "names_prev": [],
          "sub_last": {
            "id": 1000051546,
            "date_val": "2017-04-24",
            "date_dereg": "2020-07-10",
            "lat_sub": "43.410742",
            "lon_sub": "-72.991414",
            "lat_frs": null,
            "lon_frs": null,
            "num_accidents": null,
            "latest_accident": null
          }
        }
      ]
    },
    {
      "fips": "50023",
      "name": "Washington County",
      "facilities": [
        {
          "EPAFacilityID": "100000177505",
          "name": "Gas Supply Resources - Berlin Terminal",
          "city": "Berlin",
          "address": "236 Junction Road",
          "lat_fac": 44.25686,
          "lon_fac": -72.56269,
          "names_prev": [
            "DEFS NGL Services, LP - Berlin Terminal"
          ],
          "sub_last": {
            "id": 1000096782,
            "date_val": "2021-10-12",
            "date_dereg": null,
            "lat_sub": "44.255038",
            "lon_sub": "-072.604566",
            "lat_frs": 44.25686,
            "lon_frs": -72.56269,
            "num_accidents": null,
            "latest_accident": null
          }
        },
        {
          "EPAFacilityID": "100000074965",
          "name": "Montpelier Water Pollution Control Facility",
          "city": "Montpelier",
          "address": "949 Dog River Road",
          "lat_fac": 44.25306,
          "lon_fac": -72.59778,
          "names_prev": [],
          "sub_last": {
            "id": 33128,
            "date_val": "2004-07-19",
            "date_dereg": "2021-04-07",
            "lat_sub": "44.255000",
            "lon_sub": "-072.599972",
            "lat_frs": 44.25306,
            "lon_frs": -72.59778,
            "num_accidents": null,
            "latest_accident": null
          }
        },
        {
          "EPAFacilityID": "100000088601",
          "name": "Waterbury Plant - Ben & Jerry's",
          "city": "Waterbury",
          "address": "1281 Waterbury-Stowe Rd.",
          "lat_fac": 44.353,
          "lon_fac": -72.73928,
          "names_prev": [
            "Waterbury Facility"
          ],
          "sub_last": {
            "id": 1000081047,
            "date_val": "2019-07-08",
            "date_dereg": null,
            "lat_sub": "44.353484",
            "lon_sub": "-072.740374",
            "lat_frs": 44.353,
            "lon_frs": -72.73928,
            "num_accidents": null,
            "latest_accident": null
          }
        }
      ]
    },
    {
      "fips": "50025",
      "name": "Windham County",
      "facilities": [
        {
          "EPAFacilityID": "100000225981",
          "name": "Bellows Falls Bulk",
          "city": "BELLOWS FALLS",
          "address": "6 BEZANSON ROAD",
          "lat_fac": null,
          "lon_fac": null,
          "names_prev": [],
          "sub_last": {
            "id": 1000080635,
            "date_val": "2020-02-26",
            "date_dereg": null,
            "lat_sub": "43.1599",
            "lon_sub": "-72.4558",
            "lat_frs": null,
            "lon_frs": null,
            "num_accidents": null,
            "latest_accident": null
          }
        },
        {
          "EPAFacilityID": "100000230458",
          "name": "Steel Track",
          "city": "Bellows Falls",
          "address": "46 Steamtown rd",
          "lat_fac": null,
          "lon_fac": null,
          "names_prev": [],
          "sub_last": {
            "id": 1000063053,
            "date_val": "2017-04-24",
            "date_dereg": "2020-07-10",
            "lat_sub": "43.164721",
            "lon_sub": "-72.562298",
            "lat_frs": null,
            "lon_frs": null,
            "num_accidents": null,
            "latest_accident": null
          }
        },
        {
          "EPAFacilityID": "100000175927",
          "name": "Northeast Cooperatives-Technology Drive",
          "city": "Brattleboro",
          "address": "90 Technology Drive",
          "lat_fac": 42.87778,
          "lon_fac": -72.56528,
          "names_prev": [],
          "sub_last": {
            "id": 23784,
            "date_val": "2001-07-13",
            "date_dereg": "2007-02-23",
            "lat_sub": "42.877778",
            "lon_sub": "-72.565278",
            "lat_frs": 42.87778,
            "lon_frs": -72.56528,
            "num_accidents": null,
            "latest_accident": null
          }
        },
        {
          "EPAFacilityID": "100000230485",
          "name": "Bartonsville Passing Siding",
          "city": "Rockingham",
          "address": "Near 62 lower Bartonsville Rd",
          "lat_fac": null,
          "lon_fac": null,
          "names_prev": [],
          "sub_last": {
            "id": 1000051540,
            "date_val": "2017-04-24",
            "date_dereg": "2020-07-10",
            "lat_sub": "43.219869",
            "lon_sub": "-72.537117",
            "lat_frs": null,
            "lon_frs": null,
            "num_accidents": null,
            "latest_accident": null
          }
        },
        {
          "EPAFacilityID": "100000245282",
          "name": "Bartonsville Rail Facility",
          "city": "Rockingham",
          "address": "Near 62 Lower Bartonsville Road",
          "lat_fac": null,
          "lon_fac": null,
          "names_prev": [],
          "sub_last": {
            "id": 1000091664,
            "date_val": "2021-01-14",
            "date_dereg": null,
            "lat_sub": "43.220186",
            "lon_sub": "-72.537122",
            "lat_frs": null,
            "lon_frs": null,
            "num_accidents": null,
            "latest_accident": null
          }
        }
      ]
    },
    {
      "fips": "50027",
      "name": "Windsor County",
      "facilities": [
        {
          "EPAFacilityID": "100000230467",
          "name": "Chester Soapstone Track",
          "city": "Chester",
          "address": "535 Depot St",
          "lat_fac": null,
          "lon_fac": null,
          "names_prev": [],
          "sub_last": {
            "id": 1000051542,
            "date_val": "2017-01-18",
            "date_dereg": "2017-02-01",
            "lat_sub": "43.265919",
            "lon_sub": "-72.587672",
            "lat_frs": null,
            "lon_frs": null,
            "num_accidents": null,
            "latest_accident": null
          }
        },
        {
          "EPAFacilityID": "100000081083",
          "name": "Ellsworth Ice Cream , North Springfield Plant",
          "city": "North Springfield",
          "address": "Fairbanks Road",
          "lat_fac": 43.323,
          "lon_fac": -72.436,
          "names_prev": [
            "North Springfield Plant"
          ],
          "sub_last": {
            "id": 27825,
            "date_val": "2003-04-01",
            "date_dereg": "2008-07-10",
            "lat_sub": "43.333889",
            "lon_sub": "-72.541667",
            "lat_frs": 43.323,
            "lon_frs": -72.436,
            "num_accidents": null,
            "latest_accident": null
          }
        },
        {
          "EPAFacilityID": "100000244513",
          "name": "White River Junction Rail Tank Car",
          "city": "White River JCT",
          "address": "102 Railroad Row",
          "lat_fac": null,
          "lon_fac": null,
          "names_prev": [],
          "sub_last": {
            "id": 1000088445,
            "date_val": "2020-06-29",
            "date_dereg": null,
            "lat_sub": "43.653507",
            "lon_sub": "-72.328824",
            "lat_frs": null,
            "lon_frs": null,
            "num_accidents": null,
            "latest_accident": null
          }
        },
        {
          "EPAFacilityID": "100000216839",
          "name": "White River Junction Rail Bulk Plant",
          "city": "White River Junct.",
          "address": "81 Roundhouse Rd.",
          "lat_fac": null,
          "lon_fac": null,
          "names_prev": [],
          "sub_last": {
            "id": 1000096006,
            "date_val": "2021-09-09",
            "date_dereg": null,
            "lat_sub": "43.653075",
            "lon_sub": "-072.327876",
            "lat_frs": null,
            "lon_frs": null,
            "num_accidents": null,
            "latest_accident": null
          }
        }
      ]
    }
  ]
}