{
  "EPAFacilityID": "100000133125",
  "name": "Smithfield Packaged Meats Corp.",
  "state": "CA",
  "city": "Los Angeles",
  "address": "3049 E. Vernon Ave. \u2022 3163 E. Vernon Ave.",
  "zip": "90058",
  "county_fips": "06037",
  "lat_fac": 34.00554,
  "lon_fac": -118.21881,
  "company_1": "United Global Foods (US) Holdings, Inc.",
  "company_2": null,
  "operator": "Smithfield Packaged Meats Corp.",
  "submissions": [
    {
      "id": 1000078741,
      "date_rec": "2019-05-20",
      "date_val": "2020-10-05",
      "date_dereg": null,
      "lat_sub": "34.006896",
      "lon_sub": "-118.219602",
      "lat_frs": 34.00554,
      "lon_frs": -118.21881,
      "name": "Smithfield Packaged Meats Corp.",
      "company_1": "United Global Foods (US) Holdings, Inc.",
      "company_2": null,
      "operator": "Smithfield Packaged Meats Corp."
    },
    {
      "id": 1000042605,
      "date_rec": "2014-05-30",
      "date_val": "2018-08-30",
      "date_dereg": null,
      "lat_sub": "34.0072459",
      "lon_sub": "-118.219290",
      "lat_frs": 34.00554,
      "lon_frs": -118.21881,
      "name": "Smithfield Packaged Meats Corp.",
      "company_1": "Smithfield Packaged Meats Corp.",
      "company_2": null,
      "operator": "Smithfield Packaged Meats Corp."
    },
    {
      "id": 1000008850,
      "date_rec": "2009-06-22",
      "date_val": "2011-07-29",
      "date_dereg": null,
      "lat_sub": "34.009167",
      "lon_sub": "-118.216694",
      "lat_frs": 34.00554,
      "lon_frs": -118.21881,
      "name": "Clougherty Packing, LLC",
      "company_1": "Hormel Foods Corporation",
      "company_2": null,
      "operator": "Clougherty Packing, LLC"
    },
    {
      "id": 1000001165,
      "date_rec": "2009-06-05",
      "date_val": "2009-06-05",
      "date_dereg": null,
      "lat_sub": "34.006652",
      "lon_sub": "-118.217422",
      "lat_frs": 34.00554,
      "lon_frs": -118.21881,
      "name": "Clougherty Packing LLC",
      "company_1": "Hormel Foods Corporation",
      "company_2": null,
      "operator": "Cloughrty Packing LLC"
    },
    {
      "id": 44194,
      "date_rec": "2005-11-08",
      "date_val": "2008-07-29",
      "date_dereg": null,
      "lat_sub": "34.006652",
      "lon_sub": "-118.217422",
      "lat_frs": 34.00554,
      "lon_frs": -118.21881,
      "name": "Farmer John Meats",
      "company_1": "Hormel Foods Corporation",
      "company_2": null,
      "operator": "Farmer John Meats"
    },
    {
      "id": 52192,
      "date_rec": "2008-07-23",
      "date_val": "2008-07-23",
      "date_dereg": null,
      "lat_sub": "34.009167",
      "lon_sub": "-118.216694",
      "lat_frs": 34.00554,
      "lon_frs": -118.21881,
      "name": "Vernon, CA  75190",
      "company_1": "AmeriCold Logistics, LLC",
      "company_2": null,
      "operator": "Americold Logistics LLC"
    },
    {
      "id": 29961,
      "date_rec": "2004-05-04",
      "date_val": "2008-04-01",
      "date_dereg": null,
      "lat_sub": "34.007222",
      "lon_sub": "-118.216667",
      "lat_frs": 34.00554,
      "lon_frs": -118.21881,
      "name": "Americold Logistics Farmer John Distribution Ctr",
      "company_1": "AmeriCold Logistics, LLC",
      "company_2": null,
      "operator": "Americold Logistics LLC"
    },
    {
      "id": 41598,
      "date_rec": "2004-12-21",
      "date_val": "2004-12-29",
      "date_dereg": null,
      "lat_sub": "34.006652",
      "lon_sub": "-118.217422",
      "lat_frs": 34.00554,
      "lon_frs": -118.21881,
      "name": "Farmer John Meats",
      "company_1": "Clougherty",
      "company_2": null,
      "operator": "Bernard J. Clougherty"
    },
    {
      "id": 29427,
      "date_rec": "2004-01-22",
      "date_val": "2004-01-28",
      "date_dereg": null,
      "lat_sub": "34.009167",
      "lon_sub": "118.216694",
      "lat_frs": 34.00554,
      "lon_frs": -118.21881,
      "name": "Americold Logistics Farmer John Distribution Ctr",
      "company_1": "AmeriCold Logistics, LLC",
      "company_2": null,
      "operator": "Americold Logistics LLC"
    },
    {
      "id": 29164,
      "date_rec": "2003-11-17",
      "date_val": "2003-11-17",
      "date_dereg": null,
      "lat_sub": "34.009167",
      "lon_sub": "118.216694",
      "lat_frs": 34.00554,
      "lon_frs": -118.21881,
      "name": "Americold Logistics Plant  FJ Dist #75190",
      "company_1": "Vornado Reit",
      "company_2": "Crescent Reit",
      "operator": "Americold Logistics LLC"
    },
    {
      "id": 12666,
      "date_rec": "1999-06-24",
      "date_val": "1999-07-15",
      "date_dereg": null,
      "lat_sub": "34.001111",
      "lon_sub": "-118.21",
      "lat_frs": 34.00554,
      "lon_frs": -118.21881,
      "name": "FARMER JOHN MEATS",
      "company_1": "CLOUGHERTY PACKING COMPANY",
      "company_2": null,
      "operator": "BERNARD J. CLOUGHERTY, V.P."
    }
  ],
  "names_prev": [
    "Clougherty Packing, LLC",
    "Clougherty Packing LLC",
    "Farmer John Meats",
    "Vernon, CA  75190",
    "Americold Logistics Farmer John Distribution Ctr",
    "Americold Logistics Plant  FJ Dist #75190",
    "FARMER JOHN MEATS"
  ]
}