{
  "EPAFacilityID": "100000141786",
  "name": "Dole Packaged Foods, LLC.",
  "state": "CA",
  "city": "Atwater",
  "address": "7916 West Bellevue Road",
  "zip": "95301",
  "county_fips": "06047",
  "lat_fac": 37.36018,
  "lon_fac": -120.6224,
  "company_1": null,
  "company_2": null,
  "operator": "Dole Packaged Foods, LLC.",
  "submissions": [
    {
      "id": 1000078481,
      "date_rec": "2019-08-08",
      "date_val": "2020-02-06",
      "date_dereg": null,
      "lat_sub": "37.362400",
      "lon_sub": "-120.630500",
      "lat_frs": 37.36018,
      "lon_frs": -120.6224,
      "num_accidents": null,
      "latest_accident": null,
      "name": "Dole Packaged Foods, LLC.",
      "company_1": null,
      "company_2": null,
      "operator": "Dole Packaged Foods, LLC."
    },
    {
      "id": 1000045836,
      "date_rec": "2014-08-11",
      "date_val": "2019-01-07",
      "date_dereg": null,
      "lat_sub": "37.362400",
      "lon_sub": "-120.630500",
      "lat_frs": 37.36018,
      "lon_frs": -120.6224,
      "num_accidents": 1,
      "latest_accident": "2012-12-04",
      "name": "Dole Packaged Foods, LLC. (Ammonia)",
      "company_1": null,
      "company_2": null,
      "operator": "Dole Packaged Foods, LLC."
    },
    {
      "id": 1000037511,
      "date_rec": "2014-01-16",
      "date_val": "2014-01-16",
      "date_dereg": null,
      "lat_sub": "37.362400",
      "lon_sub": "-120.630500",
      "lat_frs": 37.36018,
      "lon_frs": -120.6224,
      "num_accidents": 1,
      "latest_accident": "2012-12-04",
      "name": "Dole Packaged Foods, LLC. (Ammonia)",
      "company_1": null,
      "company_2": null,
      "operator": "Dole Packaged Foods, LLC."
    },
    {
      "id": 1000012663,
      "date_rec": "2010-03-24",
      "date_val": "2010-03-24",
      "date_dereg": null,
      "lat_sub": "37.362400",
      "lon_sub": "-120.630500",
      "lat_frs": 37.36018,
      "lon_frs": -120.6224,
      "num_accidents": 2,
      "latest_accident": "2006-07-18",
      "name": "Dole Packaged Foods, LLC. (Ammonia)",
      "company_1": null,
      "company_2": null,
      "operator": "Dole Packaged Foods, LLC."
    },
    {
      "id": 42794,
      "date_rec": "2005-05-09",
      "date_val": "2005-05-11",
      "date_dereg": null,
      "lat_sub": "37.360800",
      "lon_sub": "-120.630400",
      "lat_frs": 37.36018,
      "lon_frs": -120.6224,
      "num_accidents": 2,
      "latest_accident": "2004-06-09",
      "name": "Dole Packaged Frozen Foods, Inc. (Ammonia)",
      "company_1": null,
      "company_2": null,
      "operator": "Dole Packaged Frozen Foods, Inc."
    },
    {
      "id": 38653,
      "date_rec": "2004-06-25",
      "date_val": "2004-08-24",
      "date_dereg": null,
      "lat_sub": "37.362500",
      "lon_sub": "-120.630000",
      "lat_frs": 37.36018,
      "lon_frs": -120.6224,
      "num_accidents": 1,
      "latest_accident": "2004-06-09",
      "name": "J.R. Wood, Inc.",
      "company_1": "Dole Food Company, Inc.",
      "company_2": null,
      "operator": "Wood Holdings"
    },
    {
      "id": 13549,
      "date_rec": "1999-06-24",
      "date_val": "1999-07-19",
      "date_dereg": null,
      "lat_sub": "37.360944",
      "lon_sub": "-120.631361",
      "lat_frs": 37.36018,
      "lon_frs": -120.6224,
      "num_accidents": 2,
      "latest_accident": "1999-06-05",
      "name": "J.R. Wood, Inc.",
      "company_1": null,
      "company_2": null,
      "operator": "J.R. Wood, Inc."
    }
  ],
  "names_prev": [
    "Dole Packaged Foods, LLC. (Ammonia)",
    "Dole Packaged Frozen Foods, Inc. (Ammonia)",
    "J.R. Wood, Inc."
  ]
}